{"lon":"27.2825037","lat":"59.3391451","number":"4","street":"Tuule tänav","unit":"","city":"\"Kohtla-Järve linn","district":"Sompa linnaosa\"","region":"Kohtla-Järve linn","postcode":"Ida-Viru maakond"},
{"lon":"24.8052317","lat":"59.5206707","number":"2","street":"Kimsi tee","unit":"","city":"\"Viimsi vald","district":"Pringi küla\"","region":"Viimsi vald","postcode":"Harju maakond"},
{"lon":"24.9012723","lat":"59.5012274","number":"54","street":"Silva tee","unit":"","city":"\"Viimsi vald","district":"Randvere küla\"","region":"Viimsi vald","postcode":"Harju maakond"},
{"lon":"25.8319818","lat":"59.1926457","number":"3","street":"Lai tänav","unit":"","city":"\"Ambla vald","district":"Ambla alevik\"","region":"Ambla vald","postcode":"Järva maakond"},
{"lon":"27.2789776","lat":"57.730337","number":"4","street":"Turu tänav","unit":"","city":"\"Vastseliina vald","district":"Vastseliina alevik\"","region":"Vastseliina vald","postcode":"Võru maakond"},
{"lon":"24.6183804","lat":"59.3461578","number":"33","street":"Kuuse tänav","unit":"","city":"\"Saue vald","district":"Laagri alevik\"","region":"Saue vald","postcode":"Harju maakond"},
{"lon":"25.8917869","lat":"58.7065804","number":"8","street":"Kuuse tänav","unit":"","city":"\"Põltsamaa vald","district":"Adavere alevik\"","region":"Põltsamaa vald","postcode":"Jõgeva maakond"},
{"lon":"24.8152629","lat":"59.514764","number":"6","street":"Sanglepa tee","unit":"","city":"\"Viimsi vald","district":"Haabneeme alevik\"","region":"Viimsi vald","postcode":"Harju maakond"},
{"lon":"25.8615049","lat":"58.2374345","number":"7","street":"Karja tänav","unit":"","city":"\"Tarvastu vald","district":"Mustla alevik\"","region":"Tarvastu vald","postcode":"Viljandi maakond"},
{"lon":"26.2540164","lat":"58.1485833","number":"12","street":"Piiri tänav","unit":"","city":"\"Rõngu vald","district":"Rõngu alevik\"","region":"Rõngu vald","postcode":"Tartu maakond"},
{"lon":"25.8539002","lat":"58.2331003","number":"4","street":"Põllu tänav","unit":"","city":"\"Tarvastu vald","district":"Mustla alevik\"","region":"Tarvastu vald","postcode":"Viljandi maakond"},
{"lon":"25.881602","lat":"59.0348722","number":"46","street":"Lai tänav","unit":"","city":"\"Järva-Jaani vald","district":"Järva-Jaani alev\"","region":"Järva-Jaani vald","postcode":"Järva maakond"},
{"lon":"27.5084354","lat":"59.4166902","number":"38","street":"Liiva tänav","unit":"","city":"\"Toila vald","district":"Toila alevik\"","region":"Toila vald","postcode":"Ida-Viru maakond"},
{"lon":"25.3055067","lat":"58.3284473","number":"4","street":"Kase tänav","unit":"","city":"\"Kõpu vald","district":"Kõpu alevik\"","region":"Kõpu vald","postcode":"Viljandi maakond"},
{"lon":"24.8014986","lat":"59.5432679","number":"9","street":"Vesiroosi tee","unit":"","city":"\"Viimsi vald","district":"Püünsi küla\"","region":"Viimsi vald","postcode":"Harju maakond"},
{"lon":"24.9097572","lat":"59.458127","number":"9","street":"Äia tee","unit":"","city":"\"Jõelähtme vald","district":"Iru küla\"","region":"Jõelähtme vald","postcode":"Harju maakond"},
{"lon":"24.7490696","lat":"59.2794007","number":"4","street":"Alfredi tee","unit":"","city":"\"Saku vald","district":"Lokuti küla\"","region":"Saku vald","postcode":"Harju maakond"},
{"lon":"24.9523455","lat":"59.4097816","number":"2","street":"Ilumetsa ling","unit":"","city":"\"Rae vald","district":"Kopli küla\"","region":"Rae vald","postcode":"Harju maakond"},
{"lon":"22.1821925","lat":"58.4987964","number":"2","street":"Järvekalda tänav","unit":"","city":"\"Mustjala vald","district":"Merise küla\"","region":"Mustjala vald","postcode":"Saare maakond"},
{"lon":"25.1405807","lat":"58.8305417","number":"9","street":"Viljandi maantee","unit":"","city":"\"Käru vald","district":"Käru alevik\"","region":"Käru vald","postcode":"Rapla maakond"},
{"lon":"24.4356765","lat":"58.9100574","number":"10a","street":"Nõmme tänav","unit":"","city":"\"Märjamaa vald","district":"Märjamaa alev\"","region":"Märjamaa vald","postcode":"Rapla maakond"},
{"lon":"25.9690955","lat":"59.5799376","number":"4","street":"Kalda tänav","unit":"","city":"\"Vihula vald","district":"Võsu alevik\"","region":"Vihula vald","postcode":"Lääne-Viru maakond"},
{"lon":"26.5316132","lat":"57.8339242","number":"8b","street":"Põik tänav","unit":"","city":"\"Antsla vald","district":"Antsla linn\"","region":"Antsla vald","postcode":"Võru maakond"},
{"lon":"24.2328348","lat":"59.07985","number":"10","street":"Lille tänav","unit":"","city":"\"Nissi vald","district":"Turba alevik\"","region":"Nissi vald","postcode":"Harju maakond"},
{"lon":"25.0076136","lat":"58.8637395","number":"6","street":"Tööstuse tänav","unit":"","city":"\"Kehtna vald","district":"Lelle alevik\"","region":"Kehtna vald","postcode":"Rapla maakond"},
{"lon":"24.6115717","lat":"58.3033858","number":"21","street":"Veski tee","unit":"","city":"\"Tahkuranna vald","district":"Reiu küla\"","region":"Tahkuranna vald","postcode":"Pärnu maakond"},
{"lon":"26.658137","lat":"58.431929","number":"18","street":"Jõerahu tänav","unit":"","city":"\"Tähtvere vald","district":"Vorbuse küla\"","region":"Tähtvere vald","postcode":"Tartu maakond"},
{"lon":"24.795306","lat":"59.5370885","number":"8","street":"Paakspuu tee","unit":"","city":"\"Viimsi vald","district":"Pringi küla\"","region":"Viimsi vald","postcode":"Harju maakond"},
{"lon":"25.8788541","lat":"58.234525","number":"1","street":"Tiigi tänav","unit":"","city":"\"Tarvastu vald","district":"Mustla alevik\"","region":"Tarvastu vald","postcode":"Viljandi maakond"},
{"lon":"22.0364065","lat":"58.356348","number":"15","street":"Lümanda maantee","unit":"","city":"\"Kihelkonna vald","district":"Kihelkonna alevik\"","region":"Kihelkonna vald","postcode":"Saare maakond"},
{"lon":"26.7308206","lat":"58.3067866","number":"5","street":"Kasejõe tänav","unit":"","city":"\"Ülenurme vald","district":"Ülenurme alevik\"","region":"Ülenurme vald","postcode":"Tartu maakond"},
{"lon":"24.2412189","lat":"59.3864332","number":"2","street":"Tamme tänav","unit":"","city":"\"Keila vald","district":"Laulasmaa küla\"","region":"Keila vald","postcode":"Harju maakond"},
{"lon":"27.4597796","lat":"58.1008216","number":"5","street":"Võõpsu maantee","unit":"","city":"\"Räpina vald","district":"Räpina linn\"","region":"Räpina vald","postcode":"Põlva maakond"},
{"lon":"27.2756981","lat":"59.4001207","number":"15a","street":"Torujõe tänav","unit":"","city":"\"Kohtla-Järve linn","district":"Järve linnaosa\"","region":"Kohtla-Järve linn","postcode":"Ida-Viru maakond"},
{"lon":"26.9837421","lat":"57.9062981","number":"5","street":"Kesk tänav","unit":"","city":"\"Võru vald","district":"Parksepa alevik\"","region":"Võru vald","postcode":"Võru maakond"},
{"lon":"23.9846204","lat":"58.3362738","number":"19","street":"Metsa tänav","unit":"","city":"\"Tõstamaa vald","district":"Tõstamaa alevik\"","region":"Tõstamaa vald","postcode":"Pärnu maakond"},
{"lon":"26.8708579","lat":"59.4499407","number":"8","street":"Männi tänav","unit":"","city":"\"Aseri vald","district":"Aseri alevik\"","region":"Aseri vald","postcode":"Ida-Viru maakond"},
{"lon":"24.8830524","lat":"59.5421595","number":"6","street":"Kuusiku tee","unit":"","city":"\"Viimsi vald","district":"Leppneeme küla\"","region":"Viimsi vald","postcode":"Harju maakond"},
{"lon":"26.7923413","lat":"58.3519604","number":"19","street":"Aruheina tee","unit":"","city":"\"Luunja vald","district":"Veibri küla\"","region":"Luunja vald","postcode":"Tartu maakond"},
{"lon":"26.6025334","lat":"58.5475971","number":"17","street":"Pargi tänav","unit":"","city":"\"Tabivere vald","district":"Tabivere alevik\"","region":"Tabivere vald","postcode":"Jõgeva maakond"},
{"lon":"25.880712","lat":"58.2351374","number":"3","street":"Kooli tänav","unit":"","city":"\"Tarvastu vald","district":"Mustla alevik\"","region":"Tarvastu vald","postcode":"Viljandi maakond"},
{"lon":"24.6501555","lat":"59.2914442","number":"8","street":"Üksnurme tee","unit":"","city":"\"Saku vald","district":"Saku alevik\"","region":"Saku vald","postcode":"Harju maakond"},
{"lon":"24.9170517","lat":"59.3561539","number":"13/9","street":"Ehituse tänav","unit":"","city":"\"Rae vald","district":"Jüri alevik\"","region":"Rae vald","postcode":"Harju maakond"},
{"lon":"25.8323279","lat":"59.191416","number":"15","street":"Jõe tänav","unit":"","city":"\"Ambla vald","district":"Ambla alevik\"","region":"Ambla vald","postcode":"Järva maakond"},
{"lon":"26.2608005","lat":"59.438371","number":"18","street":"Veskijärve tänav","unit":"","city":"\"Haljala vald","district":"Haljala alevik\"","region":"Haljala vald","postcode":"Lääne-Viru maakond"},
{"lon":"25.1610261","lat":"59.5293873","number":"8","street":"Pärituule tee","unit":"","city":"\"Jõelähtme vald","district":"Neeme küla\"","region":"Jõelähtme vald","postcode":"Harju maakond"},
{"lon":"27.5389724","lat":"58.0853738","number":"20","street":"Aia tänav","unit":"","city":"\"Räpina vald","district":"Võõpsu alevik\"","region":"Räpina vald","postcode":"Põlva maakond"},
{"lon":"26.6968232","lat":"58.2303303","number":"22","street":"Võru maantee","unit":"","city":"\"Kambja vald","district":"Kambja alevik\"","region":"Kambja vald","postcode":"Tartu maakond"},
{"lon":"24.944435","lat":"58.7494145","number":"29","street":"Tallinna maantee","unit":"","city":"\"Kehtna vald","district":"Eidapere alevik\"","region":"Kehtna vald","postcode":"Rapla maakond"},
{"lon":"25.864983","lat":"58.2345634","number":"41","street":"Posti tänav","unit":"","city":"\"Tarvastu vald","district":"Mustla alevik\"","region":"Tarvastu vald","postcode":"Viljandi maakond"},
{"lon":"27.2814524","lat":"59.396254","number":"5","street":"Niidu tänav","unit":"","city":"\"Kohtla-Järve linn","district":"Järve linnaosa\"","region":"Kohtla-Järve linn","postcode":"Ida-Viru maakond"},
{"lon":"27.3415553","lat":"59.3983493","number":"1","street":"Jõhvi maantee","unit":"","city":"\"Kohtla-Järve linn","district":"Kukruse linnaosa\"","region":"Kohtla-Järve linn","postcode":"Ida-Viru maakond"},
{"lon":"24.2478591","lat":"59.3209577","number":"8","street":"Metsa tänav","unit":"","city":"\"Keila vald","district":"Klooga alevik\"","region":"Keila vald","postcode":"Harju maakond"},
{"lon":"25.6056214","lat":"59.29714","number":"10","street":"Pohla tänav","unit":"","city":"\"Aegviidu vald","district":"Aegviidu alev\"","region":"Aegviidu vald","postcode":"Harju maakond"},
{"lon":"23.8363371","lat":"58.6898295","number":"3","street":"Tallinna maantee","unit":"","city":"\"Lihula vald","district":"Lihula linn\"","region":"Lihula vald","postcode":"Lääne maakond"},
{"lon":"26.2501767","lat":"58.1487284","number":"7","street":"Pargi tänav","unit":"","city":"\"Rõngu vald","district":"Rõngu alevik\"","region":"Rõngu vald","postcode":"Tartu maakond"},
{"lon":"26.583778","lat":"59.1719019","number":"28","street":"Tartu maantee","unit":"","city":"\"Vinni vald","district":"Roela alevik\"","region":"Vinni vald","postcode":"Lääne-Viru maakond"},
{"lon":"25.457498","lat":"58.8891645","number":"1","street":"Ülejõe tänav","unit":"","city":"\"Väätsa vald","district":"Väätsa alevik\"","region":"Väätsa vald","postcode":"Järva maakond"},
{"lon":"27.4200645","lat":"59.3280086","number":"25a","street":"Maleva tänav","unit":"","city":"\"Kohtla-Järve linn","district":"Ahtme linnaosa\"","region":"Kohtla-Järve linn","postcode":"Ida-Viru maakond"},
{"lon":"24.8878253","lat":"59.534708","number":"3","street":"Teigari tee","unit":"","city":"\"Viimsi vald","district":"Tammneeme küla\"","region":"Viimsi vald","postcode":"Harju maakond"},
{"lon":"26.7223895","lat":"58.3148475","number":"4","street":"Võru maantee","unit":"","city":"\"Ülenurme vald","district":"Ülenurme alevik\"","region":"Ülenurme vald","postcode":"Tartu maakond"},
{"lon":"24.6152127","lat":"58.3883475","number":"6","street":"Uuekalda tänav","unit":"","city":"\"Sauga vald","district":"Tammiste küla\"","region":"Sauga vald","postcode":"Pärnu maakond"},
{"lon":"24.233646","lat":"59.0803175","number":"5","street":"Saare tänav","unit":"","city":"\"Nissi vald","district":"Turba alevik\"","region":"Nissi vald","postcode":"Harju maakond"},
{"lon":"24.8978287","lat":"59.4846232","number":"4","street":"Räägu tee","unit":"","city":"\"Viimsi vald","district":"Äigrumäe küla\"","region":"Viimsi vald","postcode":"Harju maakond"},
{"lon":"24.2500615","lat":"59.3449373","number":"22","street":"Ranna tee","unit":"","city":"\"Keila vald","district":"Kloogaranna küla\"","region":"Keila vald","postcode":"Harju maakond"},
{"lon":"24.4798097","lat":"58.657402","number":"7","street":"Metsa tänav","unit":"","city":"\"Halinga vald","district":"Libatse küla\"","region":"Halinga vald","postcode":"Pärnu maakond"},
{"lon":"25.0718378","lat":"59.3642869","number":"7","street":"Harju tee","unit":"","city":"\"Raasiku vald","district":"Aruküla alevik\"","region":"Raasiku vald","postcode":"Harju maakond"},
{"lon":"26.4755169","lat":"59.2416152","number":"5","street":"Kooli tee","unit":"","city":"\"Vinni vald","district":"Viru-Jaagupi alevik\"","region":"Vinni vald","postcode":"Lääne-Viru maakond"},
{"lon":"26.2449541","lat":"58.1452968","number":"3","street":"Nooruse tänav","unit":"","city":"\"Rõngu vald","district":"Rõngu alevik\"","region":"Rõngu vald","postcode":"Tartu maakond"},
{"lon":"24.7170259","lat":"59.2271131","number":"13","street":"Tagadi tee","unit":"","city":"\"Saku vald","district":"Kurtna küla\"","region":"Saku vald","postcode":"Harju maakond"},
{"lon":"24.2334167","lat":"59.0783673","number":"5","street":"Lasteaia tänav","unit":"","city":"\"Nissi vald","district":"Turba alevik\"","region":"Nissi vald","postcode":"Harju maakond"},
{"lon":"26.5376135","lat":"58.2674207","number":"10","street":"Kaare tänav","unit":"","city":"\"Nõo vald","district":"Nõo alevik\"","region":"Nõo vald","postcode":"Tartu maakond"},
{"lon":"27.412042","lat":"59.3244363","number":"17","street":"Lehola tänav","unit":"","city":"\"Kohtla-Järve linn","district":"Ahtme linnaosa\"","region":"Kohtla-Järve linn","postcode":"Ida-Viru maakond"},
{"lon":"24.8471824","lat":"59.3792867","number":"4","street":"Graniidi tee","unit":"","city":"\"Rae vald","district":"Rae küla\"","region":"Rae vald","postcode":"Harju maakond"},
{"lon":"25.177688","lat":"59.3635826","number":"26","street":"Roosi tänav","unit":"","city":"\"Raasiku vald","district":"Raasiku alevik\"","region":"Raasiku vald","postcode":"Harju maakond"},
{"lon":"22.0372439","lat":"58.3606784","number":"4a","street":"Kiriku tänav","unit":"","city":"\"Kihelkonna vald","district":"Kihelkonna alevik\"","region":"Kihelkonna vald","postcode":"Saare maakond"},
{"lon":"24.8928307","lat":"59.491961","number":"15","street":"Raudrohu tee","unit":"","city":"\"Viimsi vald","district":"Metsakasti küla\"","region":"Viimsi vald","postcode":"Harju maakond"},
{"lon":"24.950227","lat":"59.4858273","number":"25","street":"Ojakääru tee","unit":"","city":"\"Viimsi vald","district":"Muuga küla\"","region":"Viimsi vald","postcode":"Harju maakond"},
{"lon":"27.4497944","lat":"59.3122145","number":"4a","street":"Lasteaia tänav","unit":"","city":"\"Kohtla-Järve linn","district":"Ahtme linnaosa\"","region":"Kohtla-Järve linn","postcode":"Ida-Viru maakond"},
{"lon":"26.596394","lat":"58.5540262","number":"15","street":"Kalda tänav","unit":"","city":"\"Tabivere vald","district":"Tabivere alevik\"","region":"Tabivere vald","postcode":"Jõgeva maakond"},
{"lon":"24.4737918","lat":"59.3259648","number":"9","street":"Jaarli tee","unit":"","city":"\"Harku vald","district":"Tutermaa küla\"","region":"Harku vald","postcode":"Harju maakond"},
{"lon":"24.440614","lat":"59.4509469","number":"3","street":"Mingi tänav","unit":"","city":"\"Harku vald","district":"Muraste küla\"","region":"Harku vald","postcode":"Harju maakond"},
{"lon":"26.4868593","lat":"58.0552287","number":"10a","street":"Oru tänav","unit":"","city":"\"Otepää vald","district":"Otepää linn\"","region":"Otepää vald","postcode":"Valga maakond"},
{"lon":"24.6685734","lat":"58.4195935","number":"2","street":"Kasetuka tee","unit":"","city":"\"Sauga vald","district":"Pulli küla\"","region":"Sauga vald","postcode":"Pärnu maakond"},
{"lon":"26.1913491","lat":"57.8619299","number":"6","street":"Roosi tänav","unit":"","city":"\"Tõlliste vald","district":"Tsirguliina alevik\"","region":"Tõlliste vald","postcode":"Valga maakond"},
{"lon":"27.2552879","lat":"59.376658","number":"81","street":"Ehitajate tänav","unit":"","city":"\"Kohtla-Järve linn","district":"Järve linnaosa\"","region":"Kohtla-Järve linn","postcode":"Ida-Viru maakond"},
{"lon":"27.7681417","lat":"59.3720345","number":"8","street":"Raudtee tänav","unit":"","city":"\"Vaivara vald","district":"Vaivara küla\"","region":"Vaivara vald","postcode":"Ida-Viru maakond"},
{"lon":"24.8376656","lat":"59.5020833","number":"3","street":"Pargi tee","unit":"","city":"\"Viimsi vald","district":"Viimsi alevik\"","region":"Viimsi vald","postcode":"Harju maakond"},
{"lon":"26.3705442","lat":"59.3624371","number":"9","street":"Roo tänav","unit":"","city":"\"Sõmeru vald","district":"Roodevälja küla\"","region":"Sõmeru vald","postcode":"Lääne-Viru maakond"},
{"lon":"27.2890232","lat":"59.3376861","number":"14","street":"Kelluka tänav","unit":"","city":"\"Kohtla-Järve linn","district":"Sompa linnaosa\"","region":"Kohtla-Järve linn","postcode":"Ida-Viru maakond"},
{"lon":"26.8331943","lat":"59.3519939","number":"18a","street":"Lembitu tänav","unit":"","city":"\"Sonda vald","district":"Sonda alevik\"","region":"Sonda vald","postcode":"Ida-Viru maakond"},
{"lon":"24.6571885","lat":"59.3042958","number":"15","street":"Kesk tänav","unit":"","city":"\"Saku vald","district":"Saku alevik\"","region":"Saku vald","postcode":"Harju maakond"},
{"lon":"24.530727","lat":"59.4369184","number":"16","street":"Tammede allee","unit":"","city":"\"Harku vald","district":"Tabasalu alevik\"","region":"Harku vald","postcode":"Harju maakond"},
{"lon":"24.2216427","lat":"59.3207789","number":"5","street":"Lepa tänav","unit":"","city":"\"Keila vald","district":"Klooga alevik\"","region":"Keila vald","postcode":"Harju maakond"},
{"lon":"24.8867731","lat":"59.5397649","number":"3","street":"Kalevi tee","unit":"","city":"\"Viimsi vald","district":"Tammneeme küla\"","region":"Viimsi vald","postcode":"Harju maakond"},
{"lon":"25.1375362","lat":"58.8254615","number":"2","street":"Oru tänav","unit":"","city":"\"Käru vald","district":"Käru alevik\"","region":"Käru vald","postcode":"Rapla maakond"},
{"lon":"26.698634","lat":"58.2394447","number":"3","street":"Pihlaka tänav","unit":"","city":"\"Kambja vald","district":"Kambja alevik\"","region":"Kambja vald","postcode":"Tartu maakond"},
{"lon":"25.9749384","lat":"59.2634462","number":"34","street":"Hommiku puiestee","unit":"","city":"\"Tapa vald","district":"Tapa linn\"","region":"Tapa vald","postcode":"Lääne-Viru maakond"},
{"lon":"24.9301824","lat":"59.4027719","number":"17","street":"Betooni tänav","unit":"","city":"\"Rae vald","district":"Lagedi alevik\"","region":"Rae vald","postcode":"Harju maakond"},
{"lon":"24.5704976","lat":"58.3699078","number":"13","street":"Kullerkupu tänav","unit":"","city":"\"Sauga vald","district":"Tammiste küla\"","region":"Sauga vald","postcode":"Pärnu maakond"},
{"lon":"22.0372676","lat":"58.3602284","number":"4","street":"Kiriku tänav","unit":"","city":"\"Kihelkonna vald","district":"Kihelkonna alevik\"","region":"Kihelkonna vald","postcode":"Saare maakond"},
{"lon":"27.5818334","lat":"59.4035392","number":"2","street":"Narva maantee","unit":"","city":"\"Toila vald","district":"Voka alevik\"","region":"Toila vald","postcode":"Ida-Viru maakond"},
{"lon":"23.8356268","lat":"58.6798688","number":"11","street":"Veski tänav","unit":"","city":"\"Lihula vald","district":"Lihula linn\"","region":"Lihula vald","postcode":"Lääne maakond"},
{"lon":"24.2278386","lat":"59.3197638","number":"7","street":"Pargi tänav","unit":"","city":"\"Keila vald","district":"Klooga alevik\"","region":"Keila vald","postcode":"Harju maakond"},
{"lon":"26.7185809","lat":"58.2791074","number":"17","street":"Põdra tee","unit":"","city":"\"Ülenurme vald","district":"Uhti küla\"","region":"Ülenurme vald","postcode":"Tartu maakond"},
{"lon":"25.9695925","lat":"59.5808992","number":"3","street":"Kalda tänav","unit":"","city":"\"Vihula vald","district":"Võsu alevik\"","region":"Vihula vald","postcode":"Lääne-Viru maakond"},
{"lon":"25.6182504","lat":"59.2986273","number":"7","street":"Kosenõmme tänav","unit":"","city":"\"Aegviidu vald","district":"Aegviidu alev\"","region":"Aegviidu vald","postcode":"Harju maakond"},
{"lon":"27.5729324","lat":"59.3718246","number":"9","street":"Virmalise tänav","unit":"","city":"\"Kohtla-Järve linn","district":"Oru linnaosa\"","region":"Kohtla-Järve linn","postcode":"Ida-Viru maakond"},
{"lon":"26.2405145","lat":"58.9872725","number":"6","street":"Vahtra tänav","unit":"","city":"\"Rakke vald","district":"Rakke alevik\"","region":"Rakke vald","postcode":"Lääne-Viru maakond"},
{"lon":"24.9143189","lat":"59.4974419","number":"15","street":"Kurekella tee","unit":"","city":"\"Viimsi vald","district":"Randvere küla\"","region":"Viimsi vald","postcode":"Harju maakond"},
{"lon":"24.2407884","lat":"59.08004","number":"13","street":"Tööstuse tänav","unit":"","city":"\"Nissi vald","district":"Turba alevik\"","region":"Nissi vald","postcode":"Harju maakond"},
{"lon":"27.0580655","lat":"58.9451233","number":"2","street":"Põllu tänav","unit":"","city":"\"Lohusuu vald","district":"Lohusuu alevik\"","region":"Lohusuu vald","postcode":"Ida-Viru maakond"},
{"lon":"24.8399553","lat":"59.3738629","number":"24","street":"Veski tee","unit":"","city":"\"Rae vald","district":"Assaku alevik\"","region":"Rae vald","postcode":"Harju maakond"},
{"lon":"26.5212342","lat":"57.8225542","number":"43b","street":"Lõuna tänav","unit":"","city":"\"Antsla vald","district":"Antsla linn\"","region":"Antsla vald","postcode":"Võru maakond"},
{"lon":"26.5172103","lat":"58.275866","number":"8","street":"Veski tänav","unit":"","city":"\"Nõo vald","district":"Nõo alevik\"","region":"Nõo vald","postcode":"Tartu maakond"},
{"lon":"25.3596417","lat":"58.1275374","number":"7","street":"Viljandi tee","unit":"","city":"\"Abja vald","district":"Abja-Paluoja linn\"","region":"Abja vald","postcode":"Viljandi maakond"},
{"lon":"24.6484587","lat":"59.3057859","number":"14","street":"Kasteheina tee","unit":"","city":"\"Saku vald","district":"Saku alevik\"","region":"Saku vald","postcode":"Harju maakond"},
{"lon":"24.7522424","lat":"59.2793149","number":"3","street":"Valteri tee","unit":"","city":"\"Saku vald","district":"Lokuti küla\"","region":"Saku vald","postcode":"Harju maakond"},
{"lon":"26.4299001","lat":"59.3615537","number":"11","street":"Papli tänav","unit":"","city":"\"Sõmeru vald","district":"Sõmeru alevik\"","region":"Sõmeru vald","postcode":"Lääne-Viru maakond"},
{"lon":"27.4693128","lat":"58.0966296","number":"1a","street":"Kalevi tänav","unit":"","city":"\"Räpina vald","district":"Räpina linn\"","region":"Räpina vald","postcode":"Põlva maakond"},
{"lon":"27.4533558","lat":"59.3133289","number":"6","street":"Hobuseraua tänav","unit":"","city":"\"Kohtla-Järve linn","district":"Ahtme linnaosa\"","region":"Kohtla-Järve linn","postcode":"Ida-Viru maakond"},
{"lon":"22.6874139","lat":"58.5768038","number":"20","street":"Orissaare maantee","unit":"","city":"\"Leisi vald","district":"Leisi alevik\"","region":"Leisi vald","postcode":"Saare maakond"},
{"lon":"24.8207133","lat":"59.5104833","number":"13","street":"Rohuneeme tee","unit":"","city":"\"Viimsi vald","district":"Haabneeme alevik\"","region":"Viimsi vald","postcode":"Harju maakond"},
{"lon":"25.0711599","lat":"59.3649078","number":"6","street":"Lepa tänav","unit":"","city":"\"Raasiku vald","district":"Aruküla alevik\"","region":"Raasiku vald","postcode":"Harju maakond"},
{"lon":"23.0913744","lat":"58.5550966","number":"7","street":"Mäe tänav","unit":"","city":"\"Orissaare vald","district":"Orissaare alevik\"","region":"Orissaare vald","postcode":"Saare maakond"},
{"lon":"25.5469888","lat":"58.0999687","number":"27","street":"Kivi tänav","unit":"","city":"\"Karksi vald","district":"Karksi-Nuia linn\"","region":"Karksi vald","postcode":"Viljandi maakond"},
{"lon":"25.07263","lat":"59.3661475","number":"3a","street":"Männiku tee","unit":"","city":"\"Raasiku vald","district":"Aruküla alevik\"","region":"Raasiku vald","postcode":"Harju maakond"},
{"lon":"26.7351277","lat":"58.3149855","number":"93","street":"Mõisniku tänav","unit":"","city":"\"Ülenurme vald","district":"Ülenurme alevik\"","region":"Ülenurme vald","postcode":"Tartu maakond"},
{"lon":"24.9443747","lat":"59.0667223","number":"46","street":"Tallinna maantee","unit":"","city":"\"Juuru vald","district":"Juuru alevik\"","region":"Juuru vald","postcode":"Rapla maakond"},
{"lon":"26.8543026","lat":"58.9848972","number":"3","street":"Metsa tänav","unit":"","city":"\"Avinurme vald","district":"Avinurme alevik\"","region":"Avinurme vald","postcode":"Ida-Viru maakond"},
{"lon":"24.7682625","lat":"59.1726577","number":"20","street":"Kiriku tee","unit":"","city":"\"Kohila vald","district":"Urge küla\"","region":"Kohila vald","postcode":"Rapla maakond"},
{"lon":"26.2536671","lat":"58.1481399","number":"8","street":"Piiri tänav","unit":"","city":"\"Rõngu vald","district":"Rõngu alevik\"","region":"Rõngu vald","postcode":"Tartu maakond"},
{"lon":"27.2997016","lat":"59.4103499","number":"114","street":"Olevi tänav","unit":"","city":"\"Kohtla-Järve linn","district":"Järve linnaosa\"","region":"Kohtla-Järve linn","postcode":"Ida-Viru maakond"},
{"lon":"24.3908331","lat":"59.3401093","number":"6","street":"Keila tee","unit":"","city":"\"Keila vald","district":"Karjaküla alevik\"","region":"Keila vald","postcode":"Harju maakond"},
{"lon":"23.8304827","lat":"58.6846524","number":"38","street":"Tallinna maantee","unit":"","city":"\"Lihula vald","district":"Lihula linn\"","region":"Lihula vald","postcode":"Lääne maakond"},
{"lon":"25.175394","lat":"59.3681987","number":"4","street":"Heina tänav","unit":"","city":"\"Raasiku vald","district":"Raasiku alevik\"","region":"Raasiku vald","postcode":"Harju maakond"},
{"lon":"25.0062086","lat":"58.8622743","number":"1","street":"Rohu tänav","unit":"","city":"\"Kehtna vald","district":"Lelle alevik\"","region":"Kehtna vald","postcode":"Rapla maakond"},
{"lon":"24.9087472","lat":"59.5106351","number":"9","street":"Mesilase tee","unit":"","city":"\"Viimsi vald","district":"Randvere küla\"","region":"Viimsi vald","postcode":"Harju maakond"},
{"lon":"23.5232821","lat":"58.930158","number":"7","street":"Nelgi tänav","unit":"","city":"\"Ridala vald","district":"Paralepa alevik\"","region":"Ridala vald","postcode":"Lääne maakond"},
{"lon":"24.2376527","lat":"59.082881","number":"4","street":"Aia tänav","unit":"","city":"\"Nissi vald","district":"Turba alevik\"","region":"Nissi vald","postcode":"Harju maakond"},
{"lon":"27.53879","lat":"58.0847567","number":"2","street":"Karja tänav","unit":"","city":"\"Räpina vald","district":"Võõpsu alevik\"","region":"Räpina vald","postcode":"Põlva maakond"},
{"lon":"24.6604747","lat":"59.3072026","number":"4","street":"Tuule tänav","unit":"","city":"\"Saku vald","district":"Saku alevik\"","region":"Saku vald","postcode":"Harju maakond"},
{"lon":"24.9182558","lat":"59.3585729","number":"2","street":"Ehituse tänav","unit":"","city":"\"Rae vald","district":"Jüri alevik\"","region":"Rae vald","postcode":"Harju maakond"},
{"lon":"25.8825589","lat":"59.0371919","number":"30","street":"Lai tänav","unit":"","city":"\"Järva-Jaani vald","district":"Järva-Jaani alev\"","region":"Järva-Jaani vald","postcode":"Järva maakond"},
{"lon":"26.8055871","lat":"58.3440414","number":"9","street":"Järveoja tee","unit":"","city":"\"Luunja vald","district":"Veibri küla\"","region":"Luunja vald","postcode":"Tartu maakond"},
{"lon":"23.8329491","lat":"58.694202","number":"4d","street":"Penijõe tee","unit":"","city":"\"Lihula vald","district":"Lihula linn\"","region":"Lihula vald","postcode":"Lääne maakond"},
{"lon":"26.8670183","lat":"58.9848818","number":"14","street":"Võidu tänav","unit":"","city":"\"Avinurme vald","district":"Avinurme alevik\"","region":"Avinurme vald","postcode":"Ida-Viru maakond"},
{"lon":"25.8564602","lat":"58.2381758","number":"15","street":"Pikk tänav","unit":"","city":"\"Tarvastu vald","district":"Mustla alevik\"","region":"Tarvastu vald","postcode":"Viljandi maakond"},
{"lon":"26.2466509","lat":"58.1229717","number":"8","street":"Raigaste tee","unit":"","city":"\"Rõngu vald","district":"Raigaste küla\"","region":"Rõngu vald","postcode":"Tartu maakond"},
{"lon":"26.1977808","lat":"57.8622049","number":"34","street":"Nooruse tänav","unit":"","city":"\"Tõlliste vald","district":"Tsirguliina alevik\"","region":"Tõlliste vald","postcode":"Valga maakond"},
{"lon":"24.9177099","lat":"59.4954842","number":"7","street":"Aiaotsa tee","unit":"","city":"\"Viimsi vald","district":"Randvere küla\"","region":"Viimsi vald","postcode":"Harju maakond"},
{"lon":"23.5238618","lat":"58.930028","number":"5","street":"Nelgi tänav","unit":"","city":"\"Ridala vald","district":"Paralepa alevik\"","region":"Ridala vald","postcode":"Lääne maakond"},
{"lon":"24.8243129","lat":"59.5120955","number":"9","street":"Kolhoosi tee","unit":"","city":"\"Viimsi vald","district":"Haabneeme alevik\"","region":"Viimsi vald","postcode":"Harju maakond"},
{"lon":"24.2397679","lat":"59.247364","number":"11","street":"Lennu tänav","unit":"","city":"\"Vasalemma vald","district":"Ämari alevik\"","region":"Vasalemma vald","postcode":"Harju maakond"},
{"lon":"27.0641229","lat":"58.9460276","number":"48","street":"Kala tänav","unit":"","city":"\"Lohusuu vald","district":"Lohusuu alevik\"","region":"Lohusuu vald","postcode":"Ida-Viru maakond"},
{"lon":"26.2309918","lat":"58.9951058","number":"9","street":"Rahu tänav","unit":"","city":"\"Rakke vald","district":"Rakke alevik\"","region":"Rakke vald","postcode":"Lääne-Viru maakond"},
{"lon":"26.6495205","lat":"58.367095","number":"14","street":"Pähna tänav","unit":"","city":"\"Ülenurme vald","district":"Õssu küla\"","region":"Ülenurme vald","postcode":"Tartu maakond"},
{"lon":"24.8715166","lat":"59.3791503","number":"19","street":"Räägusilla põik","unit":"","city":"\"Rae vald","district":"Rae küla\"","region":"Rae vald","postcode":"Harju maakond"},
{"lon":"26.2204367","lat":"58.0520532","number":"13","street":"Alliku tänav","unit":"","city":"\"Puka vald","district":"Puka alevik\"","region":"Puka vald","postcode":"Valga maakond"},
{"lon":"24.90197","lat":"59.4117221","number":"5","street":"Kapteni tee","unit":"","city":"\"Rae vald","district":"Soodevahe küla\"","region":"Rae vald","postcode":"Harju maakond"},
{"lon":"27.254897","lat":"59.3739554","number":"3","street":"Piiri tänav","unit":"","city":"\"Kohtla-Järve linn","district":"Järve linnaosa\"","region":"Kohtla-Järve linn","postcode":"Ida-Viru maakond"},
{"lon":"26.5342966","lat":"58.2746397","number":"3","street":"Oja tänav","unit":"","city":"\"Nõo vald","district":"Nõo alevik\"","region":"Nõo vald","postcode":"Tartu maakond"},
{"lon":"25.8406837","lat":"59.1960005","number":"13","street":"Tapa maantee","unit":"","city":"\"Ambla vald","district":"Ambla alevik\"","region":"Ambla vald","postcode":"Järva maakond"},
{"lon":"24.8450522","lat":"59.385551","number":"7","street":"Pae tee","unit":"","city":"\"Rae vald","district":"Rae küla\"","region":"Rae vald","postcode":"Harju maakond"},
{"lon":"24.5916293","lat":"58.3866676","number":"26","street":"Luste tee","unit":"","city":"\"Sauga vald","district":"Tammiste küla\"","region":"Sauga vald","postcode":"Pärnu maakond"},
{"lon":"24.8726064","lat":"59.5497711","number":"24","street":"Võrkoja tee","unit":"","city":"\"Viimsi vald","district":"Leppneeme küla\"","region":"Viimsi vald","postcode":"Harju maakond"},
{"lon":"24.6814937","lat":"59.2414726","number":"42","street":"Viljandi maantee","unit":"","city":"\"Saku vald","district":"Kiisa alevik\"","region":"Saku vald","postcode":"Harju maakond"},
{"lon":"24.3910162","lat":"59.3390958","number":"3","street":"Keila tee","unit":"","city":"\"Keila vald","district":"Karjaküla alevik\"","region":"Keila vald","postcode":"Harju maakond"},
{"lon":"24.4796355","lat":"59.4413671","number":"13b","street":"Tuule tee","unit":"","city":"\"Harku vald","district":"Ilmandu küla\"","region":"Harku vald","postcode":"Harju maakond"},
{"lon":"27.2549467","lat":"59.3757159","number":"87","street":"Ehitajate tänav","unit":"","city":"\"Kohtla-Järve linn","district":"Järve linnaosa\"","region":"Kohtla-Järve linn","postcode":"Ida-Viru maakond"},
{"lon":"24.9562245","lat":"59.4095092","number":"1","street":"Vahtramäe tee","unit":"","city":"\"Rae vald","district":"Kopli küla\"","region":"Rae vald","postcode":"Harju maakond"},
{"lon":"26.0365004","lat":"58.9615892","number":"31","street":"Küti tänav","unit":"","city":"\"Koeru vald","district":"Koeru alevik\"","region":"Koeru vald","postcode":"Järva maakond"},
{"lon":"24.8412402","lat":"58.9629685","number":"4/8","street":"Staadioni tänav","unit":"","city":"\"Kehtna vald","district":"Kaerepere alevik\"","region":"Kehtna vald","postcode":"Rapla maakond"},
{"lon":"25.0789075","lat":"59.3689036","number":"1","street":"Jaama tänav","unit":"","city":"\"Raasiku vald","district":"Aruküla alevik\"","region":"Raasiku vald","postcode":"Harju maakond"},
{"lon":"25.0709627","lat":"59.3695888","number":"21","street":"Nurme tänav","unit":"","city":"\"Raasiku vald","district":"Aruküla alevik\"","region":"Raasiku vald","postcode":"Harju maakond"},
{"lon":"27.5097057","lat":"59.420886","number":"1b","street":"Uus tänav","unit":"","city":"\"Toila vald","district":"Toila alevik\"","region":"Toila vald","postcode":"Ida-Viru maakond"},
{"lon":"24.8050846","lat":"58.7701962","number":"40","street":"Rahu tänav","unit":"","city":"\"Järvakandi vald","district":"Järvakandi alev\"","region":"Järvakandi vald","postcode":"Rapla maakond"},
{"lon":"25.7787049","lat":"58.9718458","number":"11a","street":"Pikk tänav","unit":"","city":"\"Kareda vald","district":"Esna küla\"","region":"Kareda vald","postcode":"Järva maakond"},
{"lon":"26.7829946","lat":"58.3804218","number":"41","street":"Salu tee","unit":"","city":"\"Luunja vald","district":"Lohkva küla\"","region":"Luunja vald","postcode":"Tartu maakond"},
{"lon":"24.4198186","lat":"59.4663857","number":"1","street":"Ranna-Jüri tee","unit":"","city":"\"Harku vald","district":"Suurupi küla\"","region":"Harku vald","postcode":"Harju maakond"},
{"lon":"25.9609692","lat":"59.5765447","number":"36","street":"Mere tänav","unit":"","city":"\"Vihula vald","district":"Võsu alevik\"","region":"Vihula vald","postcode":"Lääne-Viru maakond"},
{"lon":"26.854698","lat":"59.1794128","number":"11","street":"Rakvere maantee","unit":"","city":"\"Vinni vald","district":"Tudu alevik\"","region":"Vinni vald","postcode":"Lääne-Viru maakond"},
{"lon":"26.1986226","lat":"57.8676414","number":"12","street":"Kesk tänav","unit":"","city":"\"Tõlliste vald","district":"Tsirguliina alevik\"","region":"Tõlliste vald","postcode":"Valga maakond"},
{"lon":"24.912138","lat":"59.4974021","number":"4","street":"Kraaviaia tee","unit":"","city":"\"Viimsi vald","district":"Randvere küla\"","region":"Viimsi vald","postcode":"Harju maakond"},
{"lon":"24.8887407","lat":"59.493011","number":"4","street":"Pirni tee","unit":"","city":"\"Viimsi vald","district":"Metsakasti küla\"","region":"Viimsi vald","postcode":"Harju maakond"},
{"lon":"24.6468551","lat":"59.346841","number":"5","street":"Vetevana tee","unit":"","city":"\"Saku vald","district":"Tänassilma küla\"","region":"Saku vald","postcode":"Harju maakond"},
{"lon":"26.8578707","lat":"59.1806002","number":"9","street":"Vabriku tänav","unit":"","city":"\"Vinni vald","district":"Tudu alevik\"","region":"Vinni vald","postcode":"Lääne-Viru maakond"},
{"lon":"25.0034094","lat":"59.2723571","number":"4","street":"Lauda tee","unit":"","city":"\"Rae vald","district":"Vaidasoo küla\"","region":"Rae vald","postcode":"Harju maakond"},
{"lon":"27.2837704","lat":"59.3363556","number":"13b","street":"Terase tänav","unit":"","city":"\"Kohtla-Järve linn","district":"Sompa linnaosa\"","region":"Kohtla-Järve linn","postcode":"Ida-Viru maakond"},
{"lon":"27.4570907","lat":"59.3093853","number":"111","street":"Ahtme maantee","unit":"","city":"\"Kohtla-Järve linn","district":"Ahtme linnaosa\"","region":"Kohtla-Järve linn","postcode":"Ida-Viru maakond"},
{"lon":"23.5731124","lat":"58.9407374","number":"6","street":"Linna tee","unit":"","city":"\"Ridala vald","district":"Uuemõisa alevik\"","region":"Ridala vald","postcode":"Lääne maakond"},
{"lon":"25.5992869","lat":"59.2904783","number":"3","street":"Poolemõisa tänav","unit":"","city":"\"Aegviidu vald","district":"Aegviidu alev\"","region":"Aegviidu vald","postcode":"Harju maakond"},
{"lon":"26.5319789","lat":"57.8354867","number":"35","street":"Kooli tee","unit":"","city":"\"Antsla vald","district":"Antsla linn\"","region":"Antsla vald","postcode":"Võru maakond"},
{"lon":"27.3481286","lat":"59.3964628","number":"30a","street":"Õnne tänav","unit":"","city":"\"Kohtla-Järve linn","district":"Kukruse linnaosa\"","region":"Kohtla-Järve linn","postcode":"Ida-Viru maakond"},
{"lon":"24.9008133","lat":"59.5015639","number":"52","street":"Silva tee","unit":"","city":"\"Viimsi vald","district":"Randvere küla\"","region":"Viimsi vald","postcode":"Harju maakond"},
{"lon":"27.2804175","lat":"57.7344045","number":"3","street":"Niidu tänav","unit":"","city":"\"Vastseliina vald","district":"Vastseliina alevik\"","region":"Vastseliina vald","postcode":"Võru maakond"},
{"lon":"26.4172135","lat":"59.358977","number":"19","street":"Pikk tänav","unit":"","city":"\"Sõmeru vald","district":"Sõmeru alevik\"","region":"Sõmeru vald","postcode":"Lääne-Viru maakond"},
{"lon":"26.5842868","lat":"58.6861572","number":"10","street":"Oskar Lutsu tänav","unit":"","city":"\"Palamuse vald","district":"Palamuse alevik\"","region":"Palamuse vald","postcode":"Jõgeva maakond"},
{"lon":"24.8593755","lat":"59.5039032","number":"42","street":"Vehema tee","unit":"","city":"\"Viimsi vald","district":"Pärnamäe küla\"","region":"Viimsi vald","postcode":"Harju maakond"},
{"lon":"26.7280966","lat":"58.3249058","number":"32","street":"Kaasiku tänav","unit":"","city":"\"Ülenurme vald","district":"Ülenurme alevik\"","region":"Ülenurme vald","postcode":"Tartu maakond"},
{"lon":"25.7521054","lat":"59.1355839","number":"2","street":"Kangrumäe tänav","unit":"","city":"\"Ambla vald","district":"Aravete alevik\"","region":"Ambla vald","postcode":"Järva maakond"},
{"lon":"25.6034355","lat":"59.2968863","number":"12","street":"Sinika tänav","unit":"","city":"\"Aegviidu vald","district":"Aegviidu alev\"","region":"Aegviidu vald","postcode":"Harju maakond"},
{"lon":"27.2913404","lat":"59.4040792","number":"44b","street":"Pärna tänav","unit":"","city":"\"Kohtla-Järve linn","district":"Järve linnaosa\"","region":"Kohtla-Järve linn","postcode":"Ida-Viru maakond"},
{"lon":"26.9453625","lat":"58.8233992","number":"62a","street":"Kalda tänav","unit":"","city":"\"Kasepää vald","district":"Raja küla\"","region":"Kasepää vald","postcode":"Jõgeva maakond"},
{"lon":"23.0864746","lat":"58.5564458","number":"5","street":"Laulu tänav","unit":"","city":"\"Orissaare vald","district":"Orissaare alevik\"","region":"Orissaare vald","postcode":"Saare maakond"},
{"lon":"22.7738667","lat":"58.8309136","number":"15","street":"Spordi tänav","unit":"","city":"\"Käina vald","district":"Käina alevik\"","region":"Käina vald","postcode":"Hiiu maakond"},
{"lon":"26.5337814","lat":"58.2721202","number":"8","street":"Vana-Nõo tänav","unit":"","city":"\"Nõo vald","district":"Nõo alevik\"","region":"Nõo vald","postcode":"Tartu maakond"},
{"lon":"27.4320091","lat":"59.3274064","number":"39","street":"Estonia puiestee","unit":"","city":"\"Kohtla-Järve linn","district":"Ahtme linnaosa\"","region":"Kohtla-Järve linn","postcode":"Ida-Viru maakond"},
{"lon":"26.1851598","lat":"57.8647674","number":"1","street":"Piiri tänav","unit":"","city":"\"Tõlliste vald","district":"Tsirguliina alevik\"","region":"Tõlliste vald","postcode":"Valga maakond"},
{"lon":"24.6608893","lat":"59.3028087","number":"2","street":"Kesk tänav","unit":"","city":"\"Saku vald","district":"Saku alevik\"","region":"Saku vald","postcode":"Harju maakond"},
{"lon":"22.7807267","lat":"58.8267766","number":"6","street":"Mere tänav","unit":"","city":"\"Käina vald","district":"Käina alevik\"","region":"Käina vald","postcode":"Hiiu maakond"},
{"lon":"23.8336562","lat":"58.6835721","number":"7","street":"Soo tänav","unit":"","city":"\"Lihula vald","district":"Lihula linn\"","region":"Lihula vald","postcode":"Lääne maakond"},
{"lon":"25.1722826","lat":"59.3649417","number":"10","street":"Tulbi tänav","unit":"","city":"\"Raasiku vald","district":"Raasiku alevik\"","region":"Raasiku vald","postcode":"Harju maakond"},
{"lon":"26.0246343","lat":"58.9669528","number":"19","street":"Jaani tee","unit":"","city":"\"Koeru vald","district":"Koeru alevik\"","region":"Koeru vald","postcode":"Järva maakond"},
{"lon":"23.5901819","lat":"58.9409683","number":"3","street":"Pähkli tänav","unit":"","city":"\"Ridala vald","district":"Uuemõisa alevik\"","region":"Ridala vald","postcode":"Lääne maakond"},
{"lon":"24.931503","lat":"59.4881296","number":"10","street":"Tammekännu tee","unit":"","city":"\"Viimsi vald","district":"Muuga küla\"","region":"Viimsi vald","postcode":"Harju maakond"},
{"lon":"23.5262452","lat":"58.5784266","number":"11","street":"Tööstuse tänav","unit":"","city":"\"Hanila vald","district":"Virtsu alevik\"","region":"Hanila vald","postcode":"Lääne maakond"},
{"lon":"26.8830323","lat":"59.44599","number":"19","street":"Õie tänav","unit":"","city":"\"Aseri vald","district":"Aseri alevik","region":"Aseri aiandusühistu\"","postcode":"Aseri vald"},
{"lon":"24.9073787","lat":"59.4581829","number":"8","street":"Iru tee","unit":"","city":"\"Jõelähtme vald","district":"Iru küla\"","region":"Jõelähtme vald","postcode":"Harju maakond"},
{"lon":"24.7299512","lat":"58.97155","number":"2","street":"Mõisa tee","unit":"","city":"\"Rapla vald","district":"Kuusiku alevik\"","region":"Rapla vald","postcode":"Rapla maakond"},
{"lon":"27.6924807","lat":"59.3398179","number":"4","street":"Rahu tänav","unit":"","city":"\"Kohtla-Järve linn","district":"Viivikonna linnaosa\"","region":"Kohtla-Järve linn","postcode":"Ida-Viru maakond"},
{"lon":"26.2449947","lat":"58.1364426","number":"2","street":"Küla tänav","unit":"","city":"\"Rõngu vald","district":"Rõngu alevik\"","region":"Rõngu vald","postcode":"Tartu maakond"},
{"lon":"27.301123","lat":"59.1028721","number":"8","street":"Tamme tänav","unit":"","city":"\"Iisaku vald","district":"Iisaku alevik\"","region":"Iisaku vald","postcode":"Ida-Viru maakond"},
{"lon":"24.9047286","lat":"59.5015586","number":"29","street":"Keiu tee","unit":"","city":"\"Viimsi vald","district":"Randvere küla\"","region":"Viimsi vald","postcode":"Harju maakond"},
{"lon":"26.8206056","lat":"59.351576","number":"40","street":"Lembitu tänav","unit":"","city":"\"Sonda vald","district":"Sonda alevik\"","region":"Sonda vald","postcode":"Ida-Viru maakond"},
{"lon":"24.2896224","lat":"59.2345618","number":"1","street":"Võsa tänav","unit":"","city":"\"Vasalemma vald","district":"Vasalemma alevik\"","region":"Vasalemma vald","postcode":"Harju maakond"},
{"lon":"25.8294495","lat":"59.1930978","number":"9","street":"Lai tänav","unit":"","city":"\"Ambla vald","district":"Ambla alevik\"","region":"Ambla vald","postcode":"Järva maakond"},
{"lon":"26.2392735","lat":"58.9918932","number":"8","street":"Kaste tänav","unit":"","city":"\"Rakke vald","district":"Rakke alevik\"","region":"Rakke vald","postcode":"Lääne-Viru maakond"},
{"lon":"26.4151653","lat":"59.363636","number":"1/5","street":"Iirise tänav","unit":"","city":"\"Sõmeru vald","district":"Näpi alevik\"","region":"Sõmeru vald","postcode":"Lääne-Viru maakond"},
{"lon":"24.9643374","lat":"59.4414399","number":"5","street":"Suurekivi põik","unit":"","city":"\"Jõelähtme vald","district":"Liivamäe küla\"","region":"Jõelähtme vald","postcode":"Harju maakond"},
{"lon":"24.2516462","lat":"59.3451521","number":"13","street":"Purje tee","unit":"","city":"\"Keila vald","district":"Kloogaranna küla\"","region":"Keila vald","postcode":"Harju maakond"},
{"lon":"25.6101566","lat":"59.2977734","number":"3","street":"Vaarika tänav","unit":"","city":"\"Aegviidu vald","district":"Aegviidu alev\"","region":"Aegviidu vald","postcode":"Harju maakond"},
{"lon":"26.268162","lat":"59.4331052","number":"8","street":"Võsu maantee","unit":"","city":"\"Haljala vald","district":"Haljala alevik\"","region":"Haljala vald","postcode":"Lääne-Viru maakond"},
{"lon":"24.4489204","lat":"59.3163728","number":"2","street":"Alajaama tee","unit":"","city":"\"Harku vald","district":"Tutermaa küla\"","region":"Harku vald","postcode":"Harju maakond"},
{"lon":"26.235839","lat":"58.9915869","number":"8","street":"Lille tänav","unit":"","city":"\"Rakke vald","district":"Rakke alevik\"","region":"Rakke vald","postcode":"Lääne-Viru maakond"},
{"lon":"26.5225529","lat":"57.8268054","number":"8","street":"Raudtee tänav","unit":"","city":"\"Antsla vald","district":"Antsla linn\"","region":"Antsla vald","postcode":"Võru maakond"},
{"lon":"26.5303603","lat":"57.8256064","number":"2","street":"Saare tänav","unit":"","city":"\"Antsla vald","district":"Antsla linn\"","region":"Antsla vald","postcode":"Võru maakond"},
{"lon":"24.9550537","lat":"59.4830472","number":"28","street":"Kallasmaa tee","unit":"","city":"\"Viimsi vald","district":"Muuga küla\"","region":"Viimsi vald","postcode":"Harju maakond"},
{"lon":"24.8563059","lat":"59.375588","number":"4","street":"Järve tee","unit":"","city":"\"Rae vald","district":"Assaku alevik\"","region":"Rae vald","postcode":"Harju maakond"},
{"lon":"27.4553886","lat":"58.0978481","number":"8","street":"Võhandu tänav","unit":"","city":"\"Räpina vald","district":"Räpina linn\"","region":"Räpina vald","postcode":"Põlva maakond"},
{"lon":"25.5137324","lat":"58.8757796","number":"20","street":"Raja tänav","unit":"","city":"\"Väätsa vald","district":"Reopalu küla\"","region":"Väätsa vald","postcode":"Järva maakond"},
{"lon":"24.8248522","lat":"59.5236418","number":"44","street":"Nirgi tee","unit":"","city":"\"Viimsi vald","district":"Haabneeme alevik\"","region":"Viimsi vald","postcode":"Harju maakond"},
{"lon":"26.6542502","lat":"58.3690585","number":"39","street":"Kesa tee","unit":"","city":"\"Ülenurme vald","district":"Õssu küla\"","region":"Ülenurme vald","postcode":"Tartu maakond"},
{"lon":"25.1395575","lat":"59.4690836","number":"14","street":"Tuleraua tee","unit":"","city":"\"Jõelähtme vald","district":"Manniva küla\"","region":"Jõelähtme vald","postcode":"Harju maakond"},
{"lon":"27.4586395","lat":"58.0960747","number":"23b","street":"Võhandu tänav","unit":"","city":"\"Räpina vald","district":"Räpina linn\"","region":"Räpina vald","postcode":"Põlva maakond"},
{"lon":"27.5850454","lat":"59.4035744","number":"10","street":"Narva maantee","unit":"","city":"\"Toila vald","district":"Voka alevik\"","region":"Toila vald","postcode":"Ida-Viru maakond"},
{"lon":"26.3749929","lat":"57.8560527","number":"9","street":"Antsla tee","unit":"","city":"\"Tõlliste vald","district":"Tagula küla\"","region":"Tõlliste vald","postcode":"Valga maakond"},
{"lon":"27.4005529","lat":"59.3246684","number":"51b","street":"Tartu maantee","unit":"","city":"\"Kohtla-Järve linn","district":"Ahtme linnaosa\"","region":"Kohtla-Järve linn","postcode":"Ida-Viru maakond"},
{"lon":"26.8653494","lat":"58.2992941","number":"5","street":"Oja tänav","unit":"","city":"\"Haaslava vald","district":"Roiu alevik\"","region":"Haaslava vald","postcode":"Tartu maakond"},
{"lon":"25.0717596","lat":"59.3639675","number":"6","street":"Toominga tänav","unit":"","city":"\"Raasiku vald","district":"Aruküla alevik\"","region":"Raasiku vald","postcode":"Harju maakond"},
{"lon":"24.9402411","lat":"59.4863637","number":"43","street":"Tammekännu tee","unit":"","city":"\"Viimsi vald","district":"Muuga küla\"","region":"Viimsi vald","postcode":"Harju maakond"},
{"lon":"25.5139729","lat":"58.8787079","number":"2","street":"Raja tänav","unit":"","city":"\"Väätsa vald","district":"Reopalu küla\"","region":"Väätsa vald","postcode":"Järva maakond"},
{"lon":"25.0089919","lat":"58.8659694","number":"5","street":"Jaama tänav","unit":"","city":"\"Kehtna vald","district":"Lelle alevik\"","region":"Kehtna vald","postcode":"Rapla maakond"},
{"lon":"27.507626","lat":"59.4244211","number":"58","street":"Pikk tänav","unit":"","city":"\"Toila vald","district":"Toila alevik\"","region":"Toila vald","postcode":"Ida-Viru maakond"},
{"lon":"24.6796769","lat":"59.2314968","number":"6","street":"Hageri tee","unit":"","city":"\"Saku vald","district":"Kiisa alevik\"","region":"Saku vald","postcode":"Harju maakond"},
{"lon":"26.5367185","lat":"57.8314482","number":"22","street":"Põik tänav","unit":"","city":"\"Antsla vald","district":"Antsla linn\"","region":"Antsla vald","postcode":"Võru maakond"},
{"lon":"24.8416713","lat":"59.5020728","number":"14","street":"Aiandi tee","unit":"","city":"\"Viimsi vald","district":"Viimsi alevik\"","region":"Viimsi vald","postcode":"Harju maakond"},
{"lon":"24.9230966","lat":"59.3650317","number":"2","street":"Vikita tee","unit":"","city":"\"Rae vald","district":"Karla küla\"","region":"Rae vald","postcode":"Harju maakond"},
{"lon":"27.8795967","lat":"59.3727859","number":"2","street":"Roheline tänav","unit":"","city":"\"Vaivara vald","district":"Sinimäe alevik\"","region":"Vaivara vald","postcode":"Ida-Viru maakond"},
{"lon":"25.0591859","lat":"59.36165","number":"3","street":"Võidu tänav","unit":"","city":"\"Raasiku vald","district":"Aruküla alevik\"","region":"Raasiku vald","postcode":"Harju maakond"},
{"lon":"26.1954332","lat":"57.8584684","number":"19","street":"Jõe tänav","unit":"","city":"\"Tõlliste vald","district":"Tsirguliina alevik\"","region":"Tõlliste vald","postcode":"Valga maakond"},
{"lon":"26.9909229","lat":"59.370828","number":"8","street":"Puiestee tänav","unit":"","city":"\"Sonda vald","district":"Erra alevik\"","region":"Sonda vald","postcode":"Ida-Viru maakond"},
{"lon":"27.27757","lat":"59.4002435","number":"32a","street":"Keskallee","unit":"","city":"\"Kohtla-Järve linn","district":"Järve linnaosa\"","region":"Kohtla-Järve linn","postcode":"Ida-Viru maakond"},
{"lon":"25.1411554","lat":"58.8246111","number":"20a","street":"Viljandi maantee","unit":"","city":"\"Käru vald","district":"Käru alevik\"","region":"Käru vald","postcode":"Rapla maakond"},
{"lon":"24.8881149","lat":"59.4941023","number":"10","street":"Kreegi tee","unit":"","city":"\"Viimsi vald","district":"Metsakasti küla\"","region":"Viimsi vald","postcode":"Harju maakond"},
{"lon":"24.9098989","lat":"59.5113476","number":"14","street":"Taru tee","unit":"","city":"\"Viimsi vald","district":"Randvere küla\"","region":"Viimsi vald","postcode":"Harju maakond"},
{"lon":"26.6719442","lat":"58.3690055","number":"8a","street":"Lepiku tee","unit":"","city":"\"Ülenurme vald","district":"Õssu küla\"","region":"Ülenurme vald","postcode":"Tartu maakond"},
{"lon":"24.7488235","lat":"59.2894696","number":"2","street":"Augusti tee","unit":"","city":"\"Saku vald","district":"Lokuti küla\"","region":"Saku vald","postcode":"Harju maakond"},
{"lon":"27.4564524","lat":"59.3100667","number":"107","street":"Ahtme maantee","unit":"","city":"\"Kohtla-Järve linn","district":"Ahtme linnaosa\"","region":"Kohtla-Järve linn","postcode":"Ida-Viru maakond"},
{"lon":"26.5864376","lat":"58.6809036","number":"9b","street":"Viru tänav","unit":"","city":"\"Palamuse vald","district":"Palamuse alevik\"","region":"Palamuse vald","postcode":"Jõgeva maakond"},
{"lon":"24.8125604","lat":"59.5202689","number":"27","street":"Pihlaka tee","unit":"","city":"\"Viimsi vald","district":"Haabneeme alevik\"","region":"Viimsi vald","postcode":"Harju maakond"},
{"lon":"23.5234941","lat":"58.9299414","number":"6","street":"Tulika tänav","unit":"","city":"\"Ridala vald","district":"Paralepa alevik\"","region":"Ridala vald","postcode":"Lääne maakond"},
{"lon":"25.0587753","lat":"59.0118348","number":"34","street":"Kasvandu tee","unit":"","city":"\"Kaiu vald","district":"Kaiu alevik\"","region":"Kaiu vald","postcode":"Rapla maakond"},
{"lon":"25.6055231","lat":"59.2957634","number":"1a","street":"Pohla tänav","unit":"","city":"\"Aegviidu vald","district":"Aegviidu alev\"","region":"Aegviidu vald","postcode":"Harju maakond"},
{"lon":"24.8837907","lat":"59.4947187","number":"27","street":"Pirni tee","unit":"","city":"\"Viimsi vald","district":"Metsakasti küla\"","region":"Viimsi vald","postcode":"Harju maakond"},
{"lon":"24.9094888","lat":"59.5144811","number":"16","street":"Krati tee","unit":"","city":"\"Viimsi vald","district":"Randvere küla\"","region":"Viimsi vald","postcode":"Harju maakond"},
{"lon":"24.9493217","lat":"59.4847854","number":"9b","street":"Randoja tee","unit":"","city":"\"Viimsi vald","district":"Muuga küla\"","region":"Viimsi vald","postcode":"Harju maakond"},
{"lon":"24.5830988","lat":"59.4205715","number":"20","street":"Nõmme tee","unit":"","city":"\"Harku vald","district":"Tiskre küla\"","region":"Harku vald","postcode":"Harju maakond"},
{"lon":"24.5974108","lat":"59.3212941","number":"7","street":"Vidriku tee","unit":"","city":"\"Saku vald","district":"Jälgimäe küla\"","region":"Saku vald","postcode":"Harju maakond"},
{"lon":"22.2462137","lat":"58.1635515","number":"1","street":"Kasekese tänav","unit":"","city":"\"Salme vald","district":"Salme alevik\"","region":"Salme vald","postcode":"Saare maakond"},
{"lon":"24.8265721","lat":"59.3710609","number":"25","street":"Veski tee","unit":"","city":"\"Rae vald","district":"Assaku alevik\"","region":"Rae vald","postcode":"Harju maakond"},
{"lon":"24.9837812","lat":"59.3663189","number":"2d","street":"Leivajõe tee","unit":"","city":"\"Rae vald","district":"Pajupea küla\"","region":"Rae vald","postcode":"Harju maakond"},
{"lon":"24.9311767","lat":"59.4032754","number":"8","street":"Kivi tänav","unit":"","city":"\"Rae vald","district":"Lagedi alevik\"","region":"Rae vald","postcode":"Harju maakond"},
{"lon":"25.8804741","lat":"59.0421263","number":"9","street":"Põllu tänav","unit":"","city":"\"Järva-Jaani vald","district":"Järva-Jaani alev\"","region":"Järva-Jaani vald","postcode":"Järva maakond"},
{"lon":"24.5713127","lat":"58.369101","number":"7","street":"Kullerkupu tänav","unit":"","city":"\"Sauga vald","district":"Tammiste küla\"","region":"Sauga vald","postcode":"Pärnu maakond"},
{"lon":"26.4863937","lat":"58.0607395","number":"28","street":"Kalda tänav","unit":"","city":"\"Otepää vald","district":"Otepää linn\"","region":"Otepää vald","postcode":"Valga maakond"},
{"lon":"27.5117759","lat":"59.4183785","number":"16","street":"Pikk tänav","unit":"","city":"\"Toila vald","district":"Toila alevik\"","region":"Toila vald","postcode":"Ida-Viru maakond"},
{"lon":"24.6184321","lat":"58.3893952","number":"4","street":"Kesa tee","unit":"","city":"\"Sauga vald","district":"Tammiste küla\"","region":"Sauga vald","postcode":"Pärnu maakond"},
{"lon":"26.943257","lat":"58.8232379","number":"53","street":"Kalda tänav","unit":"","city":"\"Kasepää vald","district":"Raja küla\"","region":"Kasepää vald","postcode":"Jõgeva maakond"},
{"lon":"24.8982647","lat":"59.5251068","number":"6","street":"Tammetõru tee","unit":"","city":"\"Viimsi vald","district":"Tammneeme küla\"","region":"Viimsi vald","postcode":"Harju maakond"},
{"lon":"27.4183265","lat":"59.3198275","number":"40","street":"Altserva tänav","unit":"","city":"\"Kohtla-Järve linn","district":"Ahtme linnaosa\"","region":"Kohtla-Järve linn","postcode":"Ida-Viru maakond"},
{"lon":"24.8867637","lat":"59.5368007","number":"20","street":"Teigari tee","unit":"","city":"\"Viimsi vald","district":"Tammneeme küla\"","region":"Viimsi vald","postcode":"Harju maakond"},
{"lon":"24.8033741","lat":"59.5247515","number":"26","street":"Kasteheina tee","unit":"","city":"\"Viimsi vald","district":"Pringi küla\"","region":"Viimsi vald","postcode":"Harju maakond"},
{"lon":"26.8478616","lat":"59.345015","number":"16a","street":"Metsa tänav","unit":"","city":"\"Sonda vald","district":"Sonda alevik\"","region":"Sonda vald","postcode":"Ida-Viru maakond"},
{"lon":"26.3838095","lat":"58.2232441","number":"7","street":"Kaseküla tänav","unit":"","city":"\"Rõngu vald","district":"Käärdi alevik\"","region":"Rõngu vald","postcode":"Tartu maakond"},
{"lon":"24.5034247","lat":"58.0873577","number":"1","street":"Pärnu maantee","unit":"","city":"\"Häädemeeste vald","district":"Häädemeeste alevik\"","region":"Häädemeeste vald","postcode":"Pärnu maakond"},
{"lon":"26.7276097","lat":"58.310321","number":"29","street":"Paruni tänav","unit":"","city":"\"Ülenurme vald","district":"Ülenurme alevik\"","region":"Ülenurme vald","postcode":"Tartu maakond"},
{"lon":"26.6928574","lat":"58.3265302","number":"4","street":"Puu tee","unit":"","city":"\"Ülenurme vald","district":"Soinaste küla\"","region":"Ülenurme vald","postcode":"Tartu maakond"},
{"lon":"26.4880396","lat":"58.0604572","number":"9a","street":"Pikk tänav","unit":"","city":"\"Otepää vald","district":"Otepää linn\"","region":"Otepää vald","postcode":"Valga maakond"},
{"lon":"24.6656041","lat":"59.3041172","number":"10","street":"Silla tänav","unit":"","city":"\"Saku vald","district":"Saku alevik\"","region":"Saku vald","postcode":"Harju maakond"},
{"lon":"25.1856063","lat":"59.3706008","number":"1","street":"Saare tänav","unit":"","city":"\"Raasiku vald","district":"Raasiku alevik\"","region":"Raasiku vald","postcode":"Harju maakond"},
{"lon":"24.9531393","lat":"59.0564761","number":"16","street":"Side tänav","unit":"","city":"\"Juuru vald","district":"Juuru alevik\"","region":"Juuru vald","postcode":"Rapla maakond"},
{"lon":"24.9392264","lat":"58.7529243","number":"9","street":"Männi tänav","unit":"","city":"\"Kehtna vald","district":"Eidapere alevik\"","region":"Kehtna vald","postcode":"Rapla maakond"},
{"lon":"26.5958112","lat":"58.5515724","number":"3","street":"Põllu tänav","unit":"","city":"\"Tabivere vald","district":"Tabivere alevik\"","region":"Tabivere vald","postcode":"Jõgeva maakond"},
{"lon":"26.4233573","lat":"59.3599909","number":"4","street":"Staadioni tänav","unit":"","city":"\"Sõmeru vald","district":"Sõmeru alevik\"","region":"Sõmeru vald","postcode":"Lääne-Viru maakond"},
{"lon":"26.5645095","lat":"59.0651897","number":"2","street":"Pargi tänav","unit":"","city":"\"Laekvere vald","district":"Laekvere alevik\"","region":"Laekvere vald","postcode":"Lääne-Viru maakond"},
{"lon":"24.8018892","lat":"59.5254682","number":"32","street":"Rannakaare tee","unit":"","city":"\"Viimsi vald","district":"Pringi küla\"","region":"Viimsi vald","postcode":"Harju maakond"},
{"lon":"24.5942597","lat":"58.3874542","number":"25","street":"Ristiku tee","unit":"","city":"\"Sauga vald","district":"Tammiste küla\"","region":"Sauga vald","postcode":"Pärnu maakond"},
{"lon":"24.3604483","lat":"59.4395289","number":"40","street":"Luige tee","unit":"","city":"\"Harku vald","district":"Vääna-Jõesuu küla\"","region":"Harku vald","postcode":"Harju maakond"},
{"lon":"24.9022389","lat":"58.9439019","number":"9a","street":"Keava tee","unit":"","city":"\"Kehtna vald","district":"Keava alevik\"","region":"Kehtna vald","postcode":"Rapla maakond"},
{"lon":"24.8567874","lat":"59.3892076","number":"38","street":"Tulbi tee","unit":"","city":"\"Rae vald","district":"Rae küla\"","region":"Rae vald","postcode":"Harju maakond"},
{"lon":"27.3452796","lat":"59.4025283","number":"13","street":"Paate tänav","unit":"","city":"\"Kohtla-Järve linn","district":"Kukruse linnaosa\"","region":"Kohtla-Järve linn","postcode":"Ida-Viru maakond"},
{"lon":"27.5360926","lat":"58.0802593","number":"4","street":"Jõe tänav","unit":"","city":"\"Räpina vald","district":"Võõpsu alevik\"","region":"Räpina vald","postcode":"Põlva maakond"},
{"lon":"23.8181273","lat":"58.6846823","number":"62a","street":"Tallinna maantee","unit":"","city":"\"Lihula vald","district":"Lihula linn\"","region":"Lihula vald","postcode":"Lääne maakond"},
{"lon":"24.9129559","lat":"59.4981715","number":"6","street":"Karjaaia tee","unit":"","city":"\"Viimsi vald","district":"Randvere küla\"","region":"Viimsi vald","postcode":"Harju maakond"},
{"lon":"24.8146075","lat":"59.522463","number":"13a","street":"Vardi tee","unit":"","city":"\"Viimsi vald","district":"Haabneeme alevik\"","region":"Viimsi vald","postcode":"Harju maakond"},
{"lon":"25.4574064","lat":"58.8909446","number":"12","street":"Järve tänav","unit":"","city":"\"Väätsa vald","district":"Väätsa alevik\"","region":"Väätsa vald","postcode":"Järva maakond"},
{"lon":"24.8250237","lat":"59.3689897","number":"44","street":"Veski tee","unit":"","city":"\"Rae vald","district":"Assaku alevik\"","region":"Rae vald","postcode":"Harju maakond"},
{"lon":"24.8358253","lat":"59.3413382","number":"12","street":"Kangrumäe tee","unit":"","city":"\"Rae vald","district":"Kurna küla\"","region":"Rae vald","postcode":"Harju maakond"},
{"lon":"24.9051607","lat":"58.9468066","number":"2","street":"Paemurru tänav","unit":"","city":"\"Kehtna vald","district":"Keava alevik\"","region":"Kehtna vald","postcode":"Rapla maakond"},
{"lon":"24.9497567","lat":"59.43449","number":"1e","street":"Liivakandi tee","unit":"","city":"\"Jõelähtme vald","district":"Loo alevik\"","region":"Jõelähtme vald","postcode":"Harju maakond"},
{"lon":"27.2758961","lat":"59.3365282","number":"10","street":"Valli tänav","unit":"","city":"\"Kohtla-Järve linn","district":"Sompa linnaosa\"","region":"Kohtla-Järve linn","postcode":"Ida-Viru maakond"},
{"lon":"26.4698622","lat":"59.249322","number":"39","street":"Kesk tänav","unit":"","city":"\"Vinni vald","district":"Viru-Jaagupi alevik\"","region":"Vinni vald","postcode":"Lääne-Viru maakond"},
{"lon":"24.7200408","lat":"58.9703607","number":"3","street":"Roheline tänav","unit":"","city":"\"Rapla vald","district":"Kuusiku alevik\"","region":"Rapla vald","postcode":"Rapla maakond"},
{"lon":"27.5076847","lat":"59.4237075","number":"52","street":"Pikk tänav","unit":"","city":"\"Toila vald","district":"Toila alevik\"","region":"Toila vald","postcode":"Ida-Viru maakond"},
{"lon":"24.5839438","lat":"59.4205352","number":"18","street":"Nõmme tee","unit":"","city":"\"Harku vald","district":"Tiskre küla\"","region":"Harku vald","postcode":"Harju maakond"},
{"lon":"24.4871344","lat":"59.4484552","number":"22","street":"Kadaka tee","unit":"","city":"\"Harku vald","district":"Ilmandu küla\"","region":"Harku vald","postcode":"Harju maakond"},
{"lon":"24.8837131","lat":"59.5443717","number":"2","street":"Roosimetsa tee","unit":"","city":"\"Viimsi vald","district":"Leppneeme küla\"","region":"Viimsi vald","postcode":"Harju maakond"},
{"lon":"27.5333645","lat":"58.0804071","number":"2","street":"Spordi tänav","unit":"","city":"\"Räpina vald","district":"Võõpsu alevik\"","region":"Räpina vald","postcode":"Põlva maakond"},
{"lon":"26.657092","lat":"58.3659275","number":"16","street":"Kesa tee","unit":"","city":"\"Ülenurme vald","district":"Õssu küla\"","region":"Ülenurme vald","postcode":"Tartu maakond"},
{"lon":"26.7048853","lat":"58.2428749","number":"6","street":"Puiestee tänav","unit":"","city":"\"Kambja vald","district":"Kambja alevik\"","region":"Kambja vald","postcode":"Tartu maakond"},
{"lon":"22.1794881","lat":"58.5014303","number":"5","street":"Õnneheina tänav","unit":"","city":"\"Mustjala vald","district":"Merise küla\"","region":"Mustjala vald","postcode":"Saare maakond"},
{"lon":"25.4386634","lat":"58.1628146","number":"8","street":"Viljandi maantee","unit":"","city":"\"Halliste vald","district":"Halliste alevik\"","region":"Halliste vald","postcode":"Viljandi maakond"},
{"lon":"24.4829776","lat":"59.4507894","number":"32","street":"Kadaka tee","unit":"","city":"\"Harku vald","district":"Ilmandu küla\"","region":"Harku vald","postcode":"Harju maakond"},
{"lon":"26.9433256","lat":"58.8131313","number":"52","street":"Tartu maantee","unit":"","city":"\"Kasepää vald","district":"Kükita küla\"","region":"Kasepää vald","postcode":"Jõgeva maakond"},
{"lon":"25.8685776","lat":"58.2345394","number":"49","street":"Posti tänav","unit":"","city":"\"Tarvastu vald","district":"Mustla alevik\"","region":"Tarvastu vald","postcode":"Viljandi maakond"},
{"lon":"24.8188183","lat":"59.5085604","number":"13","street":"Kaluri tee","unit":"","city":"\"Viimsi vald","district":"Haabneeme alevik\"","region":"Viimsi vald","postcode":"Harju maakond"},
{"lon":"24.9381973","lat":"58.7528969","number":"4","street":"Tuule tänav","unit":"","city":"\"Kehtna vald","district":"Eidapere alevik\"","region":"Kehtna vald","postcode":"Rapla maakond"},
{"lon":"24.8969673","lat":"59.355629","number":"19","street":"Aruküla tee","unit":"","city":"\"Rae vald","district":"Jüri alevik\"","region":"Rae vald","postcode":"Harju maakond"},
{"lon":"24.2288218","lat":"59.0789186","number":"3","street":"Puiestee tänav","unit":"","city":"\"Nissi vald","district":"Turba alevik\"","region":"Nissi vald","postcode":"Harju maakond"},
{"lon":"22.7816904","lat":"58.8261431","number":"8","street":"Luige tänav","unit":"","city":"\"Käina vald","district":"Käina alevik\"","region":"Käina vald","postcode":"Hiiu maakond"},
{"lon":"24.2966883","lat":"59.2475088","number":"37","street":"Pärna tänav","unit":"","city":"\"Vasalemma vald","district":"Vasalemma alevik\"","region":"Vasalemma vald","postcode":"Harju maakond"},
{"lon":"26.492292","lat":"58.0545857","number":"30","street":"Pühajärve tee","unit":"","city":"\"Otepää vald","district":"Otepää linn\"","region":"Otepää vald","postcode":"Valga maakond"},
{"lon":"27.3086372","lat":"59.1013904","number":"28","street":"Tartu maantee","unit":"","city":"\"Iisaku vald","district":"Iisaku alevik\"","region":"Iisaku vald","postcode":"Ida-Viru maakond"},
{"lon":"24.9408417","lat":"59.4856794","number":"70","street":"Tammekännu tee","unit":"","city":"\"Viimsi vald","district":"Muuga küla\"","region":"Viimsi vald","postcode":"Harju maakond"},
{"lon":"27.5358841","lat":"58.080551","number":"2","street":"Jõe tänav","unit":"","city":"\"Räpina vald","district":"Võõpsu alevik\"","region":"Räpina vald","postcode":"Põlva maakond"},
{"lon":"26.7593336","lat":"57.9827259","number":"12","street":"Tehnika tänav","unit":"","city":"\"Kanepi vald","district":"Kanepi alevik\"","region":"Kanepi vald","postcode":"Põlva maakond"},
{"lon":"25.0825911","lat":"59.3683882","number":"12","street":"Tamme tänav","unit":"","city":"\"Raasiku vald","district":"Aruküla alevik\"","region":"Raasiku vald","postcode":"Harju maakond"},
{"lon":"25.1945548","lat":"59.3806741","number":"55","street":"Jägala maantee","unit":"","city":"\"Raasiku vald","district":"Raasiku alevik\"","region":"Raasiku vald","postcode":"Harju maakond"},
{"lon":"25.887816","lat":"59.0394928","number":"34","street":"Kalda tänav","unit":"","city":"\"Järva-Jaani vald","district":"Järva-Jaani alev\"","region":"Järva-Jaani vald","postcode":"Järva maakond"},
{"lon":"26.305188","lat":"58.3386133","number":"9","street":"Õhtu tänav","unit":"","city":"\"Puhja vald","district":"Puhja alevik\"","region":"Puhja vald","postcode":"Tartu maakond"},
{"lon":"22.2421717","lat":"58.1641774","number":"12","street":"Kastani tänav","unit":"","city":"\"Salme vald","district":"Salme alevik\"","region":"Salme vald","postcode":"Saare maakond"},
{"lon":"26.5290268","lat":"57.8350593","number":"22","street":"Veski tänav","unit":"","city":"\"Antsla vald","district":"Antsla linn\"","region":"Antsla vald","postcode":"Võru maakond"},
{"lon":"25.60199","lat":"59.2877706","number":"23","street":"Jaama tänav","unit":"","city":"\"Aegviidu vald","district":"Aegviidu alev\"","region":"Aegviidu vald","postcode":"Harju maakond"},
{"lon":"26.368433","lat":"59.3623481","number":"1","street":"Roo tänav","unit":"","city":"\"Sõmeru vald","district":"Roodevälja küla\"","region":"Sõmeru vald","postcode":"Lääne-Viru maakond"},
{"lon":"27.2778051","lat":"59.4012344","number":"14","street":"Ringi tänav","unit":"","city":"\"Kohtla-Järve linn","district":"Järve linnaosa\"","region":"Kohtla-Järve linn","postcode":"Ida-Viru maakond"},
{"lon":"26.2311142","lat":"58.0547206","number":"27","street":"Kesk tänav","unit":"","city":"\"Puka vald","district":"Puka alevik\"","region":"Puka vald","postcode":"Valga maakond"},
{"lon":"24.7915745","lat":"59.5410793","number":"8","street":"Voldemari tee","unit":"","city":"\"Viimsi vald","district":"Pringi küla\"","region":"Viimsi vald","postcode":"Harju maakond"},
{"lon":"24.8477318","lat":"59.5042272","number":"8","street":"Suur-Kaare tee","unit":"","city":"\"Viimsi vald","district":"Pärnamäe küla\"","region":"Viimsi vald","postcode":"Harju maakond"},
{"lon":"24.8824752","lat":"59.5437099","number":"4","street":"Mäe tee","unit":"","city":"\"Viimsi vald","district":"Leppneeme küla\"","region":"Viimsi vald","postcode":"Harju maakond"},
{"lon":"24.8346893","lat":"59.5134424","number":"19","street":"Randvere tee","unit":"","city":"\"Viimsi vald","district":"Haabneeme alevik\"","region":"Viimsi vald","postcode":"Harju maakond"},
{"lon":"24.4164448","lat":"59.4277167","number":"2","street":"Kopli tee","unit":"","city":"\"Harku vald","district":"Liikva küla\"","region":"Harku vald","postcode":"Harju maakond"},
{"lon":"24.6032475","lat":"58.390427","number":"11","street":"Takja tänav","unit":"","city":"\"Sauga vald","district":"Tammiste küla\"","region":"Sauga vald","postcode":"Pärnu maakond"},
{"lon":"25.6080542","lat":"59.2972617","number":"8","street":"Mustika tänav","unit":"","city":"\"Aegviidu vald","district":"Aegviidu alev\"","region":"Aegviidu vald","postcode":"Harju maakond"},
{"lon":"25.5292274","lat":"58.913068","number":"19","street":"Jõhvika tee","unit":"","city":"\"Paide vald","district":"Viraksaare küla\"","region":"Paide vald","postcode":"Järva maakond"},
{"lon":"24.2574093","lat":"59.3482287","number":"6a","street":"Metsa tee","unit":"","city":"\"Keila vald","district":"Kloogaranna küla\"","region":"Keila vald","postcode":"Harju maakond"},
{"lon":"25.7514296","lat":"59.1394088","number":"4","street":"Sepa tänav","unit":"","city":"\"Ambla vald","district":"Aravete alevik\"","region":"Ambla vald","postcode":"Järva maakond"},
{"lon":"25.6142718","lat":"59.2866408","number":"27","street":"Tamme tänav","unit":"","city":"\"Aegviidu vald","district":"Aegviidu alev\"","region":"Aegviidu vald","postcode":"Harju maakond"},
{"lon":"25.0043723","lat":"58.8616461","number":"42","street":"Viljandi maantee","unit":"","city":"\"Kehtna vald","district":"Lelle alevik\"","region":"Kehtna vald","postcode":"Rapla maakond"},
{"lon":"24.9043157","lat":"59.3518199","number":"10","street":"Suve tänav","unit":"","city":"\"Rae vald","district":"Jüri alevik\"","region":"Rae vald","postcode":"Harju maakond"},
{"lon":"24.9758159","lat":"59.2891206","number":"5","street":"Tuuliku tee","unit":"","city":"\"Rae vald","district":"Vaida alevik\"","region":"Rae vald","postcode":"Harju maakond"},
{"lon":"26.7041093","lat":"58.3266353","number":"27","street":"Tamme tänav","unit":"","city":"\"Ülenurme vald","district":"Tõrvandi alevik\"","region":"Ülenurme vald","postcode":"Tartu maakond"},
{"lon":"24.2394805","lat":"59.0818292","number":"3","street":"Pargi tänav","unit":"","city":"\"Nissi vald","district":"Turba alevik\"","region":"Nissi vald","postcode":"Harju maakond"},
{"lon":"24.5077348","lat":"58.082465","number":"10","street":"Metsa tänav","unit":"","city":"\"Häädemeeste vald","district":"Häädemeeste alevik\"","region":"Häädemeeste vald","postcode":"Pärnu maakond"},
{"lon":"26.5379913","lat":"58.7354082","number":"3","street":"Keskasula tänav","unit":"","city":"\"Jõgeva vald","district":"Kuremaa alevik\"","region":"Jõgeva vald","postcode":"Jõgeva maakond"},
{"lon":"28.0956918","lat":"59.4118281","number":"16","street":"Allika tänav","unit":"","city":"\"Vaivara vald","district":"Tõrvajõe küla\"","region":"Vaivara vald","postcode":"Ida-Viru maakond"},
{"lon":"24.8902682","lat":"59.3744218","number":"64","street":"Kullese tee","unit":"","city":"\"Rae vald","district":"Rae küla\"","region":"Rae vald","postcode":"Harju maakond"},
{"lon":"27.290601","lat":"59.406498","number":"3","street":"Mõisa tee","unit":"","city":"\"Kohtla-Järve linn","district":"Järve linnaosa\"","region":"Kohtla-Järve linn","postcode":"Ida-Viru maakond"},
{"lon":"24.848086","lat":"59.4989454","number":"38","street":"Tulbiaia tee","unit":"","city":"\"Viimsi vald","district":"Viimsi alevik\"","region":"Viimsi vald","postcode":"Harju maakond"},
{"lon":"26.94515","lat":"58.8190402","number":"136","street":"Kalda tänav","unit":"","city":"\"Kasepää vald","district":"Raja küla\"","region":"Kasepää vald","postcode":"Jõgeva maakond"},
{"lon":"24.6490059","lat":"59.3138569","number":"6","street":"Eha tee","unit":"","city":"\"Saku vald","district":"Juuliku küla\"","region":"Saku vald","postcode":"Harju maakond"},
{"lon":"26.0277596","lat":"58.9682916","number":"6","street":"Põhja tänav","unit":"","city":"\"Koeru vald","district":"Koeru alevik\"","region":"Koeru vald","postcode":"Järva maakond"},
{"lon":"24.8886404","lat":"59.4944408","number":"1","street":"Mäepealse tee","unit":"","city":"\"Viimsi vald","district":"Metsakasti küla\"","region":"Viimsi vald","postcode":"Harju maakond"},
{"lon":"25.3312454","lat":"59.3346682","number":"2a","street":"Kose maantee","unit":"","city":"\"Anija vald","district":"Kehra linn\"","region":"Anija vald","postcode":"Harju maakond"},
{"lon":"26.8356481","lat":"59.3464051","number":"23","street":"Sepa tänav","unit":"","city":"\"Sonda vald","district":"Sonda alevik\"","region":"Sonda vald","postcode":"Ida-Viru maakond"},
{"lon":"26.830168","lat":"58.9791648","number":"3","street":"Tartu maantee","unit":"","city":"\"Avinurme vald","district":"Avinurme alevik\"","region":"Avinurme vald","postcode":"Ida-Viru maakond"},
{"lon":"27.4147235","lat":"59.3394205","number":"3","street":"Aru tänav","unit":"","city":"\"Kohtla-Järve linn","district":"Ahtme linnaosa\"","region":"Kohtla-Järve linn","postcode":"Ida-Viru maakond"},
{"lon":"25.3260151","lat":"59.2425453","number":"3","street":"Pargi tänav","unit":"","city":"\"Anija vald","district":"Alavere küla\"","region":"Anija vald","postcode":"Harju maakond"},
{"lon":"24.9551951","lat":"59.3204958","number":"2","street":"Halli tee","unit":"","city":"\"Rae vald","district":"Veskitaguse küla\"","region":"Rae vald","postcode":"Harju maakond"},
{"lon":"25.5629398","lat":"58.1108702","number":"2","street":"Tehase tänav","unit":"","city":"\"Karksi vald","district":"Karksi-Nuia linn\"","region":"Karksi vald","postcode":"Viljandi maakond"},
{"lon":"24.7775544","lat":"59.1712326","number":"1","street":"Männimetsa tee","unit":"","city":"\"Kohila vald","district":"Urge küla\"","region":"Kohila vald","postcode":"Rapla maakond"},
{"lon":"24.7992192","lat":"59.5331594","number":"22","street":"Rannavälja tee","unit":"","city":"\"Viimsi vald","district":"Pringi küla\"","region":"Viimsi vald","postcode":"Harju maakond"},
{"lon":"22.2460161","lat":"58.1651864","number":"11","street":"Liiva tänav","unit":"","city":"\"Salme vald","district":"Salme alevik\"","region":"Salme vald","postcode":"Saare maakond"},
{"lon":"26.5224452","lat":"57.8276478","number":"7","street":"Pargi tänav","unit":"","city":"\"Antsla vald","district":"Antsla linn\"","region":"Antsla vald","postcode":"Võru maakond"},
{"lon":"26.2447581","lat":"58.9874526","number":"20","street":"Friedrich Robert Faehlmanni tee","unit":"","city":"\"Rakke vald","district":"Rakke alevik\"","region":"Rakke vald","postcode":"Lääne-Viru maakond"},
{"lon":"27.5157698","lat":"59.4244448","number":"12","street":"Ranna tänav","unit":"","city":"\"Toila vald","district":"Toila alevik\"","region":"Toila vald","postcode":"Ida-Viru maakond"},
{"lon":"25.4422691","lat":"59.4892927","number":"2","street":"Otsa tee","unit":"","city":"\"Kuusalu vald","district":"Sõitme küla\"","region":"Kuusalu vald","postcode":"Harju maakond"},
{"lon":"25.0011147","lat":"58.8605899","number":"5a","street":"Pärnu maantee","unit":"","city":"\"Kehtna vald","district":"Lelle alevik\"","region":"Kehtna vald","postcode":"Rapla maakond"},
{"lon":"25.8874725","lat":"59.0383411","number":"38","street":"Kalda tänav","unit":"","city":"\"Järva-Jaani vald","district":"Järva-Jaani alev\"","region":"Järva-Jaani vald","postcode":"Järva maakond"},
{"lon":"26.258072","lat":"59.4413899","number":"24","street":"Võsu maantee","unit":"","city":"\"Haljala vald","district":"Haljala alevik\"","region":"Haljala vald","postcode":"Lääne-Viru maakond"},
{"lon":"24.853843","lat":"58.9788833","number":"4","street":"Pargi tänav","unit":"","city":"\"Rapla vald","district":"Valtu küla\"","region":"Rapla vald","postcode":"Rapla maakond"},
{"lon":"24.2511181","lat":"59.3449383","number":"15","street":"Purje tee","unit":"","city":"\"Keila vald","district":"Kloogaranna küla\"","region":"Keila vald","postcode":"Harju maakond"},
{"lon":"24.4985329","lat":"59.4348491","number":"15","street":"Merihobu tee","unit":"","city":"\"Harku vald","district":"Rannamõisa küla\"","region":"Harku vald","postcode":"Harju maakond"},
{"lon":"27.3102111","lat":"59.1002199","number":"38","street":"Tartu maantee","unit":"","city":"\"Iisaku vald","district":"Iisaku alevik\"","region":"Iisaku vald","postcode":"Ida-Viru maakond"},
{"lon":"25.6131597","lat":"59.2955543","number":"1","street":"Kuusiku tee","unit":"","city":"\"Aegviidu vald","district":"Aegviidu alev\"","region":"Aegviidu vald","postcode":"Harju maakond"},
{"lon":"25.6404155","lat":"59.2711822","number":"59","street":"Piibe maantee","unit":"","city":"\"Aegviidu vald","district":"Aegviidu alev\"","region":"Aegviidu vald","postcode":"Harju maakond"},
{"lon":"22.0346904","lat":"58.3623684","number":"10","street":"Oja tänav","unit":"","city":"\"Kihelkonna vald","district":"Kihelkonna alevik\"","region":"Kihelkonna vald","postcode":"Saare maakond"},
{"lon":"27.2910586","lat":"59.3354213","number":"4","street":"Oblika tänav","unit":"","city":"\"Kohtla-Järve linn","district":"Sompa linnaosa\"","region":"Kohtla-Järve linn","postcode":"Ida-Viru maakond"},
{"lon":"24.508528","lat":"58.0841682","number":"4","street":"Metsa tänav","unit":"","city":"\"Häädemeeste vald","district":"Häädemeeste alevik\"","region":"Häädemeeste vald","postcode":"Pärnu maakond"},
{"lon":"26.7597243","lat":"57.9838048","number":"8","street":"Tehnika tänav","unit":"","city":"\"Kanepi vald","district":"Kanepi alevik\"","region":"Kanepi vald","postcode":"Põlva maakond"},
{"lon":"22.7735216","lat":"58.8259861","number":"3","street":"Ranna tänav","unit":"","city":"\"Käina vald","district":"Käina alevik\"","region":"Käina vald","postcode":"Hiiu maakond"},
{"lon":"25.4017809","lat":"59.4852941","number":"10","street":"Kaljusaare tee","unit":"","city":"\"Kuusalu vald","district":"Mäepea küla\"","region":"Kuusalu vald","postcode":"Harju maakond"},
{"lon":"27.2960838","lat":"59.4076294","number":"26","street":"Mõisa tee","unit":"","city":"\"Kohtla-Järve linn","district":"Järve linnaosa\"","region":"Kohtla-Järve linn","postcode":"Ida-Viru maakond"},
{"lon":"23.0938725","lat":"58.5544696","number":"3","street":"Põllu tee","unit":"","city":"\"Orissaare vald","district":"Orissaare alevik\"","region":"Orissaare vald","postcode":"Saare maakond"},
{"lon":"24.8556519","lat":"59.3870885","number":"17","street":"Roosipõõsa tee","unit":"","city":"\"Rae vald","district":"Rae küla\"","region":"Rae vald","postcode":"Harju maakond"},
{"lon":"26.9473098","lat":"58.8065775","number":"7","street":"Koidu tänav","unit":"","city":"\"Kasepää vald","district":"Kükita küla\"","region":"Kasepää vald","postcode":"Jõgeva maakond"},
{"lon":"26.2266033","lat":"58.0558503","number":"1","street":"Koidu tänav","unit":"","city":"\"Puka vald","district":"Puka alevik\"","region":"Puka vald","postcode":"Valga maakond"},
{"lon":"24.9040965","lat":"59.4108826","number":"9","street":"Radisti tee","unit":"","city":"\"Rae vald","district":"Soodevahe küla\"","region":"Rae vald","postcode":"Harju maakond"},
{"lon":"27.2571512","lat":"59.3744844","number":"12","street":"Kuu tänav","unit":"","city":"\"Kohtla-Järve linn","district":"Järve linnaosa\"","region":"Kohtla-Järve linn","postcode":"Ida-Viru maakond"},
{"lon":"25.8542908","lat":"58.2374726","number":"17","street":"Lille tänav","unit":"","city":"\"Tarvastu vald","district":"Mustla alevik\"","region":"Tarvastu vald","postcode":"Viljandi maakond"},
{"lon":"25.070067","lat":"59.3641485","number":"18","street":"Harju tee","unit":"","city":"\"Raasiku vald","district":"Aruküla alevik\"","region":"Raasiku vald","postcode":"Harju maakond"},
{"lon":"23.5914077","lat":"58.9396086","number":"27","street":"Tennise tänav","unit":"","city":"\"Ridala vald","district":"Uuemõisa alevik\"","region":"Ridala vald","postcode":"Lääne maakond"},
{"lon":"27.512609","lat":"59.4245336","number":"7","street":"Nõlva tänav","unit":"","city":"\"Toila vald","district":"Toila alevik\"","region":"Toila vald","postcode":"Ida-Viru maakond"},
{"lon":"27.5128693","lat":"59.4163955","number":"7","street":"Pikk tänav","unit":"","city":"\"Toila vald","district":"Toila alevik\"","region":"Toila vald","postcode":"Ida-Viru maakond"},
{"lon":"26.8438489","lat":"59.3505127","number":"2","street":"Jaama tänav","unit":"","city":"\"Sonda vald","district":"Sonda alevik\"","region":"Sonda vald","postcode":"Ida-Viru maakond"},
{"lon":"24.6700716","lat":"59.3054187","number":"1","street":"Ülase tänav","unit":"","city":"\"Saku vald","district":"Saku alevik\"","region":"Saku vald","postcode":"Harju maakond"},
{"lon":"24.9123426","lat":"59.4964439","number":"4","street":"Nurmenuku tee","unit":"","city":"\"Viimsi vald","district":"Randvere küla\"","region":"Viimsi vald","postcode":"Harju maakond"},
{"lon":"24.2317914","lat":"59.3398346","number":"36","street":"Adruvahi tee","unit":"","city":"\"Keila vald","district":"Kloogaranna küla\"","region":"Keila vald","postcode":"Harju maakond"},
{"lon":"24.6417466","lat":"59.3480253","number":"10","street":"Suur-Tooma tänav","unit":"","city":"\"Saue vald","district":"Laagri alevik\"","region":"Saue vald","postcode":"Harju maakond"},
{"lon":"23.9950748","lat":"58.3326158","number":"3","street":"Sadama tee","unit":"","city":"\"Tõstamaa vald","district":"Tõstamaa alevik\"","region":"Tõstamaa vald","postcode":"Pärnu maakond"},
{"lon":"24.7987331","lat":"59.5615612","number":"16","street":"Uuetalu tee","unit":"","city":"\"Viimsi vald","district":"Rohuneeme küla\"","region":"Viimsi vald","postcode":"Harju maakond"},
{"lon":"24.9093339","lat":"59.5138064","number":"17","street":"Vaablase tee","unit":"","city":"\"Viimsi vald","district":"Randvere küla\"","region":"Viimsi vald","postcode":"Harju maakond"},
{"lon":"24.8923541","lat":"59.5230846","number":"6","street":"Tädu tee","unit":"","city":"\"Viimsi vald","district":"Tammneeme küla\"","region":"Viimsi vald","postcode":"Harju maakond"},
{"lon":"24.2766966","lat":"59.2375787","number":"9","street":"Tööstuse tänav","unit":"","city":"\"Vasalemma vald","district":"Vasalemma alevik\"","region":"Vasalemma vald","postcode":"Harju maakond"},
{"lon":"26.4120644","lat":"59.2848784","number":"9","street":"Tartu maantee","unit":"","city":"\"Vinni vald","district":"Pajusti alevik\"","region":"Vinni vald","postcode":"Lääne-Viru maakond"},
{"lon":"24.8192555","lat":"59.5145511","number":"18a","street":"Männi tee","unit":"","city":"\"Viimsi vald","district":"Haabneeme alevik\"","region":"Viimsi vald","postcode":"Harju maakond"},
{"lon":"26.5839251","lat":"59.1694501","number":"25","street":"Tartu maantee","unit":"","city":"\"Vinni vald","district":"Roela alevik\"","region":"Vinni vald","postcode":"Lääne-Viru maakond"},
{"lon":"24.8104965","lat":"59.5197628","number":"41","street":"Lumemarja tee","unit":"","city":"\"Viimsi vald","district":"Haabneeme alevik\"","region":"Viimsi vald","postcode":"Harju maakond"},
{"lon":"24.818528","lat":"59.5014393","number":"44","street":"Miiduranna tee","unit":"","city":"\"Viimsi vald","district":"Miiduranna küla\"","region":"Viimsi vald","postcode":"Harju maakond"},
{"lon":"24.8479257","lat":"59.4967352","number":"8","street":"Priimula tee","unit":"","city":"\"Viimsi vald","district":"Viimsi alevik\"","region":"Viimsi vald","postcode":"Harju maakond"},
{"lon":"26.8700927","lat":"59.445811","number":"14","street":"Nurme tänav","unit":"","city":"\"Aseri vald","district":"Aseri alevik\"","region":"Aseri vald","postcode":"Ida-Viru maakond"},
{"lon":"25.6056693","lat":"59.296442","number":"5","street":"Pohla tänav","unit":"","city":"\"Aegviidu vald","district":"Aegviidu alev\"","region":"Aegviidu vald","postcode":"Harju maakond"},
{"lon":"26.6002958","lat":"59.1703861","number":"8","street":"Aida tänav","unit":"","city":"\"Vinni vald","district":"Roela alevik\"","region":"Vinni vald","postcode":"Lääne-Viru maakond"},
{"lon":"24.2415284","lat":"59.2481996","number":"4","street":"Ämari tee","unit":"","city":"\"Vasalemma vald","district":"Ämari alevik\"","region":"Vasalemma vald","postcode":"Harju maakond"},
{"lon":"27.1947652","lat":"59.3539127","number":"2","street":"Sügise tänav","unit":"","city":"\"Kohtla-Nõmme vald","district":"Kohtla-Nõmme alev\"","region":"Kohtla-Nõmme vald","postcode":"Ida-Viru maakond"},
{"lon":"22.1827758","lat":"58.4965162","number":"1","street":"Karusambla tänav","unit":"","city":"\"Mustjala vald","district":"Merise küla\"","region":"Mustjala vald","postcode":"Saare maakond"},
{"lon":"27.2883989","lat":"59.4008548","number":"3","street":"Kalevi tänav","unit":"","city":"\"Kohtla-Järve linn","district":"Järve linnaosa\"","region":"Kohtla-Järve linn","postcode":"Ida-Viru maakond"},
{"lon":"27.2424194","lat":"59.3837463","number":"4a","street":"Kaevuri tänav","unit":"","city":"\"Kohtla-Järve linn","district":"Järve linnaosa\"","region":"Kohtla-Järve linn","postcode":"Ida-Viru maakond"},
{"lon":"25.3174419","lat":"59.3344969","number":"12","street":"Niidu tänav","unit":"","city":"\"Anija vald","district":"Kehra linn\"","region":"Anija vald","postcode":"Harju maakond"},
{"lon":"24.9038903","lat":"59.5055152","number":"9","street":"Tülli tee","unit":"","city":"\"Viimsi vald","district":"Randvere küla\"","region":"Viimsi vald","postcode":"Harju maakond"},
{"lon":"27.5098233","lat":"59.4198785","number":"22","street":"Pikk tänav","unit":"","city":"\"Toila vald","district":"Toila alevik\"","region":"Toila vald","postcode":"Ida-Viru maakond"},
{"lon":"24.8181985","lat":"59.5172084","number":"1","street":"Hundi tee","unit":"","city":"\"Viimsi vald","district":"Haabneeme alevik\"","region":"Viimsi vald","postcode":"Harju maakond"},
{"lon":"24.8004938","lat":"59.546353","number":"4","street":"Lagle tee","unit":"","city":"\"Viimsi vald","district":"Püünsi küla\"","region":"Viimsi vald","postcode":"Harju maakond"},
{"lon":"27.4686677","lat":"58.1021635","number":"9","street":"Väike tänav","unit":"","city":"\"Räpina vald","district":"Räpina linn\"","region":"Räpina vald","postcode":"Põlva maakond"},
{"lon":"24.9484443","lat":"58.1479941","number":"31","street":"Pärnu tänav","unit":"","city":"\"Saarde vald","district":"Kilingi-Nõmme linn\"","region":"Saarde vald","postcode":"Pärnu maakond"},
{"lon":"27.4651087","lat":"58.0994215","number":"29","street":"Pärna tänav","unit":"","city":"\"Räpina vald","district":"Räpina linn\"","region":"Räpina vald","postcode":"Põlva maakond"},
{"lon":"27.459802","lat":"58.0942649","number":"19","street":"Kooli tänav","unit":"","city":"\"Räpina vald","district":"Räpina linn\"","region":"Räpina vald","postcode":"Põlva maakond"},
{"lon":"27.4623829","lat":"58.109352","number":"30","street":"Meeksi maantee","unit":"","city":"\"Räpina vald","district":"Räpina linn\"","region":"Räpina vald","postcode":"Põlva maakond"},
{"lon":"24.5364039","lat":"58.6209207","number":"94","street":"Kergu maantee","unit":"","city":"\"Halinga vald","district":"Pärnu-Jaagupi alev\"","region":"Halinga vald","postcode":"Pärnu maakond"},
{"lon":"27.4623131","lat":"58.1027121","number":"7","street":"Kastani tänav","unit":"","city":"\"Räpina vald","district":"Räpina linn\"","region":"Räpina vald","postcode":"Põlva maakond"},
{"lon":"27.4514641","lat":"58.1033917","number":"6","street":"Tartu maantee","unit":"","city":"\"Räpina vald","district":"Räpina linn\"","region":"Räpina vald","postcode":"Põlva maakond"},
{"lon":"27.4622679","lat":"58.0964791","number":"1","street":"Hariduse tänav","unit":"","city":"\"Räpina vald","district":"Räpina linn\"","region":"Räpina vald","postcode":"Põlva maakond"},
{"lon":"24.942194","lat":"58.1500349","number":"12","street":"Veski tänav","unit":"","city":"\"Saarde vald","district":"Kilingi-Nõmme linn\"","region":"Saarde vald","postcode":"Pärnu maakond"},
{"lon":"27.46141","lat":"58.1026357","number":"4","street":"Kastani tänav","unit":"","city":"\"Räpina vald","district":"Räpina linn\"","region":"Räpina vald","postcode":"Põlva maakond"},
{"lon":"24.5028006","lat":"58.6085736","number":"33","street":"Pärnu maantee","unit":"","city":"\"Halinga vald","district":"Pärnu-Jaagupi alev\"","region":"Halinga vald","postcode":"Pärnu maakond"},
{"lon":"27.4613656","lat":"58.1061265","number":"26","street":"Meeksi maantee","unit":"","city":"\"Räpina vald","district":"Räpina linn\"","region":"Räpina vald","postcode":"Põlva maakond"},
{"lon":"27.463151","lat":"58.0975963","number":"1","street":"Pargi tänav","unit":"","city":"\"Räpina vald","district":"Räpina linn\"","region":"Räpina vald","postcode":"Põlva maakond"},
{"lon":"27.4705207","lat":"58.0975386","number":"1","street":"Kalevi tänav","unit":"","city":"\"Räpina vald","district":"Räpina linn\"","region":"Räpina vald","postcode":"Põlva maakond"},
{"lon":"25.4575154","lat":"58.8901168","number":"14","street":"Mäe tänav","unit":"","city":"\"Väätsa vald","district":"Väätsa alevik\"","region":"Väätsa vald","postcode":"Järva maakond"},
{"lon":"26.7028326","lat":"58.3264165","number":"29","street":"Tamme tänav","unit":"","city":"\"Ülenurme vald","district":"Tõrvandi alevik\"","region":"Ülenurme vald","postcode":"Tartu maakond"},
{"lon":"24.5023287","lat":"58.6041228","number":"1","street":"Uus tänav","unit":"","city":"\"Halinga vald","district":"Pärnu-Jaagupi alev\"","region":"Halinga vald","postcode":"Pärnu maakond"},
{"lon":"27.459238","lat":"58.0977857","number":"14","street":"Pargi tänav","unit":"","city":"\"Räpina vald","district":"Räpina linn\"","region":"Räpina vald","postcode":"Põlva maakond"},
{"lon":"24.5748105","lat":"58.3658256","number":"14","street":"Sinilille tänav","unit":"","city":"\"Sauga vald","district":"Tammiste küla\"","region":"Sauga vald","postcode":"Pärnu maakond"},
{"lon":"24.9447651","lat":"58.1521734","number":"4","street":"Kase tänav","unit":"","city":"\"Saarde vald","district":"Kilingi-Nõmme linn\"","region":"Saarde vald","postcode":"Pärnu maakond"},
{"lon":"24.9416387","lat":"58.1459761","number":"17","street":"Õhtu tänav","unit":"","city":"\"Saarde vald","district":"Kilingi-Nõmme linn\"","region":"Saarde vald","postcode":"Pärnu maakond"},
{"lon":"24.9450045","lat":"58.1460182","number":"5","street":"Õhtu tänav","unit":"","city":"\"Saarde vald","district":"Kilingi-Nõmme linn\"","region":"Saarde vald","postcode":"Pärnu maakond"},
{"lon":"24.5013861","lat":"58.0817429","number":"24","street":"Pärnu maantee","unit":"","city":"\"Häädemeeste vald","district":"Häädemeeste alevik\"","region":"Häädemeeste vald","postcode":"Pärnu maakond"},
{"lon":"24.9655939","lat":"58.151846","number":"4","street":"Kõrge tänav","unit":"","city":"\"Saarde vald","district":"Kilingi-Nõmme linn\"","region":"Saarde vald","postcode":"Pärnu maakond"},
{"lon":"24.9590982","lat":"58.151556","number":"16","street":"Põllu tänav","unit":"","city":"\"Saarde vald","district":"Kilingi-Nõmme linn\"","region":"Saarde vald","postcode":"Pärnu maakond"},
{"lon":"24.2535271","lat":"59.3679238","number":"21","street":"Tammiku tee","unit":"","city":"\"Keila vald","district":"Laulasmaa küla\"","region":"Keila vald","postcode":"Harju maakond"},
{"lon":"25.3191258","lat":"59.3396164","number":"13","street":"Põhja tänav","unit":"","city":"\"Anija vald","district":"Kehra linn\"","region":"Anija vald","postcode":"Harju maakond"},
{"lon":"24.9449935","lat":"58.1448777","number":"13a","street":"Järve tänav","unit":"","city":"\"Saarde vald","district":"Kilingi-Nõmme linn\"","region":"Saarde vald","postcode":"Pärnu maakond"},
{"lon":"25.0603077","lat":"59.3628316","number":"2a","street":"Võidu tänav","unit":"","city":"\"Raasiku vald","district":"Aruküla alevik\"","region":"Raasiku vald","postcode":"Harju maakond"},
{"lon":"25.4450858","lat":"59.4432771","number":"5","street":"Soodla tee","unit":"","city":"\"Kuusalu vald","district":"Kuusalu alevik\"","region":"Kuusalu vald","postcode":"Harju maakond"},
{"lon":"25.3337846","lat":"59.329868","number":"11","street":"Kooli tänav","unit":"","city":"\"Anija vald","district":"Kehra linn\"","region":"Anija vald","postcode":"Harju maakond"},
{"lon":"24.8184407","lat":"59.5196674","number":"12","street":"Käärti tee","unit":"","city":"\"Viimsi vald","district":"Haabneeme alevik\"","region":"Viimsi vald","postcode":"Harju maakond"},
{"lon":"25.3354092","lat":"59.3273336","number":"30","street":"Kooli tänav","unit":"","city":"\"Anija vald","district":"Kehra linn\"","region":"Anija vald","postcode":"Harju maakond"},
{"lon":"25.333881","lat":"59.3412244","number":"3","street":"Paberi tänav","unit":"","city":"\"Anija vald","district":"Kehra linn\"","region":"Anija vald","postcode":"Harju maakond"},
{"lon":"25.3385256","lat":"59.33328","number":"7","street":"Kase tänav","unit":"","city":"\"Anija vald","district":"Kehra linn\"","region":"Anija vald","postcode":"Harju maakond"},
{"lon":"24.5263774","lat":"59.4353226","number":"5","street":"Käbi tee","unit":"","city":"\"Harku vald","district":"Tabasalu alevik\"","region":"Harku vald","postcode":"Harju maakond"},
{"lon":"25.3323623","lat":"59.3308269","number":"7","street":"Spordi tänav","unit":"","city":"\"Anija vald","district":"Kehra linn\"","region":"Anija vald","postcode":"Harju maakond"},
{"lon":"24.6559654","lat":"59.3041234","number":"23","street":"Nurme tänav","unit":"","city":"\"Saku vald","district":"Saku alevik\"","region":"Saku vald","postcode":"Harju maakond"},
{"lon":"25.4423738","lat":"59.4429662","number":"18","street":"Soodla tee","unit":"","city":"\"Kuusalu vald","district":"Kuusalu alevik\"","region":"Kuusalu vald","postcode":"Harju maakond"},
{"lon":"25.471698","lat":"58.5385287","number":"15","street":"Tallinna tänav","unit":"","city":"\"Suure-Jaani vald","district":"Suure-Jaani linn\"","region":"Suure-Jaani vald","postcode":"Viljandi maakond"},
{"lon":"24.8440592","lat":"59.5143414","number":"36","street":"Paenurme tee","unit":"","city":"\"Viimsi vald","district":"Lubja küla\"","region":"Viimsi vald","postcode":"Harju maakond"},
{"lon":"24.9117266","lat":"59.4913992","number":"10","street":"Vesiniidu tee","unit":"","city":"\"Viimsi vald","district":"Randvere küla\"","region":"Viimsi vald","postcode":"Harju maakond"},
{"lon":"25.4661865","lat":"58.5359487","number":"1","street":"Pärnu tänav","unit":"","city":"\"Suure-Jaani vald","district":"Suure-Jaani linn\"","region":"Suure-Jaani vald","postcode":"Viljandi maakond"},
{"lon":"24.8169058","lat":"59.5248458","number":"3","street":"Kasemetsa tee","unit":"","city":"\"Viimsi vald","district":"Haabneeme alevik\"","region":"Viimsi vald","postcode":"Harju maakond"},
{"lon":"24.6048101","lat":"59.3169001","number":"6","street":"Mõisavahe tee","unit":"","city":"\"Saku vald","district":"Jälgimäe küla\"","region":"Saku vald","postcode":"Harju maakond"},
{"lon":"25.4783278","lat":"58.5381133","number":"25a","street":"Lembitu puiestee","unit":"","city":"\"Suure-Jaani vald","district":"Suure-Jaani linn\"","region":"Suure-Jaani vald","postcode":"Viljandi maakond"},
{"lon":"25.3629302","lat":"58.1266556","number":"9","street":"Abja tee","unit":"","city":"\"Abja vald","district":"Abja-Paluoja linn\"","region":"Abja vald","postcode":"Viljandi maakond"},
{"lon":"25.3466502","lat":"58.1273211","number":"32","street":"Aia tänav","unit":"","city":"\"Abja vald","district":"Abja-Paluoja linn\"","region":"Abja vald","postcode":"Viljandi maakond"},
{"lon":"25.5452479","lat":"58.1059638","number":"2","street":"Ettevõtluse tänav","unit":"","city":"\"Karksi vald","district":"Karksi-Nuia linn\"","region":"Karksi vald","postcode":"Viljandi maakond"},
{"lon":"25.5561979","lat":"58.0932687","number":"5","street":"Tööstuse tänav","unit":"","city":"\"Karksi vald","district":"Karksi-Nuia linn\"","region":"Karksi vald","postcode":"Viljandi maakond"},
{"lon":"25.5463421","lat":"58.1010507","number":"22","street":"Lepiku tänav","unit":"","city":"\"Karksi vald","district":"Karksi-Nuia linn\"","region":"Karksi vald","postcode":"Viljandi maakond"},
{"lon":"25.556549","lat":"58.0955058","number":"1a","street":"Tööstuse tänav","unit":"","city":"\"Karksi vald","district":"Karksi-Nuia linn\"","region":"Karksi vald","postcode":"Viljandi maakond"},
{"lon":"25.3440772","lat":"58.1227106","number":"6","street":"Veski tänav","unit":"","city":"\"Abja vald","district":"Abja-Paluoja linn\"","region":"Abja vald","postcode":"Viljandi maakond"},
{"lon":"25.4760291","lat":"58.5338034","number":"1","street":"Sõpruse tänav","unit":"","city":"\"Suure-Jaani vald","district":"Nuutre küla\"","region":"Suure-Jaani vald","postcode":"Viljandi maakond"},
{"lon":"25.558132","lat":"58.0980533","number":"2","street":"Niine tänav","unit":"","city":"\"Karksi vald","district":"Karksi-Nuia linn\"","region":"Karksi vald","postcode":"Viljandi maakond"},
{"lon":"25.4674655","lat":"58.5358263","number":"8","street":"Tallinna tänav","unit":"","city":"\"Suure-Jaani vald","district":"Suure-Jaani linn\"","region":"Suure-Jaani vald","postcode":"Viljandi maakond"},
{"lon":"25.4724965","lat":"58.5362797","number":"7a","street":"Jaama tänav","unit":"","city":"\"Suure-Jaani vald","district":"Suure-Jaani linn\"","region":"Suure-Jaani vald","postcode":"Viljandi maakond"},
{"lon":"25.5157271","lat":"58.482116","number":"8","street":"Õuna tänav","unit":"","city":"\"Suure-Jaani vald","district":"Sürgavere küla\"","region":"Suure-Jaani vald","postcode":"Viljandi maakond"},
{"lon":"25.5488982","lat":"58.0958447","number":"8","street":"Arumäe tänav","unit":"","city":"\"Karksi vald","district":"Karksi-Nuia linn\"","region":"Karksi vald","postcode":"Viljandi maakond"},
{"lon":"25.4785961","lat":"58.5373754","number":"20","street":"Lembitu puiestee","unit":"","city":"\"Suure-Jaani vald","district":"Suure-Jaani linn\"","region":"Suure-Jaani vald","postcode":"Viljandi maakond"},
{"lon":"25.3400292","lat":"58.1245499","number":"75","street":"Pärnu maantee","unit":"","city":"\"Abja vald","district":"Abja-Paluoja linn\"","region":"Abja vald","postcode":"Viljandi maakond"},
{"lon":"25.5595829","lat":"58.0971223","number":"10","street":"Lilli tee","unit":"","city":"\"Karksi vald","district":"Karksi-Nuia linn\"","region":"Karksi vald","postcode":"Viljandi maakond"},
{"lon":"25.3625665","lat":"58.1264234","number":"7","street":"Abja tee","unit":"","city":"\"Abja vald","district":"Abja-Paluoja linn\"","region":"Abja vald","postcode":"Viljandi maakond"},
{"lon":"25.5403074","lat":"58.1041581","number":"4","street":"Väike tänav","unit":"","city":"\"Karksi vald","district":"Karksi-Nuia linn\"","region":"Karksi vald","postcode":"Viljandi maakond"},
{"lon":"27.4213673","lat":"59.3612407","number":"7a","street":"Vaarika tänav","unit":"","city":"\"Jõhvi vald","district":"Jõhvi linn\"","region":"Jõhvi vald","postcode":"Ida-Viru maakond"},
{"lon":"27.4080455","lat":"59.3521689","number":"6","street":"Kaasiku tänav","unit":"","city":"\"Jõhvi vald","district":"Jõhvi linn\"","region":"Jõhvi vald","postcode":"Ida-Viru maakond"},
{"lon":"27.4074077","lat":"59.3645446","number":"4","street":"Loode tänav","unit":"","city":"\"Jõhvi vald","district":"Jõhvi linn\"","region":"Jõhvi vald","postcode":"Ida-Viru maakond"},