{"lon":"-101.9880964","lat":"22.2708702","number":"212","street":"FRANCISCO VILLA","unit":"","city":"LORETO","district":"","region":"","postcode":"98830"},
{"lon":"-103.4589381","lat":"21.4625967","number":"9","street":"GUADALUPE VICTORIA","unit":"","city":"TEÚL DE GONZÁLEZ ORTEGA","district":"","region":"","postcode":"99800"},
{"lon":"-103.1422222","lat":"21.1063889","number":"0","street":"JESÚS MARÍA PALMAREJO","unit":"","city":"MOYAHUA DE ESTRADA","district":"","region":"","postcode":"99998"},
{"lon":"-102.9788998","lat":"21.645131","number":"1317","street":"DEL PARQUE","unit":"","city":"JALPA","district":"","region":"","postcode":"99601"},
{"lon":"-102.8505928","lat":"21.3608374","number":"57","street":"PORFIRIO DÍAZ","unit":"","city":"NOCHISTLÁN DE MEJÍA","district":"","region":"","postcode":"99900"},
{"lon":"-102.711756","lat":"22.9465972","number":"702","street":"PROFESOR JOSÉ REYES PONIENTE","unit":"","city":"CALERA","district":"","region":"","postcode":"98500"},
{"lon":"-102.5119768","lat":"22.7517093","number":"128","street":"5 DE MAYO","unit":"","city":"GUADALUPE","district":"","region":"","postcode":"98613"},
{"lon":"-102.5710487","lat":"22.7881872","number":"502","street":"HORACIO DE LA PEÑA","unit":"","city":"ZACATECAS","district":"","region":"","postcode":"98020"},
{"lon":"-102.5710443","lat":"22.7717708","number":"520","street":"VENUSTIANO CARRANZA","unit":"","city":"ZACATECAS","district":"","region":"","postcode":"98000"},
{"lon":"-102.5821276","lat":"22.7669184","number":"112","street":"SAN MARCOS","unit":"","city":"ZACATECAS","district":"","region":"","postcode":"98050"},
{"lon":"-102.5081739","lat":"22.7275376","number":"1","street":"NINGUNO","unit":"","city":"GUADALUPE","district":"","region":"","postcode":"98600"},
{"lon":"-102.9111844","lat":"21.8648459","number":"0","street":"SANTOS DEGOLLADO","unit":"","city":"TABASCO","district":"","region":"","postcode":"99631"},
{"lon":"-102.8433439","lat":"21.365961","number":"55","street":"JUÁREZ","unit":"","city":"NOCHISTLÁN DE MEJÍA","district":"","region":"","postcode":"99900"},
{"lon":"-103.459057","lat":"21.4621802","number":"9","street":"GUADALUPE VICTORIA","unit":"","city":"TEÚL DE GONZÁLEZ ORTEGA","district":"","region":"","postcode":"99800"},
{"lon":"-103.8471417","lat":"22.5711228","number":"0","street":"18 DE MARZO","unit":"","city":"VALPARAÍSO","district":"","region":"","postcode":"99250"},
{"lon":"-103.4590598","lat":"21.4621703","number":"9","street":"GUADALUPE VICTORIA","unit":"","city":"TEÚL DE GONZÁLEZ ORTEGA","district":"","region":"","postcode":"99800"},
{"lon":"-103.5698962","lat":"22.7763693","number":"66","street":"NINGUNO","unit":"","city":"VALPARAÍSO","district":"","region":"","postcode":"99200"},
{"lon":"-103.1186251","lat":"23.6746121","number":"0","street":"DURANGO","unit":"","city":"SAIN ALTO","district":"","region":"","postcode":"98400"},
{"lon":"-103.4590569","lat":"21.4621805","number":"9","street":"GUADALUPE VICTORIA","unit":"","city":"TEÚL DE GONZÁLEZ ORTEGA","district":"","region":"","postcode":"99800"},
{"lon":"-102.6877712","lat":"22.956302","number":"839","street":"NINGUNO","unit":"","city":"CALERA","district":"","region":"","postcode":"98500"},
{"lon":"-102.7009308","lat":"22.9486172","number":"103","street":"NINGUNO","unit":"","city":"CALERA","district":"","region":"","postcode":"98500"},
{"lon":"-103.4529884","lat":"24.2865983","number":"2","street":"ALLENDE","unit":"","city":"MIGUEL AUZA","district":"","region":"","postcode":"98330"},
{"lon":"-103.3231768","lat":"21.6706854","number":"5","street":"GUADALUPE VICTORIA","unit":"","city":"TEPECHITLÁN","district":"","region":"","postcode":"99750"},
{"lon":"-103.0085162","lat":"23.276393","number":"0","street":"IGNACIO ZARAGOZA","unit":"","city":"FRESNILLO","district":"","region":"","postcode":"99189"},
{"lon":"-101.914384","lat":"22.5149169","number":"0","street":"HIDALGO","unit":"","city":"VILLA GONZÁLEZ ORTEGA","district":"","region":"","postcode":"98840"},
{"lon":"-103.6441664","lat":"23.6395743","number":"5","street":"LAS PLAYAS","unit":"","city":"SOMBRERETE","district":"","region":"","postcode":"99100"},
{"lon":"-103.451473","lat":"24.2868386","number":"1","street":"MORELOS","unit":"","city":"MIGUEL AUZA","district":"","region":"","postcode":"98330"},
{"lon":"-103.1136111","lat":"22.9277778","number":"5","street":"BARRIO EL MIRADOR","unit":"","city":"FRESNILLO","district":"","region":"","postcode":"99190"},
{"lon":"-103.0000704","lat":"22.2589654","number":"63","street":"MELCHOR OCAMPO","unit":"","city":"VILLANUEVA","district":"","region":"","postcode":"99500"},
{"lon":"-102.9965891","lat":"22.2592679","number":"65","street":"MECHOR OCAMPO","unit":"","city":"VILLANUEVA","district":"","region":"","postcode":"99500"},
{"lon":"-103.4590598","lat":"21.4621703","number":"9","street":"GUADALUPE VICTORIA","unit":"","city":"TEÚL DE GONZÁLEZ ORTEGA","district":"","region":"","postcode":"99800"},
{"lon":"-103.4494939","lat":"24.2942682","number":"1","street":"5 DE FEBRERO","unit":"","city":"MIGUEL AUZA","district":"","region":"","postcode":"98330"},
{"lon":"-103.4482821","lat":"24.2952964","number":"15","street":"5 DE FEBRERO","unit":"","city":"MIGUEL AUZA","district":"","region":"","postcode":"98330"},
{"lon":"-103.4616667","lat":"22.9888889","number":"0","street":"NINGUNO","unit":"","city":"VALPARAÍSO","district":"","region":"","postcode":"99200"},
{"lon":"-102.9160078","lat":"22.3734572","number":"0","street":"FELIPE ANGELES","unit":"","city":"VILLANUEVA","district":"","region":"","postcode":"0"},
{"lon":"-103.5699035","lat":"22.7763753","number":"66","street":"NINGUNO","unit":"","city":"VALPARAÍSO","district":"","region":"","postcode":"99200"},
{"lon":"-103.2192443","lat":"23.1750802","number":"26","street":"PLAYA AZUL","unit":"","city":"FRESNILLO","district":"","region":"","postcode":"99000"},
{"lon":"-103.2184055","lat":"23.1761274","number":"16","street":"LOPEZ MATEOS","unit":"","city":"FRESNILLO","district":"","region":"","postcode":"99000"},
{"lon":"-103.2171939","lat":"23.1726448","number":"0","street":"1 DE MAYO","unit":"","city":"FRESNILLO","district":"","region":"","postcode":"99000"},
{"lon":"-103.2170164","lat":"23.1759358","number":"0","street":"LOPEZ MATEOS","unit":"","city":"FRESNILLO","district":"","region":"","postcode":"99000"},
{"lon":"-103.2156651","lat":"23.1776426","number":"440","street":"ALAMO","unit":"","city":"FRESNILLO","district":"","region":"","postcode":"99000"},
{"lon":"-103.1334272","lat":"21.0814541","number":"0","street":"NINGUNO","unit":"","city":"MOYAHUA DE ESTRADA","district":"","region":"","postcode":"99998"},
{"lon":"-103.1336609","lat":"21.0799425","number":"17","street":"FRANCISCO VILLA","unit":"","city":"MOYAHUA DE ESTRADA","district":"","region":"","postcode":"99998"},
{"lon":"-103.1335194","lat":"21.0807179","number":"22","street":"NINGUNO","unit":"","city":"MOYAHUA DE ESTRADA","district":"","region":"","postcode":"99998"},
{"lon":"-103.4059966","lat":"21.5104543","number":"21","street":"NINGUNO","unit":"","city":"SANTA MARÍA DE LA PAZ","district":"","region":"","postcode":"99720"},
{"lon":"-103.4061275","lat":"21.5101663","number":"25","street":"ABASOLO","unit":"","city":"SANTA MARÍA DE LA PAZ","district":"","region":"","postcode":"99720"},
{"lon":"-103.4061988","lat":"21.5100967","number":"29","street":"ABASOLO","unit":"","city":"SANTA MARÍA DE LA PAZ","district":"","region":"","postcode":"99720"},
{"lon":"-103.8478982","lat":"22.5731133","number":"0","street":"PRESA SAN ANTONIO DE PADUA","unit":"","city":"VALPARAÍSO","district":"","region":"","postcode":"99250"},
{"lon":"-103.4590085","lat":"21.4623499","number":"8","street":"GUADALUPE VICTORIA","unit":"","city":"TEÚL DE GONZÁLEZ ORTEGA","district":"","region":"","postcode":"99800"},
{"lon":"-103.4589842","lat":"21.4624351","number":"9","street":"GUADALUPE VICTORIA","unit":"","city":"TEÚL DE GONZÁLEZ ORTEGA","district":"","region":"","postcode":"99800"},
{"lon":"-103.458966","lat":"21.4624991","number":"9","street":"GUADALUPE VICTORIA","unit":"","city":"TEÚL DE GONZÁLEZ ORTEGA","district":"","region":"","postcode":"99800"},
{"lon":"-103.4590486","lat":"21.4622096","number":"9","street":"GUADALUPE VICTORIA","unit":"","city":"TEÚL DE GONZÁLEZ ORTEGA","district":"","region":"","postcode":"99800"},
{"lon":"-103.4059274","lat":"21.5107479","number":"32","street":"ABASOLO","unit":"","city":"SANTA MARÍA DE LA PAZ","district":"","region":"","postcode":"99720"},
{"lon":"-103.4060944","lat":"21.510225","number":"34","street":"ABASOLO","unit":"","city":"SANTA MARÍA DE LA PAZ","district":"","region":"","postcode":"99720"},
{"lon":"-103.4059629","lat":"21.5106182","number":"36","street":"ABASOLO","unit":"","city":"SANTA MARÍA DE LA PAZ","district":"","region":"","postcode":"99720"},
{"lon":"-103.1136111","lat":"22.9277778","number":"5","street":"VENUSTIANO CARRANZA","unit":"","city":"FRESNILLO","district":"","region":"","postcode":"99190"},
{"lon":"-103.1132571","lat":"22.9254375","number":"10","street":"EMILIANO ZAPATA","unit":"","city":"FRESNILLO","district":"","region":"","postcode":"99190"},
{"lon":"-102.9661111","lat":"22.8225","number":"9","street":"EMILIANO ZAPATA","unit":"","city":"JEREZ","district":"","region":"","postcode":"99000"},
{"lon":"-102.9661111","lat":"22.8225","number":"3","street":"NINGUNO","unit":"","city":"JEREZ","district":"","region":"","postcode":"99000"},
{"lon":"-103.2117419","lat":"23.1657317","number":"5","street":"LUIS MOYA","unit":"","city":"FRESNILLO","district":"","region":"","postcode":"0"},
{"lon":"-103.2106788","lat":"23.1653038","number":"7","street":"LUIS MOYA","unit":"","city":"FRESNILLO","district":"","region":"","postcode":"99000"},
{"lon":"-103.2102973","lat":"23.1654147","number":"22","street":"LUIS MOYA","unit":"","city":"FRESNILLO","district":"","region":"","postcode":"99000"},
{"lon":"-103.2099269","lat":"23.1655039","number":"16","street":"LUIS MOYA","unit":"","city":"FRESNILLO","district":"","region":"","postcode":"99000"},
{"lon":"-103.2106402","lat":"23.1648591","number":"12","street":"LUIS MOYA","unit":"","city":"FRESNILLO","district":"","region":"","postcode":"99000"},
{"lon":"-103.2096612","lat":"23.1655679","number":"22","street":"LUIS MOYA","unit":"","city":"FRESNILLO","district":"","region":"","postcode":"99000"},
{"lon":"-103.2110179","lat":"23.1651274","number":"0","street":"LUIS MOYA","unit":"","city":"FRESNILLO","district":"","region":"","postcode":"99000"},
{"lon":"-102.9495646","lat":"22.8378876","number":"9","street":"FELIPE ANGUELES","unit":"","city":"JEREZ","district":"","region":"","postcode":"99440"},
{"lon":"-102.9492077","lat":"22.836119","number":"9","street":"PLAZA PRINCIPAL","unit":"","city":"JEREZ","district":"","region":"","postcode":"99440"},
{"lon":"-102.948566","lat":"22.8350981","number":"1","street":"DEL REPOSO","unit":"","city":"JEREZ","district":"","region":"","postcode":"99440"},
{"lon":"-102.950193","lat":"22.8378543","number":"2","street":"ENTRADA PRINCIPAL","unit":"","city":"JEREZ","district":"","region":"","postcode":"99440"},
{"lon":"-102.9492347","lat":"22.8388574","number":"13","street":"FELIPE ANGELES","unit":"","city":"JEREZ","district":"","region":"","postcode":"99440"},
{"lon":"-103.5509924","lat":"22.3044443","number":"12","street":"NINGUNO","unit":"","city":"MONTE ESCOBEDO","district":"","region":"","postcode":"99400"},
{"lon":"-102.6576715","lat":"21.5052104","number":"22","street":"LOPEZ VELARDE","unit":"","city":"APULCO","district":"","region":"","postcode":"99930"},
{"lon":"-103.3430556","lat":"21.6538889","number":"2","street":"HIDALGO","unit":"","city":"TEPECHITLÁN","district":"","region":"","postcode":"99750"},
{"lon":"-103.3430556","lat":"21.6538889","number":"6","street":"REAL","unit":"","city":"TEPECHITLÁN","district":"","region":"","postcode":"99750"},
{"lon":"-103.8158333","lat":"22.5794444","number":"0","street":"DOMICILIO NINGUNO SAN ANTONIO DE PADUA","unit":"","city":"VALPARAÍSO","district":"","region":"","postcode":"99250"},
{"lon":"-103.8158333","lat":"22.5794444","number":"0","street":"EL TERRERO","unit":"","city":"VALPARAÍSO","district":"","region":"","postcode":"99250"},
{"lon":"-103.8158333","lat":"22.5794444","number":"0","street":"EL TERRERO","unit":"","city":"VALPARAÍSO","district":"","region":"","postcode":"99250"},
{"lon":"-103.8522133","lat":"22.5752584","number":"7","street":"LOPEZ MATEOS","unit":"","city":"VALPARAÍSO","district":"","region":"","postcode":"99250"},
{"lon":"-103.8464707","lat":"22.5708252","number":"0","street":"10 DE MAYO","unit":"","city":"VALPARAÍSO","district":"","region":"","postcode":"99250"},
{"lon":"-103.2170437","lat":"23.1748219","number":"940","street":"1 DE MAYO","unit":"","city":"FRESNILLO","district":"","region":"","postcode":"99000"},
{"lon":"-103.2165288","lat":"23.1765649","number":"10","street":"ALAMO","unit":"","city":"FRESNILLO","district":"","region":"","postcode":"99000"},
{"lon":"-103.2168759","lat":"23.1759323","number":"0","street":"LOPEZ MATEOS","unit":"","city":"FRESNILLO","district":"","region":"","postcode":"99000"},
{"lon":"-103.2170427","lat":"23.1758609","number":"1701","street":"LOPEZ MATEOS","unit":"","city":"FRESNILLO","district":"","region":"","postcode":"99000"},
{"lon":"-103.2189775","lat":"23.1721449","number":"20","street":"EL COYOTE","unit":"","city":"FRESNILLO","district":"","region":"","postcode":"99000"},
{"lon":"-102.9069737","lat":"21.6323466","number":"0","street":"10 DE MARZO","unit":"","city":"JALPA","district":"","region":"","postcode":"000"},
{"lon":"-102.9069998","lat":"21.632228","number":"24","street":"10 DE MARZO","unit":"","city":"JALPA","district":"","region":"","postcode":"99600"},
{"lon":"-103.4590535","lat":"21.4621924","number":"9","street":"GUADALUPE VICTORIA","unit":"","city":"TEÚL DE GONZÁLEZ ORTEGA","district":"","region":"","postcode":"99800"},
{"lon":"-103.4590589","lat":"21.4621735","number":"9","street":"GUADALUPE VICTORIA","unit":"","city":"TEÚL DE GONZÁLEZ ORTEGA","district":"","region":"","postcode":"99800"},
{"lon":"-103.4560491","lat":"21.4679095","number":"23","street":"LOPEZ MATEOS","unit":"","city":"TEÚL DE GONZÁLEZ ORTEGA","district":"","region":"","postcode":"99800"},
{"lon":"-103.4590495","lat":"21.4622065","number":"9","street":"GUADALUPE VICTORIA","unit":"","city":"TEÚL DE GONZÁLEZ ORTEGA","district":"","region":"","postcode":"99800"},
{"lon":"-103.4591186","lat":"21.4619642","number":"9","street":"GUADALUPE VICTORIA","unit":"","city":"TEÚL DE GONZÁLEZ ORTEGA","district":"","region":"","postcode":"99800"},
{"lon":"-103.4590494","lat":"21.4622067","number":"9","street":"GUADALUPE VICTORIA","unit":"","city":"TEÚL DE GONZÁLEZ ORTEGA","district":"","region":"","postcode":"99800"},
{"lon":"-103.3239345","lat":"21.6647698","number":"1","street":"PROFESORA MARÍA BAUTISTA LARA","unit":"","city":"TEPECHITLÁN","district":"","region":"","postcode":"99750"},
{"lon":"-103.3323284","lat":"21.6521165","number":"35","street":"BENJAMÍN CARLOS","unit":"","city":"TEPECHITLÁN","district":"","region":"","postcode":"99750"},
{"lon":"-103.3430556","lat":"21.6538889","number":"2","street":"REFORMA","unit":"","city":"TEPECHITLÁN","district":"","region":"","postcode":"99750"},
{"lon":"-103.3430556","lat":"21.6538889","number":"3","street":"REAL","unit":"","city":"TEPECHITLÁN","district":"","region":"","postcode":"99750"},
{"lon":"-103.3430556","lat":"21.6538889","number":"1","street":"EXCAME","unit":"","city":"TEPECHITLÁN","district":"","region":"","postcode":"99750"},
{"lon":"-103.3430556","lat":"21.6538889","number":"3","street":"MORELOS","unit":"","city":"TEPECHITLÁN","district":"","region":"","postcode":"99750"},
{"lon":"-103.3430556","lat":"21.6538889","number":"5","street":"NACIONAL","unit":"","city":"TEPECHITLÁN","district":"","region":"","postcode":"99750"},
{"lon":"-103.3430556","lat":"21.6538889","number":"2","street":"LA LOMA","unit":"","city":"TEPECHITLÁN","district":"","region":"","postcode":"99750"},
{"lon":"-103.3430556","lat":"21.6538889","number":"30","street":"VICENTE GUERRERO","unit":"","city":"TEPECHITLÁN","district":"","region":"","postcode":"99750"},
{"lon":"-103.3430556","lat":"21.6538889","number":"29","street":"REAL","unit":"","city":"TEPECHITLÁN","district":"","region":"","postcode":"99750"},
{"lon":"-103.3430556","lat":"21.6538889","number":"9","street":"JUAREZ PONIENTE","unit":"","city":"TEPECHITLÁN","district":"","region":"","postcode":"99750"},
{"lon":"-103.845689","lat":"22.5689712","number":"0","street":"10 DE MAYO","unit":"","city":"VALPARAÍSO","district":"","region":"","postcode":"99250"},
{"lon":"-103.846648","lat":"22.5713071","number":"0","street":"BENITO JUAREZ","unit":"","city":"VALPARAÍSO","district":"","region":"","postcode":"99250"},
{"lon":"-103.459054","lat":"21.4621905","number":"9","street":"GUADALUPE VICTORIA","unit":"","city":"TEÚL DE GONZÁLEZ ORTEGA","district":"","region":"","postcode":"99800"},
{"lon":"-103.459054","lat":"21.4621905","number":"9","street":"GUADALUPE VICTORIA","unit":"","city":"TEÚL DE GONZÁLEZ ORTEGA","district":"","region":"","postcode":"99800"},
{"lon":"-103.4590547","lat":"21.4621883","number":"9","street":"GUADALUPE VICTORIA","unit":"","city":"TEÚL DE GONZÁLEZ ORTEGA","district":"","region":"","postcode":"99800"},
{"lon":"-103.4590555","lat":"21.4621854","number":"9","street":"GUADALUPE VICTORIA","unit":"","city":"TEÚL DE GONZÁLEZ ORTEGA","district":"","region":"","postcode":"99800"},
{"lon":"-101.8324741","lat":"22.060102","number":"3","street":"ALAMEDA","unit":"","city":"VILLA GARCÍA","district":"","region":"","postcode":"98918"},
{"lon":"-102.8772762","lat":"22.3550378","number":"1","street":"DEL TRÁNSITO 2","unit":"","city":"VILLANUEVA","district":"","region":"","postcode":"99500"},
{"lon":"-103.0000088","lat":"22.258892","number":"7","street":"BENITO JUARES","unit":"","city":"VILLANUEVA","district":"","region":"","postcode":"99500"},
{"lon":"-103.8492366","lat":"22.5744012","number":"0","street":"5 DE MAYO","unit":"","city":"VALPARAÍSO","district":"","region":"","postcode":"99250"},
{"lon":"-103.847128","lat":"22.5713719","number":"247","street":"18 DE MARZO","unit":"","city":"VALPARAÍSO","district":"","region":"","postcode":"99250"},
{"lon":"-103.8414387","lat":"22.570513","number":"0","street":"BENITO JUAREZ","unit":"","city":"VALPARAÍSO","district":"","region":"","postcode":"99250"},
{"lon":"-103.5700725","lat":"22.7765128","number":"71","street":"NINGUNO","unit":"","city":"VALPARAÍSO","district":"","region":"","postcode":"99254"},
{"lon":"-103.4219444","lat":"22.7913889","number":"22","street":"MORELOS","unit":"","city":"VALPARAÍSO","district":"","region":"","postcode":"99254"},
{"lon":"-103.4219444","lat":"22.7913889","number":"29","street":"MORELOS","unit":"","city":"VALPARAÍSO","district":"","region":"","postcode":"99200"},
{"lon":"-103.5701843","lat":"22.7766038","number":"0","street":"NINGUNO","unit":"","city":"VALPARAÍSO","district":"","region":"","postcode":"99253"},
{"lon":"-103.090187","lat":"21.5047216","number":"32","street":"SANTA ELENA","unit":"","city":"APOZOL","district":"","region":"","postcode":"99949"},
{"lon":"-103.0902509","lat":"21.5048234","number":"32","street":"BENITO JUAREZ","unit":"","city":"APOZOL","district":"","region":"","postcode":"99949"},
{"lon":"-102.8666944","lat":"22.0971485","number":"53","street":"5 DE FEBRERO","unit":"","city":"VILLANUEVA","district":"","region":"","postcode":"99560"},
{"lon":"-102.8676484","lat":"22.098372","number":"34","street":"MATAMOROS","unit":"","city":"VILLANUEVA","district":"","region":"","postcode":"99560"},
{"lon":"-102.870324","lat":"22.0971527","number":"22","street":"CAZADORES","unit":"","city":"VILLANUEVA","district":"","region":"","postcode":"99560"},
{"lon":"-102.8684231","lat":"22.0939951","number":"21","street":"LAGO CHAPALA","unit":"","city":"VILLANUEVA","district":"","region":"","postcode":"99560"},
{"lon":"-102.8664567","lat":"22.0976533","number":"0","street":"5 DE FEBRERO","unit":"","city":"VILLANUEVA","district":"","region":"","postcode":"99560"},
{"lon":"-103.4060773","lat":"21.5102553","number":"15","street":"ABASOLO","unit":"","city":"SANTA MARÍA DE LA PAZ","district":"","region":"","postcode":"99720"},
{"lon":"-103.1271228","lat":"23.6723518","number":"35","street":"MIIGUEL HIDALGO","unit":"","city":"SAIN ALTO","district":"","region":"","postcode":"99132"},
{"lon":"-103.1185756","lat":"23.672573","number":"0","street":"ZACATECAS","unit":"","city":"SAIN ALTO","district":"","region":"","postcode":"99132"},
{"lon":"-103.1186711","lat":"23.6725873","number":"0","street":"ZACATECAS","unit":"","city":"SAIN ALTO","district":"","region":"","postcode":"99132"},
{"lon":"-102.8772847","lat":"22.355099","number":"33","street":"DEL TRÁNSITO 2","unit":"","city":"VILLANUEVA","district":"","region":"","postcode":"99500"},
{"lon":"-102.8754155","lat":"22.3572848","number":"8","street":"LINDA VISTA","unit":"","city":"VILLANUEVA","district":"","region":"","postcode":"99500"},
{"lon":"-102.7908627","lat":"22.5453392","number":"10","street":"ALDAMA","unit":"","city":"VILLANUEVA","district":"","region":"","postcode":"99520"},
{"lon":"-102.7923531","lat":"22.547152","number":"0","street":"18 DE MARZO","unit":"","city":"VILLANUEVA","district":"","region":"","postcode":"99520"},
{"lon":"-103.0902726","lat":"21.504858","number":"32","street":"BENITO JUAREZ","unit":"","city":"APOZOL","district":"","region":"","postcode":"99949"},
{"lon":"-103.0904147","lat":"21.5050841","number":"28","street":"BENITO JUAREZ","unit":"","city":"APOZOL","district":"","region":"","postcode":"99949"},
{"lon":"-103.0901723","lat":"21.5046982","number":"34","street":"BENITO JUAREZ","unit":"","city":"APOZOL","district":"","region":"","postcode":"99949"},
{"lon":"-103.1270208","lat":"23.6702883","number":"0","street":"LUIS DONALDO COLOSIO","unit":"","city":"SAIN ALTO","district":"","region":"","postcode":"99033"},
{"lon":"-103.1236465","lat":"23.6738203","number":"0","street":"NUEVO LEON","unit":"","city":"SAIN ALTO","district":"","region":"","postcode":"98400"},
{"lon":"-103.1272038","lat":"23.6719191","number":"0","street":"GUANAJUATO","unit":"","city":"SAIN ALTO","district":"","region":"","postcode":"98400"},
{"lon":"-103.1271618","lat":"23.6721436","number":"3","street":"MIGUEL HIDALGO","unit":"","city":"SAIN ALTO","district":"","region":"","postcode":"98400"},
{"lon":"-103.1241561","lat":"23.6745672","number":"9","street":"DURANGO","unit":"","city":"SAIN ALTO","district":"","region":"","postcode":"99140"},
{"lon":"-103.1184508","lat":"23.6725542","number":"0","street":"ZACATECAS","unit":"","city":"SAIN ALTO","district":"","region":"","postcode":"98400"},
{"lon":"-103.118408","lat":"23.6725478","number":"130","street":"ZACATECAS","unit":"","city":"SAIN ALTO","district":"","region":"","postcode":"98400"},
{"lon":"-103.1222746","lat":"23.6745022","number":"17","street":"DURANGO","unit":"","city":"SAIN ALTO","district":"","region":"","postcode":"99140"},
{"lon":"-103.1184849","lat":"23.6732348","number":"214","street":"ZACATECAS","unit":"","city":"SAIN ALTO","district":"","region":"","postcode":"98400"},
{"lon":"-103.1212594","lat":"23.6747663","number":"3","street":"COAHUILA","unit":"","city":"SAIN ALTO","district":"","region":"","postcode":"98400"},
{"lon":"-103.1237278","lat":"23.672707","number":"0","street":"NUEVO LEON","unit":"","city":"SAIN ALTO","district":"","region":"","postcode":"99140"},
{"lon":"-103.1207533","lat":"23.6713283","number":"45","street":"NAYARIT","unit":"","city":"SAIN ALTO","district":"","region":"","postcode":"98400"},
{"lon":"-102.8723753","lat":"22.3530833","number":"11","street":"SOR JUANA INÉS DE LA CRUZ","unit":"","city":"VILLANUEVA","district":"","region":"","postcode":"99545"},
{"lon":"-102.8821886","lat":"22.3545144","number":"0","street":"PORVENIR","unit":"","city":"VILLANUEVA","district":"","region":"","postcode":"99500"},
{"lon":"-102.884501","lat":"22.3474834","number":"13","street":"MORELOS","unit":"","city":"VILLANUEVA","district":"","region":"","postcode":"99500"},
{"lon":"-102.8861354","lat":"22.3588696","number":"5","street":"MIGUEL HIDALGO","unit":"","city":"VILLANUEVA","district":"","region":"","postcode":"99500"},
{"lon":"-102.8861335","lat":"22.3588722","number":"5","street":"MIGUEL HIDALGO","unit":"","city":"VILLANUEVA","district":"","region":"","postcode":"99500"},
{"lon":"-102.874563","lat":"22.3538886","number":"0","street":"NINGUNO","unit":"","city":"VILLANUEVA","district":"","region":"","postcode":"99500"},
{"lon":"-102.8664557","lat":"22.0975666","number":"52","street":"ARROYO DE LAS ÁNIMAS","unit":"","city":"VILLANUEVA","district":"","region":"","postcode":"99560"},
{"lon":"-102.9708333","lat":"22.1944444","number":"54","street":"MELCHOR OCAMPO","unit":"","city":"VILLANUEVA","district":"","region":"","postcode":"99500"},
{"lon":"-103.4059647","lat":"21.5106117","number":"36","street":"ABASOLO","unit":"","city":"SANTA MARÍA DE LA PAZ","district":"","region":"","postcode":"99720"},
{"lon":"-102.8086111","lat":"22.3455556","number":"0","street":"NINGUNO","unit":"","city":"VILLANUEVA","district":"","region":"","postcode":"99500"},
{"lon":"-102.8086111","lat":"22.3455556","number":"101","street":"RAFAEL RAMÍREZ CASTAÑEDA","unit":"","city":"VILLANUEVA","district":"","region":"","postcode":"99500"},
{"lon":"-102.8086111","lat":"22.3455556","number":"105","street":"JOSE SANTOS VALDEZ","unit":"","city":"VILLANUEVA","district":"","region":"","postcode":"99595"},
{"lon":"-103.9997222","lat":"22.8472222","number":"98","street":"FRESNILLO","unit":"","city":"VALPARAÍSO","district":"","region":"","postcode":"99254"},
{"lon":"-103.9997222","lat":"22.8472222","number":"100","street":"FRESNILLO","unit":"","city":"VALPARAÍSO","district":"","region":"","postcode":"99254"},
{"lon":"-102.8419473","lat":"21.3773231","number":"4","street":"CORONEL JESÚS MEJÍA JÁUREGUI","unit":"","city":"NOCHISTLÁN DE MEJÍA","district":"","region":"","postcode":"99900"},
{"lon":"-103.1261222","lat":"23.0273211","number":"10","street":"20 DE NOVIEMBRE","unit":"","city":"FRESNILLO","district":"","region":"","postcode":"99000"},
{"lon":"-102.7739895","lat":"22.4876837","number":"0","street":"LAS FLORES","unit":"","city":"VILLANUEVA","district":"","region":"","postcode":"00000"},
{"lon":"-102.8086111","lat":"22.3455556","number":"103","street":"MARÍA R MURILLO","unit":"","city":"VILLANUEVA","district":"","region":"","postcode":"99000"},
{"lon":"-103.2113889","lat":"21.2336111","number":"12","street":"MOYAHUA-HUEJOTITLAN","unit":"","city":"MOYAHUA DE ESTRADA","district":"","region":"","postcode":"99980"},
{"lon":"-103.1269015","lat":"23.0272181","number":"18","street":"20 DE NOVIEMBRE","unit":"","city":"FRESNILLO","district":"","region":"","postcode":"99200"},
{"lon":"-103.5542175","lat":"22.3009543","number":"3","street":"SAFIRO","unit":"","city":"MONTE ESCOBEDO","district":"","region":"","postcode":"99400"},
{"lon":"-103.0921325","lat":"21.502744","number":"4","street":"BENITO JUAREZ","unit":"","city":"APOZOL","district":"","region":"","postcode":"99949"},
{"lon":"-103.4059614","lat":"21.5106239","number":"36","street":"ABASOLO","unit":"","city":"SANTA MARÍA DE LA PAZ","district":"","region":"","postcode":"99720"},
{"lon":"-103.6316436","lat":"23.6402461","number":"12","street":"FUNDIDORA","unit":"","city":"SOMBRERETE","district":"","region":"","postcode":"99100"},
{"lon":"-103.0000432","lat":"22.2589329","number":"54","street":"VICENTE GERRERO","unit":"","city":"VILLANUEVA","district":"","region":"","postcode":"99506"},
{"lon":"-102.8746341","lat":"22.3586164","number":"0","street":"ZARAGOZA","unit":"","city":"VILLANUEVA","district":"","region":"","postcode":"99500"},
{"lon":"-102.7750766","lat":"22.487078","number":"38","street":"LAS FLORES","unit":"","city":"VILLANUEVA","district":"","region":"","postcode":"99599"},
{"lon":"-103.8914402","lat":"23.4631228","number":"47","street":"NINGUNO","unit":"","city":"CHALCHIHUITES","district":"","region":"","postcode":"99260"},
{"lon":"-103.8919083","lat":"23.4631895","number":"65","street":"NINGUNO","unit":"","city":"CHALCHIHUITES","district":"","region":"","postcode":"99260"},
{"lon":"-103.3330556","lat":"21.6122222","number":"101","street":"PLAN LÁZARO CÁRDENAS","unit":"","city":"TEPECHITLÁN","district":"","region":"","postcode":"99750"},
{"lon":"-103.0901131","lat":"21.5046041","number":"26","street":"BENITO JUAREZ","unit":"","city":"APOZOL","district":"","region":"","postcode":"99949"},
{"lon":"-102.8745596","lat":"22.3584511","number":"38","street":"ZARAGOZA","unit":"","city":"VILLANUEVA","district":"","region":"","postcode":"99500"},
{"lon":"-103.3705729","lat":"22.8861282","number":"0","street":"LAZARO CARDENAS","unit":"","city":"VALPARAÍSO","district":"","region":"","postcode":"99230"},
{"lon":"-103.5814087","lat":"23.4698028","number":"2","street":"VICENTE GERRER0","unit":"","city":"SOMBRERETE","district":"","region":"","postcode":"99121"},
{"lon":"-103.5805556","lat":"23.4697222","number":"6","street":"SEGUNDA DE TEPEYAC","unit":"","city":"SOMBRERETE","district":"","region":"","postcode":"99100"},
{"lon":"-102.8694274","lat":"22.096663","number":"25","street":"19 DE MARZO","unit":"","city":"VILLANUEVA","district":"","region":"","postcode":"99560"},
{"lon":"-103.1269939","lat":"23.6698107","number":"39","street":"CHIAPAS","unit":"","city":"SAIN ALTO","district":"","region":"","postcode":"99140"},
{"lon":"-102.8670686","lat":"22.0976208","number":"25","street":"HÉROES NACOZARI","unit":"","city":"VILLANUEVA","district":"","region":"","postcode":"99560"},
{"lon":"-102.9461131","lat":"21.8951311","number":"0","street":"HUISCOLCO","unit":"","city":"TABASCO","district":"","region":"","postcode":"99630"},
{"lon":"-103.3042393","lat":"21.7696832","number":"6","street":"PÁNFILO NATERA","unit":"","city":"TLALTENANGO DE SÁNCHEZ ROMÁN","district":"","region":"","postcode":"99700"},
{"lon":"-103.2189858","lat":"23.172064","number":"18","street":"DEL COYOTE","unit":"","city":"FRESNILLO","district":"","region":"","postcode":"99000"},
{"lon":"-103.4590488","lat":"21.4622088","number":"9","street":"GUADALUPE VICTORIA","unit":"","city":"TEÚL DE GONZÁLEZ ORTEGA","district":"","region":"","postcode":"99800"},
{"lon":"-102.8581588","lat":"23.1971209","number":"0","street":"PLATEROS","unit":"","city":"FRESNILLO","district":"","region":"","postcode":"99059"},
{"lon":"-103.4557964","lat":"21.4633089","number":"0","street":"LIBRAMIENTO ORIENTE","unit":"","city":"TEÚL DE GONZÁLEZ ORTEGA","district":"","region":"","postcode":"99800"},
{"lon":"-103.3110141","lat":"21.7809473","number":"201","street":"NINGUNO","unit":"","city":"TLALTENANGO DE SÁNCHEZ ROMÁN","district":"","region":"","postcode":"99700"},
{"lon":"-102.5757846","lat":"22.7535887","number":"100","street":"NINGUNO","unit":"","city":"ZACATECAS","district":"","region":"","postcode":"98090"},
{"lon":"-101.4284679","lat":"24.6078536","number":"0","street":"A LAS HUERTAS","unit":"","city":"CONCEPCIÓN DEL ORO","district":"","region":"","postcode":"98200"},
{"lon":"-103.1578529","lat":"21.2637205","number":"0","street":"NINGUNO","unit":"","city":"MOYAHUA DE ESTRADA","district":"","region":"","postcode":"99980"},
{"lon":"-102.8814851","lat":"22.370941","number":"0","street":"SUAVE PATRIA","unit":"","city":"VILLANUEVA","district":"","region":"","postcode":"99542"},
{"lon":"-102.47","lat":"22.7525","number":"59","street":"PASEO DE BERNARDEZ","unit":"","city":"GUADALUPE","district":"","region":"","postcode":"98610"},
{"lon":"-102.5254537","lat":"22.7606104","number":"128","street":"MINA EL EDÉN","unit":"","city":"GUADALUPE","district":"","region":"","postcode":"98600"},
{"lon":"-103.1011887","lat":"22.615743","number":"29","street":"NINGUNO","unit":"","city":"SUSTICACÁN","district":"","region":"","postcode":"00000"},
{"lon":"-102.5756697","lat":"22.7818072","number":"0","street":"CERRO DEL GRILLO","unit":"","city":"ZACATECAS","district":"","region":"","postcode":"98050"},
{"lon":"-102.5859467","lat":"22.8377307","number":"0","street":"CERRO DE SAN ROBERTO","unit":"","city":"MORELOS","district":"","region":"","postcode":"98100"},
{"lon":"-102.9745176","lat":"21.6500693","number":"0","street":"NINGUNO","unit":"","city":"JALPA","district":"","region":"","postcode":"99601"},
{"lon":"-102.675005","lat":"22.919444","number":"0","street":"PANAMERICANA","unit":"","city":"CALERA","district":"","region":"","postcode":"98501"},
{"lon":"-103.7505556","lat":"23.6538889","number":"0","street":"SAN MARTÍN AL MINERAL DE SABINAS","unit":"","city":"SOMBRERETE","district":"","region":"","postcode":"99100"},
{"lon":"-102.555081","lat":"22.83034","number":"2","street":"TIRO GENERAL","unit":"","city":"VETAGRANDE","district":"","region":"","postcode":"98140"},
{"lon":"-103.2981939","lat":"21.7755809","number":"0","street":"DE LAS MORITAS","unit":"","city":"TLALTENANGO DE SÁNCHEZ ROMÁN","district":"","region":"","postcode":"99700"},
{"lon":"-103.3152149","lat":"21.7767673","number":"0","street":"JALAPA","unit":"","city":"TLALTENANGO DE SÁNCHEZ ROMÁN","district":"","region":"","postcode":"99700"},
{"lon":"-103.8735746","lat":"23.4845857","number":"117","street":"ARISTA","unit":"","city":"CHALCHIHUITES","district":"","region":"","postcode":"99260"},
{"lon":"-102.5615037","lat":"22.7707475","number":"115","street":"HERMANOS ESCOBAR","unit":"","city":"ZACATECAS","district":"","region":"","postcode":"98066"},
{"lon":"-102.5858074","lat":"22.7497267","number":"905","street":"CERRO DEL PADRE","unit":"","city":"ZACATECAS","district":"","region":"","postcode":"98085"},
{"lon":"-102.4998063","lat":"22.7533792","number":"0","street":"FUENTE DE LA MINERVA","unit":"","city":"GUADALUPE","district":"","region":"","postcode":"98740"},
{"lon":"-102.4222222","lat":"22.8505556","number":"0","street":"SANTA MÓNICA A POZO DE GAMBOA KILÓMETRO 16.5","unit":"","city":"VETAGRANDE","district":"","region":"","postcode":"98600"},
{"lon":"-102.889211","lat":"22.3497387","number":"0","street":"NINGUNO","unit":"","city":"VILLANUEVA","district":"","region":"","postcode":"99500"},
{"lon":"-102.5810182","lat":"22.7657324","number":"103","street":"ADOLFO LÓPEZ MATEOS","unit":"","city":"ZACATECAS","district":"","region":"","postcode":"98050"},
{"lon":"-102.3267852","lat":"22.6158127","number":"5","street":"GONZALEZ ORTEGA","unit":"","city":"OJOCALIENTE","district":"","region":"","postcode":"98700"},
{"lon":"-103.7580556","lat":"23.3822222","number":"0","street":"LA COLORADA","unit":"","city":"CHALCHIHUITES","district":"","region":"","postcode":"99260"},
{"lon":"-101.4405986","lat":"24.4783612","number":"0","street":"A MINA LA TINAJA","unit":"","city":"MAZAPIL","district":"","region":"","postcode":"98237"},
{"lon":"-101.4436111","lat":"21.9469444","number":"0","street":"EL MACHUCADO","unit":"","city":"PINOS","district":"","region":"","postcode":"98920"},
{"lon":"-102.5990229","lat":"22.7525501","number":"108","street":"DEL COBRE","unit":"","city":"ZACATECAS","district":"","region":"","postcode":"98087"},
{"lon":"-102.9052975","lat":"23.1084047","number":"0","street":"NINGUNO","unit":"","city":"FRESNILLO","district":"","region":"","postcode":"99000"},
{"lon":"-102.7177778","lat":"22.8480556","number":"0","street":"A FRANCISCO I MADERO","unit":"","city":"MORELOS","district":"","region":"","postcode":"98170"},
{"lon":"-102.1558333","lat":"22.4330556","number":"0","street":"CAMINO A LA MINA","unit":"","city":"OJOCALIENTE","district":"","region":"","postcode":"98725"},
{"lon":"-101.5745134","lat":"22.2997101","number":"5","street":"PARQUE JUÁREZ","unit":"","city":"PINOS","district":"","region":"","postcode":"98920"},
{"lon":"-101.4628504","lat":"24.6931477","number":"0","street":"NINGUNO","unit":"","city":"MAZAPIL","district":"","region":"","postcode":"98238"},
{"lon":"-103.3297732","lat":"21.6676685","number":"44","street":"SIMON BOLIVAR","unit":"","city":"TEPECHITLÁN","district":"","region":"","postcode":"99750"},
{"lon":"-102.6344444","lat":"22.7338889","number":"0","street":"SANJUANERO","unit":"","city":"ZACATECAS","district":"","region":"","postcode":"00000"},
{"lon":"-102.6344444","lat":"22.7338889","number":"0","street":"SANJUANERO","unit":"","city":"ZACATECAS","district":"","region":"","postcode":"00000"},
{"lon":"-102.6344444","lat":"22.7338889","number":"0","street":"SANJUANERO","unit":"","city":"ZACATECAS","district":"","region":"","postcode":"00000"},
{"lon":"-102.5936111","lat":"22.7352778","number":"0","street":"DOMICILIO NINGUNO DE LAS HIGUERAS","unit":"","city":"ZACATECAS","district":"","region":"","postcode":"98070"},
{"lon":"-102.3270748","lat":"22.6160578","number":"0","street":"CERRO EL PANDITO","unit":"","city":"OJOCALIENTE","district":"","region":"","postcode":"98700"},
{"lon":"-103.6303077","lat":"23.637835","number":"541","street":"SAN PEDRO","unit":"","city":"SOMBRERETE","district":"","region":"","postcode":"99100"},
{"lon":"-103.638919","lat":"23.6341611","number":"0","street":"INDEPENDENCIA","unit":"","city":"SOMBRERETE","district":"","region":"","postcode":"99100"},
{"lon":"-103.888618","lat":"23.475736","number":"117","street":"ARISTA","unit":"","city":"CHALCHIHUITES","district":"","region":"","postcode":"99260"},
{"lon":"-102.598943","lat":"22.752564","number":"108","street":"DEL COBRE","unit":"","city":"ZACATECAS","district":"","region":"","postcode":"98087"},
{"lon":"-102.5669444","lat":"22.6691667","number":"0","street":"DOMICILIO NINGUNO CERRO DEL CAÑÓN","unit":"","city":"GUADALUPE","district":"","region":"","postcode":"98600"},
{"lon":"-102.8840539","lat":"23.0807789","number":"102","street":"DEL MAGUEY","unit":"","city":"FRESNILLO","district":"","region":"","postcode":"99001"},
{"lon":"-102.8875872","lat":"23.0847016","number":"62","street":"CALLE FRANCISCO VILLA","unit":"","city":"FRESNILLO","district":"","region":"","postcode":"99150"},
{"lon":"-102.6344444","lat":"22.7338889","number":"4","street":"PICONES ZACATECAS","unit":"","city":"ZACATECAS","district":"","region":"","postcode":"98170"},
{"lon":"-102.5971003","lat":"22.7522315","number":"5","street":"PINO SUÁREZ","unit":"","city":"ZACATECAS","district":"","region":"","postcode":"98170"},
{"lon":"-102.6344444","lat":"22.7338889","number":"0","street":"DOMICILIO CONODICO CERRO EL SANJUANERO","unit":"","city":"ZACATECAS","district":"","region":"","postcode":"98087"},
{"lon":"-102.5936111","lat":"22.7352778","number":"0","street":"DOMICILIO NINGUNO LA HIGUERA","unit":"","city":"ZACATECAS","district":"","region":"","postcode":"98000"},
{"lon":"-102.5936111","lat":"22.7352778","number":"0","street":"DOMICILIO NINGUNO LA HIGUERA","unit":"","city":"ZACATECAS","district":"","region":"","postcode":"98161"},
{"lon":"-102.5936111","lat":"22.7352778","number":"0","street":"DOMICILIO NINGUNO ZACATECAS","unit":"","city":"ZACATECAS","district":"","region":"","postcode":"98090"},
{"lon":"-102.5936111","lat":"22.7352778","number":"0","street":"DOMICILIO NINGUNO PIEDRERA LA HIGUERA","unit":"","city":"ZACATECAS","district":"","region":"","postcode":"98000"},
{"lon":"-102.5936111","lat":"22.7352778","number":"0","street":"DOMICILIO NINGUNO PIEDRERA LA HIGUERA","unit":"","city":"ZACATECAS","district":"","region":"","postcode":"98160"},
{"lon":"-102.5936111","lat":"22.7352778","number":"0","street":"DOM. NINGUNO LA HIGUERA","unit":"","city":"ZACATECAS","district":"","region":"","postcode":"98170"},
{"lon":"-102.6344444","lat":"22.7338889","number":"0","street":"DOMICILIO NINGUNO CERRO LA HIGUERA","unit":"","city":"ZACATECAS","district":"","region":"","postcode":"98160"},
{"lon":"-102.6344444","lat":"22.7338889","number":"0","street":"DOMICILIO NINGUNO CERRO SAN JUANERO","unit":"","city":"ZACATECAS","district":"","region":"","postcode":"98160"},
{"lon":"-102.6340314","lat":"22.7340933","number":"0","street":"CERRO LA BONITA","unit":"","city":"ZACATECAS","district":"","region":"","postcode":"98160"},
{"lon":"-103.4588436","lat":"24.2922499","number":"55","street":"A SAN MARCOS","unit":"","city":"MIGUEL AUZA","district":"","region":"","postcode":"98330"},
{"lon":"-101.3751133","lat":"24.4772366","number":"0","street":"SALTILLO - ZACATECAS KILÓMETRO 223","unit":"","city":"CONCEPCIÓN DEL ORO","district":"","region":"","postcode":"98200"},
{"lon":"-103.7461111","lat":"23.6655556","number":"0","street":"INSURGENTES","unit":"","city":"SOMBRERETE","district":"","region":"","postcode":"99109"},
{"lon":"-102.2636688","lat":"22.5807391","number":"0","street":"LÁZARO CÁRDENAS","unit":"","city":"OJOCALIENTE","district":"","region":"","postcode":"98716"},
{"lon":"-102.3267518","lat":"22.6158241","number":"0","street":"DOMICILIO NINGUNO EL REFUGIO","unit":"","city":"OJOCALIENTE","district":"","region":"","postcode":"98700"},
{"lon":"-102.5643144","lat":"22.7643583","number":"0","street":"TIRO S. BARTOLO","unit":"","city":"ZACATECAS","district":"","region":"","postcode":"98070"},
{"lon":"-102.5021959","lat":"22.7443223","number":"3","street":"VIALIDAD ARROYO DE LA PLATA","unit":"","city":"GUADALUPE","district":"","region":"","postcode":"98604"},
{"lon":"-102.8481354","lat":"21.3633696","number":"6","street":"RAMÓN CORONA","unit":"","city":"NOCHISTLÁN DE MEJÍA","district":"","region":"","postcode":"99900"},
{"lon":"-102.8776037","lat":"23.1755068","number":"0","street":"LAGUNILLA","unit":"","city":"FRESNILLO","district":"","region":"","postcode":"99000"},
{"lon":"-102.5317561","lat":"22.753875","number":"0","street":"PASEO GARCÍA SALINAS","unit":"","city":"GUADALUPE","district":"","region":"","postcode":"98600"},
{"lon":"-102.5148573","lat":"22.7481825","number":"0","street":"1910","unit":"","city":"GUADALUPE","district":"","region":"","postcode":"98600"},
{"lon":"-102.9720598","lat":"21.6566952","number":"0","street":"CAMINO A SAN BERNARDO","unit":"","city":"JALPA","district":"","region":"","postcode":"99601"},
{"lon":"-103.4641778","lat":"21.4641702","number":"0","street":"INDEPENDENCIA","unit":"","city":"TEÚL DE GONZÁLEZ ORTEGA","district":"","region":"","postcode":"99800"},
{"lon":"-101.573514","lat":"22.2991866","number":"21","street":"IGNACIO ZARAGOZA","unit":"","city":"PINOS","district":"","region":"","postcode":"98920"},
{"lon":"-102.247846","lat":"22.5696014","number":"0","street":"CARTERO","unit":"","city":"OJOCALIENTE","district":"","region":"","postcode":"98700"},
{"lon":"-102.9810417","lat":"22.647395","number":"0","street":"SUAVE PATRIA","unit":"","city":"JEREZ","district":"","region":"","postcode":"99340"},
{"lon":"-102.2495635","lat":"22.4319489","number":"29","street":"MORELOS","unit":"","city":"LUIS MOYA","district":"","region":"","postcode":"98772"},
{"lon":"-102.8699161","lat":"23.1689854","number":"410","street":"HIDALGO","unit":"","city":"FRESNILLO","district":"","region":"","postcode":"99090"},
{"lon":"-102.8507299","lat":"21.3676362","number":"66","street":"LICENCIADO JOSÉ MINERO ROQUE PONIENTE","unit":"","city":"NOCHISTLÁN DE MEJÍA","district":"","region":"","postcode":"99900"},
{"lon":"-103.1172397","lat":"21.4117747","number":"0","street":"NICOLÁS BRAVO","unit":"","city":"JUCHIPILA","district":"","region":"","postcode":"99960"},
{"lon":"-103.6449962","lat":"23.6406185","number":"0","street":"LAS PLAYAS","unit":"","city":"SOMBRERETE","district":"","region":"","postcode":"99100"},
{"lon":"-102.8844551","lat":"22.3526549","number":"2","street":"LÓPEZ RAYÓN","unit":"","city":"VILLANUEVA","district":"","region":"","postcode":"99500"},
{"lon":"-103.5678613","lat":"22.7708165","number":"112","street":"FRANCISCO I. MADERO","unit":"","city":"VALPARAÍSO","district":"","region":"","postcode":"99200"},
{"lon":"-102.7085542","lat":"22.9555482","number":"0","street":"5 DE MAYO NORTE","unit":"","city":"CALERA","district":"","region":"","postcode":"98500"},
{"lon":"-103.3083682","lat":"21.7738928","number":"94","street":"EMILIO CARRANZA","unit":"","city":"TLALTENANGO DE SÁNCHEZ ROMÁN","district":"","region":"","postcode":"99700"},
{"lon":"-102.5821988","lat":"22.7696185","number":"210","street":"HÉROES DE CHAPULTEPEC","unit":"","city":"ZACATECAS","district":"","region":"","postcode":"98050"},
{"lon":"-103.4471166","lat":"24.2973448","number":"38","street":"EDMUNDO SÁNCHEZ","unit":"","city":"MIGUEL AUZA","district":"","region":"","postcode":"98330"},
{"lon":"-103.0419924","lat":"23.8199771","number":"0","street":"MANUEL M. PONCE","unit":"","city":"RÍO GRANDE","district":"","region":"","postcode":"98409"},
{"lon":"-102.8543502","lat":"23.1683567","number":"42","street":"VENUSTIANO CARRANZA","unit":"","city":"FRESNILLO","district":"","region":"","postcode":"99099"},
{"lon":"-103.2475759","lat":"23.5770814","number":"0","street":"GENERAL IGNACIO ZARAGOZA","unit":"","city":"SAIN ALTO","district":"","region":"","postcode":"99130"},
{"lon":"-103.8836835","lat":"23.4772514","number":"101","street":"5 DE MAYO","unit":"","city":"CHALCHIHUITES","district":"","region":"","postcode":"99260"},
{"lon":"-103.3025787","lat":"21.7824546","number":"26","street":"SÁNCHEZ ROMÁN","unit":"","city":"TLALTENANGO DE SÁNCHEZ ROMÁN","district":"","region":"","postcode":"99700"},
{"lon":"-102.7642206","lat":"22.6186982","number":"2","street":"EMILIANO ZAPATA","unit":"","city":"VILLANUEVA","district":"","region":"","postcode":"99510"},
{"lon":"-103.0906289","lat":"21.4684655","number":"18","street":"GARCÍA DE LA CADENA","unit":"","city":"APOZOL","district":"","region":"","postcode":"99940"},
{"lon":"-103.881173","lat":"23.4772506","number":"0","street":"ALLENDE","unit":"","city":"CHALCHIHUITES","district":"","region":"","postcode":"99260"},
{"lon":"-103.455447","lat":"23.9589147","number":"0","street":"20 DE NOVIEMBRE","unit":"","city":"SOMBRERETE","district":"","region":"","postcode":"99110"},
{"lon":"-103.3632126","lat":"21.2135331","number":"63","street":"MORELOS","unit":"","city":"MEZQUITAL DEL ORO","district":"","region":"","postcode":"99860"},
{"lon":"-102.7236878","lat":"23.076851","number":"0","street":"BENITO JUÁREZ","unit":"","city":"FRESNILLO","district":"","region":"","postcode":"99150"},
{"lon":"-102.5700326","lat":"22.9461216","number":"27","street":"HIDALGO","unit":"","city":"PÁNUCO","district":"","region":"","postcode":"98548"},
{"lon":"-102.9147545","lat":"21.8633377","number":"119","street":"FRANCISCO I. MADERO","unit":"","city":"TABASCO","district":"","region":"","postcode":"99630"},
{"lon":"-102.5025047","lat":"22.8331093","number":"0","street":"POPOCATÉPETL","unit":"","city":"VETAGRANDE","district":"","region":"","postcode":"98140"},
{"lon":"-102.8716908","lat":"23.1815122","number":"408","street":"18 DE MARZO","unit":"","city":"FRESNILLO","district":"","region":"","postcode":"99000"},
{"lon":"-102.976757","lat":"21.7748983","number":"0","street":"GARCÍA DE LA CADENA","unit":"","city":"HUANUSCO","district":"","region":"","postcode":"99671"},
{"lon":"-101.9514748","lat":"22.1611969","number":"0","street":"RAMÓN LÓPEZ VELARDE","unit":"","city":"VILLA GARCÍA","district":"","region":"","postcode":"98900"},
{"lon":"-102.8819914","lat":"22.3452306","number":"0","street":"NINGUNO","unit":"","city":"VILLANUEVA","district":"","region":"","postcode":"99545"},
{"lon":"-102.8704496","lat":"22.3537101","number":"0","street":"DEL ÁLAMO","unit":"","city":"VILLANUEVA","district":"","region":"","postcode":"99545"},
{"lon":"-102.0944593","lat":"22.7300397","number":"5","street":"HERMENEGILDO GALEANA","unit":"","city":"GENERAL PÁNFILO NATERA","district":"","region":"","postcode":"98740"},
{"lon":"-101.9865448","lat":"22.490127","number":"0","street":"FRANCISCO I. MADERO","unit":"","city":"VILLA GONZÁLEZ ORTEGA","district":"","region":"","postcode":"98870"},
{"lon":"-102.8759002","lat":"23.1882926","number":"0","street":"NINGUNO","unit":"","city":"FRESNILLO","district":"","region":"","postcode":"99020"},
{"lon":"-102.8691363","lat":"23.175668","number":"0","street":"REFORMA","unit":"","city":"FRESNILLO","district":"","region":"","postcode":"99000"},
{"lon":"-102.8691373","lat":"23.175668","number":"0","street":"REFORMA","unit":"","city":"FRESNILLO","district":"","region":"","postcode":"99000"},
{"lon":"-102.97677","lat":"21.6292094","number":"405","street":"MORELOS","unit":"","city":"JALPA","district":"","region":"","postcode":"99601"},
{"lon":"-103.4629916","lat":"21.4644803","number":"0","street":"REVOLUCIÓN","unit":"","city":"TEÚL DE GONZÁLEZ ORTEGA","district":"","region":"","postcode":"99800"},
{"lon":"-102.6082231","lat":"22.8671308","number":"0","street":"NINGUNO","unit":"","city":"MORELOS","district":"","region":"","postcode":"98100"},
{"lon":"-102.3672081","lat":"22.7338138","number":"0","street":"CAMINO REAL","unit":"","city":"TRANCOSO","district":"","region":"","postcode":"98640"},
{"lon":"-102.8423097","lat":"23.2282523","number":"6","street":"DEL ARROYO","unit":"","city":"FRESNILLO","district":"","region":"","postcode":"99158"},
{"lon":"-102.616475","lat":"22.8225679","number":"0","street":"NINGUNO","unit":"","city":"MORELOS","district":"","region":"","postcode":"98100"},
{"lon":"-103.3070415","lat":"21.7832371","number":"73","street":"LIBERTAD PONIENTE","unit":"","city":"TLALTENANGO DE SÁNCHEZ ROMÁN","district":"","region":"","postcode":"99700"},
{"lon":"-102.4963185","lat":"22.7380938","number":"0","street":"SAHOP","unit":"","city":"GUADALUPE","district":"","region":"","postcode":"98600"},
{"lon":"-102.5973467","lat":"22.7571849","number":"440","street":"HÉROES DE LA REFORMA","unit":"","city":"ZACATECAS","district":"","region":"","postcode":"98087"},
{"lon":"-102.5811438","lat":"22.7712863","number":"105","street":"IGNACIO RAMÍREZ","unit":"","city":"ZACATECAS","district":"","region":"","postcode":"98040"},
{"lon":"-102.5004902","lat":"22.7519351","number":"0","street":"REVOLUCIÓN MEXICANA","unit":"","city":"GUADALUPE","district":"","region":"","postcode":"98613"},
{"lon":"-102.4828859","lat":"22.7613327","number":"29","street":"CUARTA PRIVADA CIRCUITO NORIAS","unit":"","city":"GUADALUPE","district":"","region":"","postcode":"98600"},
{"lon":"-102.588873","lat":"22.7627575","number":"0","street":"FELIPE BERRIOZÁBAL","unit":"","city":"ZACATECAS","district":"","region":"","postcode":"98080"},
{"lon":"-102.5952647","lat":"22.7465322","number":"0","street":"LAS CUMBRES","unit":"","city":"ZACATECAS","district":"","region":"","postcode":"98085"},
{"lon":"-102.8770339","lat":"23.1686528","number":"777","street":"TIRO GENERAL","unit":"","city":"FRESNILLO","district":"","region":"","postcode":"99080"},
{"lon":"-103.6291124","lat":"23.6414041","number":"0","street":"PANAMERICANA KILÓMETRO 161+500","unit":"","city":"SOMBRERETE","district":"","region":"","postcode":"99100"},
{"lon":"-103.0042156","lat":"22.6490142","number":"17","street":"LERDO DE TEJADA","unit":"","city":"JEREZ","district":"","region":"","postcode":"99370"},
{"lon":"-102.8676359","lat":"23.1733862","number":"8","street":"BELISARIO DOMÍNGUEZ","unit":"","city":"FRESNILLO","district":"","region":"","postcode":"99000"},
{"lon":"-102.5553377","lat":"22.7644152","number":"116","street":"UNIVERSIDAD","unit":"","city":"ZACATECAS","district":"","region":"","postcode":"98068"},
{"lon":"-102.5537413","lat":"22.7656768","number":"119","street":"FAROLES","unit":"","city":"ZACATECAS","district":"","region":"","postcode":"98068"},
{"lon":"-102.5407417","lat":"22.7563161","number":"376","street":"PASEO GARCÍA SALINAS","unit":"","city":"GUADALUPE","district":"","region":"","postcode":"98609"},
{"lon":"-102.5728588","lat":"22.7743532","number":"152","street":"TACUBA","unit":"","city":"ZACATECAS","district":"","region":"","postcode":"98090"},
{"lon":"-102.5404723","lat":"22.7564856","number":"323","street":"PASEO GARCÍA SALINAS","unit":"","city":"GUADALUPE","district":"","region":"","postcode":"98000"},
{"lon":"-102.5745151","lat":"22.7550207","number":"0","street":"NINGUNO","unit":"","city":"ZACATECAS","district":"","region":"","postcode":"98085"},
{"lon":"-102.5908894","lat":"22.7473944","number":"205","street":"SIERRA MADRE","unit":"","city":"ZACATECAS","district":"","region":"","postcode":"98085"},
{"lon":"-102.5924775","lat":"22.773791","number":"1402","street":"NINGUNO","unit":"","city":"ZACATECAS","district":"","region":"","postcode":"98046"},
{"lon":"-103.0034919","lat":"22.6314374","number":"26","street":"CIÉNEGA","unit":"","city":"JEREZ","district":"","region":"","postcode":"99390"},
{"lon":"-102.9790438","lat":"21.6334655","number":"313","street":"FRANCISCO I. MADERO N.","unit":"","city":"JALPA","district":"","region":"","postcode":"99600"},
{"lon":"-102.5433872","lat":"22.7642667","number":"74","street":"MATERIALISTAS","unit":"","city":"ZACATECAS","district":"","region":"","postcode":"98070"},
{"lon":"-102.5549476","lat":"22.7676512","number":"209","street":"RÍO AGUANAVAL","unit":"","city":"ZACATECAS","district":"","region":"","postcode":"98060"},
{"lon":"-102.5922699","lat":"22.7693745","number":"518","street":"FRANCISCO GARCÍA SALINAS","unit":"","city":"ZACATECAS","district":"","region":"","postcode":"98053"},
{"lon":"-102.59802","lat":"22.7658583","number":"21","street":"GLADIOLAS","unit":"","city":"ZACATECAS","district":"","region":"","postcode":"98054"},
{"lon":"-102.5530873","lat":"22.7693081","number":"0","street":"DEL MEMBRILLO","unit":"","city":"ZACATECAS","district":"","region":"","postcode":"98060"},
{"lon":"-102.5047281","lat":"22.74427","number":"0","street":"VIALIDAD ARROYO DE LA PLATA","unit":"","city":"GUADALUPE","district":"","region":"","postcode":"98613"},
{"lon":"-102.532568","lat":"22.7628278","number":"1","street":"MINA SAUCEDA DE LA BORDA","unit":"","city":"GUADALUPE","district":"","region":"","postcode":"98600"},
{"lon":"-102.5428688","lat":"22.7694888","number":"112","street":"NÚMERO 5","unit":"","city":"ZACATECAS","district":"","region":"","postcode":"98067"},
{"lon":"-102.5804768","lat":"22.7682975","number":"321","street":"FRANCISCO AGUILAR Y URIZAR","unit":"","city":"ZACATECAS","district":"","region":"","postcode":"98050"},
{"lon":"-103.0342297","lat":"23.826681","number":"49","street":"CONSTITUCIÓN","unit":"","city":"RÍO GRANDE","district":"","region":"","postcode":"98400"},
{"lon":"-102.5543457","lat":"22.760162","number":"102","street":"DEL TULE","unit":"","city":"ZACATECAS","district":"","region":"","postcode":"98060"},
{"lon":"-102.5331919","lat":"22.7589128","number":"12","street":"MÉXICO","unit":"","city":"GUADALUPE","district":"","region":"","postcode":"98610"},
{"lon":"-103.647545","lat":"23.64501","number":"0","street":"NIÑOS HÉROES","unit":"","city":"SOMBRERETE","district":"","region":"","postcode":"99102"},
{"lon":"-102.9870168","lat":"22.6532539","number":"6","street":"DEL REFUGIO","unit":"","city":"JEREZ","district":"","region":"","postcode":"99300"},
{"lon":"-102.5164742","lat":"22.7308022","number":"10","street":"CERRO DE LA VIRGEN","unit":"","city":"GUADALUPE","district":"","region":"","postcode":"98605"},
{"lon":"-102.5542144","lat":"22.7670494","number":"603","street":"RÍO BALSAS","unit":"","city":"ZACATECAS","district":"","region":"","postcode":"98610"},
{"lon":"-102.9877473","lat":"22.6499697","number":"12","street":"GARCÍA SALINAS","unit":"","city":"JEREZ","district":"","region":"","postcode":"99300"},
{"lon":"-102.57219","lat":"22.7708818","number":"267","street":"ARROYO DE LA PLATA","unit":"","city":"ZACATECAS","district":"","region":"","postcode":"98000"},
{"lon":"-102.5035487","lat":"22.7405211","number":"0","street":"SECRETARIA DE TURISMO","unit":"","city":"GUADALUPE","district":"","region":"","postcode":"98608"},
{"lon":"-102.4990535","lat":"22.748983","number":"4","street":"SECRETERIA DE LA MARINA NACIONAL","unit":"","city":"GUADALUPE","district":"","region":"","postcode":"98604"},
{"lon":"-102.6140723","lat":"22.7685678","number":"0","street":"NINGUNO","unit":"","city":"ZACATECAS","district":"","region":"","postcode":"98160"},
{"lon":"-103.5672931","lat":"22.7715157","number":"101","street":"FRANCISCO I. MADERO","unit":"","city":"VALPARAÍSO","district":"","region":"","postcode":"99250"},
{"lon":"-102.5090699","lat":"22.7558545","number":"108","street":"REVOLUCIÓN MEXICANA","unit":"","city":"GUADALUPE","district":"","region":"","postcode":"98613"},
{"lon":"-102.8733071","lat":"23.1838906","number":"54","street":"HUICOT","unit":"","city":"FRESNILLO","district":"","region":"","postcode":"99040"},
{"lon":"-102.5454046","lat":"22.7635652","number":"24","street":"MÉXICO","unit":"","city":"ZACATECAS","district":"","region":"","postcode":"98064"},
{"lon":"-103.0409289","lat":"23.8286933","number":"30","street":"DE LOS MAESTROS","unit":"","city":"RÍO GRANDE","district":"","region":"","postcode":"98400"},
{"lon":"-102.6234596","lat":"22.8587656","number":"0","street":"PANAMERICANA","unit":"","city":"MORELOS","district":"","region":"","postcode":"98100"},
{"lon":"-102.5905223","lat":"22.768993","number":"512","street":"MIGUEL RAMOS ARIZPE","unit":"","city":"ZACATECAS","district":"","region":"","postcode":"98053"},
{"lon":"-102.6016569","lat":"22.773993","number":"0","street":"HÉROES DE CHAPULTEPEC","unit":"","city":"ZACATECAS","district":"","region":"","postcode":"98070"},
{"lon":"-103.5861675","lat":"22.777535","number":"0","street":"ATOTONILCO","unit":"","city":"VALPARAÍSO","district":"","region":"","postcode":"99200"},
{"lon":"-103.648615","lat":"23.645203","number":"11","street":"LUIS MOYA","unit":"","city":"SOMBRERETE","district":"","region":"","postcode":"99100"},
{"lon":"-102.5660405","lat":"22.7737304","number":"208","street":"DEL TEPOZÁN","unit":"","city":"ZACATECAS","district":"","region":"","postcode":"98060"},
{"lon":"-102.6095399","lat":"22.770518","number":"0","street":"NEZAHUALCÓYOTL","unit":"","city":"ZACATECAS","district":"","region":"","postcode":"98000"},
{"lon":"-103.6304179","lat":"23.6412091","number":"826300","street":"LÁZARO CÁRDENAS","unit":"","city":"SOMBRERETE","district":"","region":"","postcode":"99100"},
{"lon":"-102.2648933","lat":"22.5783178","number":"15","street":"SANTOS ORTIZ","unit":"","city":"OJOCALIENTE","district":"","region":"","postcode":"98700"},
{"lon":"-103.637525","lat":"23.6420945","number":"4","street":"TABASCO","unit":"","city":"SOMBRERETE","district":"","region":"","postcode":"99100"},
{"lon":"-102.5753844","lat":"22.7623931","number":"111","street":"LIBERTAD","unit":"","city":"ZACATECAS","district":"","region":"","postcode":"98070"},
{"lon":"-102.2596644","lat":"22.5803582","number":"2","street":"ÁGUILA REAL","unit":"","city":"OJOCALIENTE","district":"","region":"","postcode":"98700"},
{"lon":"-102.8631679","lat":"23.1733449","number":"7","street":"ENCINO","unit":"","city":"FRESNILLO","district":"","region":"","postcode":"99000"},
{"lon":"-102.5277953","lat":"22.7512965","number":"100","street":"AZAFRÁN","unit":"","city":"GUADALUPE","district":"","region":"","postcode":"98615"},
{"lon":"-102.5094386","lat":"22.7546734","number":"8","street":"LÁZARO CÁRDENAS","unit":"","city":"GUADALUPE","district":"","region":"","postcode":"98000"},
{"lon":"-102.5403292","lat":"22.7563365","number":"376","street":"PASEO GARCÍA SALINAS","unit":"","city":"GUADALUPE","district":"","region":"","postcode":"98609"},
{"lon":"-102.575915","lat":"22.7598936","number":"104","street":"GENERAL FRANCISCO MUJICA","unit":"","city":"ZACATECAS","district":"","region":"","postcode":"98090"},
{"lon":"-102.5864116","lat":"22.7485131","number":"204","street":"CERRO DE LA VIRGEN","unit":"","city":"ZACATECAS","district":"","region":"","postcode":"98085"},
{"lon":"-102.5131538","lat":"22.7478875","number":"62","street":"1910","unit":"","city":"GUADALUPE","district":"","region":"","postcode":"98600"},
{"lon":"-102.5161957","lat":"22.7294767","number":"105","street":"A SAN RAMÓN","unit":"","city":"GUADALUPE","district":"","region":"","postcode":"98605"},
{"lon":"-102.8669761","lat":"23.1828024","number":"117","street":"HOMBRES ILUSTRES","unit":"","city":"FRESNILLO","district":"","region":"","postcode":"99040"},
{"lon":"-102.5245139","lat":"22.7530645","number":"40","street":"BEGONIA","unit":"","city":"GUADALUPE","district":"","region":"","postcode":"98600"},
{"lon":"-102.545756","lat":"22.7570469","number":"201","street":"SEVILLA","unit":"","city":"ZACATECAS","district":"","region":"","postcode":"98600"},
{"lon":"-103.0278449","lat":"23.8304279","number":"23","street":"5 DE FEBRERO","unit":"","city":"RÍO GRANDE","district":"","region":"","postcode":"98422"},
{"lon":"-103.0221727","lat":"23.807998","number":"0","street":"NINGUNO","unit":"","city":"RÍO GRANDE","district":"","region":"","postcode":"98400"},
{"lon":"-102.5945793","lat":"22.7648228","number":"14","street":"FLOR DE LOTO","unit":"","city":"ZACATECAS","district":"","region":"","postcode":"98054"},
{"lon":"-102.5424074","lat":"22.7643111","number":"213","street":"COBRE CUARZO","unit":"","city":"ZACATECAS","district":"","region":"","postcode":"98064"},
{"lon":"-102.5206906","lat":"22.7504151","number":"6","street":"DE LA CRUZ","unit":"","city":"GUADALUPE","district":"","region":"","postcode":"98600"},
{"lon":"-102.5535113","lat":"22.7638221","number":"262","street":"UNIVERSIDAD","unit":"","city":"ZACATECAS","district":"","region":"","postcode":"98068"},
{"lon":"-102.8737244","lat":"23.1688214","number":"0","street":"CERRO PROAÑO","unit":"","city":"FRESNILLO","district":"","region":"","postcode":"99089"},
{"lon":"-102.6029365","lat":"22.7707551","number":"601","street":"DOROTEO ARANGO","unit":"","city":"ZACATECAS","district":"","region":"","postcode":"98057"},
{"lon":"-102.5209296","lat":"22.7603346","number":"67","street":"CALIFORNIA","unit":"","city":"GUADALUPE","district":"","region":"","postcode":"98614"},
{"lon":"-102.5383997","lat":"22.75609","number":"362","street":"PASEO GARCÍA SALINAS","unit":"","city":"GUADALUPE","district":"","region":"","postcode":"98610"},
{"lon":"-102.9753189","lat":"21.6460238","number":"1608","street":"PALMA","unit":"","city":"JALPA","district":"","region":"","postcode":"99601"},
{"lon":"-102.5778328","lat":"22.7635715","number":"102","street":"PROGRESO","unit":"","city":"ZACATECAS","district":"","region":"","postcode":"98000"},
{"lon":"-102.5789969","lat":"22.7661855","number":"113","street":"INGENIERO PEDRO RUIZ GONZÁLEZ","unit":"","city":"ZACATECAS","district":"","region":"","postcode":"98050"},
{"lon":"-102.5326207","lat":"22.7586995","number":"2","street":"MÉXICO","unit":"","city":"GUADALUPE","district":"","region":"","postcode":"98610"},
{"lon":"-102.4969363","lat":"22.7668249","number":"0","street":"NINGUNO","unit":"","city":"GUADALUPE","district":"","region":"","postcode":"98615"},
{"lon":"-102.9912806","lat":"22.651775","number":"33","street":"REFORMA","unit":"","city":"JEREZ","district":"","region":"","postcode":"99300"},
{"lon":"-102.503215","lat":"22.7726529","number":"0","street":"NINGUNO","unit":"","city":"GUADALUPE","district":"","region":"","postcode":"98615"},
{"lon":"-102.502599","lat":"22.741577","number":"0","street":"LIBRAMIENTO TRÁNSITO PESADO","unit":"","city":"GUADALUPE","district":"","region":"","postcode":"98600"},
{"lon":"-102.5021472","lat":"22.7417171","number":"1","street":"LIBRAMIENTO TRÁNSITO PESADO","unit":"","city":"GUADALUPE","district":"","region":"","postcode":"98604"},
{"lon":"-102.9775329","lat":"22.6411228","number":"6","street":"DEMOCRACIA","unit":"","city":"JEREZ","district":"","region":"","postcode":"99340"},
{"lon":"-102.7000047","lat":"22.958249","number":"439","street":"CIRUELO","unit":"","city":"CALERA","district":"","region":"","postcode":"98504"},
{"lon":"-102.7182377","lat":"22.9529427","number":"42","street":"VALPARAÍSO","unit":"","city":"CALERA","district":"","region":"","postcode":"98500"},
{"lon":"-102.5532602","lat":"22.7612977","number":"103","street":"PIRINEOS","unit":"","city":"ZACATECAS","district":"","region":"","postcode":"98098"},
{"lon":"-103.4521479","lat":"24.2960768","number":"30","street":"GONZALO VILLASEÑOR","unit":"","city":"MIGUEL AUZA","district":"","region":"","postcode":"98330"},
{"lon":"-102.89282","lat":"23.176343","number":"302","street":"DOCTOR J. JESÚS VARELA RICO","unit":"","city":"FRESNILLO","district":"","region":"","postcode":"99000"},
{"lon":"-102.5007882","lat":"22.7525897","number":"40","street":"REVOLUCIÓN MEXICANA","unit":"","city":"GUADALUPE","district":"","region":"","postcode":"98612"},
{"lon":"-102.502047","lat":"22.7642068","number":"0","street":"CARRETERA A SAUCEDA DE LA BORDA","unit":"","city":"GUADALUPE","district":"","region":"","postcode":"98612"},
{"lon":"-103.3032861","lat":"21.7810207","number":"35","street":"HEROICO COLEGIO MILITAR","unit":"","city":"TLALTENANGO DE SÁNCHEZ ROMÁN","district":"","region":"","postcode":"99700"},
{"lon":"-103.305237","lat":"21.7826466","number":"31","street":"LIBERTAD","unit":"","city":"TLALTENANGO DE SÁNCHEZ ROMÁN","district":"","region":"","postcode":"99700"},
{"lon":"-103.328736","lat":"21.6714884","number":"5","street":"LEONA VICARIO","unit":"","city":"TEPECHITLÁN","district":"","region":"","postcode":"99750"},
{"lon":"-102.5745555","lat":"22.7552182","number":"1102","street":"NINGUNO","unit":"","city":"ZACATECAS","district":"","region":"","postcode":"98001"},
{"lon":"-103.0143101","lat":"23.9952154","number":"0","street":"SÁNCHEZ ROMÁN","unit":"","city":"GENERAL FRANCISCO R. MURGUÍA","district":"","region":"","postcode":"98350"},
{"lon":"-102.4955137","lat":"22.7113332","number":"129","street":"DE LA PILA","unit":"","city":"GUADALUPE","district":"","region":"","postcode":"98658"},
{"lon":"-102.8867217","lat":"23.163958","number":"830","street":"DOCTOR J. JESÚS VARELA RICO","unit":"","city":"FRESNILLO","district":"","region":"","postcode":"99080"},
{"lon":"-102.5402116","lat":"22.7518342","number":"9","street":"NINGUNO","unit":"","city":"GUADALUPE","district":"","region":"","postcode":"98609"},
{"lon":"-102.5710781","lat":"22.7725598","number":"213","street":"LEDESMA","unit":"","city":"ZACATECAS","district":"","region":"","postcode":"98000"},
{"lon":"-102.5207727","lat":"22.7545092","number":"0","street":"5 DE MAYO","unit":"","city":"GUADALUPE","district":"","region":"","postcode":"98601"},
{"lon":"-103.6263759","lat":"23.6440967","number":"0","street":"ADOLFO LÓPEZ MATEOS","unit":"","city":"SOMBRERETE","district":"","region":"","postcode":"99100"},
{"lon":"-102.4904471","lat":"22.7553207","number":"2","street":"DE LA AVENIDA CONDESA","unit":"","city":"GUADALUPE","district":"","region":"","postcode":"98613"},
{"lon":"-102.6969418","lat":"22.948014","number":"507","street":"JUAN ALDAMA SUR","unit":"","city":"CALERA","district":"","region":"","postcode":"98500"},
{"lon":"-102.578654","lat":"22.7538906","number":"601","street":"TRÁNSITO PESADO","unit":"","city":"ZACATECAS","district":"","region":"","postcode":"98083"},
{"lon":"-102.871085","lat":"23.1810837","number":"99","street":"FRANCISCO JAVIER MINA","unit":"","city":"FRESNILLO","district":"","region":"","postcode":"99000"},
{"lon":"-102.5375525","lat":"22.7688961","number":"3","street":"GARDENIAS","unit":"","city":"GUADALUPE","district":"","region":"","postcode":"98619"},
{"lon":"-102.366336","lat":"22.7324634","number":"3","street":"EMILIANO ZAPATA","unit":"","city":"TRANCOSO","district":"","region":"","postcode":"98640"},
{"lon":"-102.591267","lat":"22.7720045","number":"212","street":"QUETZALCÓATL","unit":"","city":"ZACATECAS","district":"","region":"","postcode":"98056"},
{"lon":"-102.5653648","lat":"22.78392","number":"135","street":"BARRIO DE LOS OLIVOS","unit":"","city":"ZACATECAS","district":"","region":"","postcode":"98000"},
{"lon":"-102.8674374","lat":"23.1767205","number":"136","street":"DOCTOR IGNACIO HIERRO","unit":"","city":"FRESNILLO","district":"","region":"","postcode":"99000"},
{"lon":"-102.696798","lat":"22.9460135","number":"707","street":"JUÁREZ SUR","unit":"","city":"CALERA","district":"","region":"","postcode":"98500"},
{"lon":"-102.6280472","lat":"22.7813655","number":"0","street":"HÉROES DE CHAPULTEPEC","unit":"","city":"ZACATECAS","district":"","region":"","postcode":"98117"},
{"lon":"-102.4979374","lat":"22.7537776","number":"18","street":"FUENTES PERSAS","unit":"","city":"GUADALUPE","district":"","region":"","postcode":"98615"},
{"lon":"-102.6287445","lat":"22.7783906","number":"1","street":"TECNOLÓGICO","unit":"","city":"ZACATECAS","district":"","region":"","postcode":"98160"},
{"lon":"-102.5788854","lat":"22.7762391","number":"141","street":"DE LA LOMA","unit":"","city":"ZACATECAS","district":"","region":"","postcode":"98040"},
{"lon":"-102.5881034","lat":"22.7491698","number":"601","street":"SIERRA CAMPANA","unit":"","city":"ZACATECAS","district":"","region":"","postcode":"98085"},
{"lon":"-102.5041837","lat":"22.7380643","number":"11","street":"CANTERA","unit":"","city":"GUADALUPE","district":"","region":"","postcode":"98604"},
{"lon":"-102.6200941","lat":"22.8638669","number":"381","street":"PROVIDENCIA","unit":"","city":"MORELOS","district":"","region":"","postcode":"98100"},
{"lon":"-102.5273125","lat":"22.7661386","number":"0","street":"NINGUNO","unit":"","city":"GUADALUPE","district":"","region":"","postcode":"98610"},
{"lon":"-102.5012271","lat":"22.7671498","number":"1","street":"CARRETERA A SAUCEDA DE LA BORDA","unit":"","city":"GUADALUPE","district":"","region":"","postcode":"98600"},
{"lon":"-102.572725","lat":"22.766723","number":"502","street":"MANUEL ÁVILA CAMACHO","unit":"","city":"ZACATECAS","district":"","region":"","postcode":"98070"},
{"lon":"-102.4223617","lat":"22.7840528","number":"3","street":"PÁNFILO NATERA","unit":"","city":"GUADALUPE","district":"","region":"","postcode":"98600"},
{"lon":"-103.0106865","lat":"23.8508095","number":"10","street":"INSURGENTES","unit":"","city":"RÍO GRANDE","district":"","region":"","postcode":"98406"},
{"lon":"-102.4219444","lat":"22.755","number":"4","street":"CALLE 12 DE ENERO","unit":"","city":"GUADALUPE","district":"","region":"","postcode":"98630"},
{"lon":"-102.5877513","lat":"22.7554765","number":"107","street":"LAGO CATEMACO","unit":"","city":"ZACATECAS","district":"","region":"","postcode":"98085"},
{"lon":"-102.5783023","lat":"22.7745749","number":"412","street":"ALAMEDA TRINIDAD GARCÍA DE LA CADENA","unit":"","city":"ZACATECAS","district":"","region":"","postcode":"98000"},
{"lon":"-103.5676771","lat":"22.7718737","number":"104","street":"VENUSTIANO CARRANZA","unit":"","city":"VALPARAÍSO","district":"","region":"","postcode":"99200"},
{"lon":"-102.5841924","lat":"22.7469064","number":"327","street":"CERRO DE LAS VENTANAS","unit":"","city":"ZACATECAS","district":"","region":"","postcode":"98086"},
{"lon":"-102.2515567","lat":"22.4421242","number":"0","street":"DE LA ALFALFA","unit":"","city":"LUIS MOYA","district":"","region":"","postcode":"98770"},
{"lon":"-102.5240141","lat":"22.7456246","number":"55","street":"IGNACIO ALLENDE","unit":"","city":"GUADALUPE","district":"","region":"","postcode":"98600"},
{"lon":"-102.4215286","lat":"22.7829321","number":"17","street":"REBOTE","unit":"","city":"GUADALUPE","district":"","region":"","postcode":"98631"},
{"lon":"-102.9871898","lat":"22.6486609","number":"1","street":"MORELOS","unit":"","city":"JEREZ","district":"","region":"","postcode":"99300"},
{"lon":"-102.5429819","lat":"22.765962","number":"221","street":"DE LOS ÁLAMOS","unit":"","city":"GUADALUPE","district":"","region":"","postcode":"98064"},
{"lon":"-102.538556","lat":"22.7533898","number":"9","street":"LAS TORRES","unit":"","city":"GUADALUPE","district":"","region":"","postcode":"98608"},
{"lon":"-102.6177552","lat":"22.7727858","number":"0","street":"FEDERAL ZACATECAS-FRESNILLO","unit":"","city":"ZACATECAS","district":"","region":"","postcode":"98160"},
{"lon":"-103.030509","lat":"23.825814","number":"30","street":"JUÁREZ","unit":"","city":"RÍO GRANDE","district":"","region":"","postcode":"98041"},
{"lon":"-103.0293864","lat":"23.8181689","number":"0","street":"EVA SÁMANO DE LÓPEZ MATEOS","unit":"","city":"RÍO GRANDE","district":"","region":"","postcode":"98425"},
{"lon":"-102.583503","lat":"22.7683007","number":"115","street":"DE LA CHIRIMOYA","unit":"","city":"ZACATECAS","district":"","region":"","postcode":"98050"},
{"lon":"-102.6329912","lat":"22.765527","number":"504","street":"FRANCISCO GARCÍA SALINAS","unit":"","city":"ZACATECAS","district":"","region":"","postcode":"98058"},
{"lon":"-102.5718154","lat":"22.7835451","number":"301","street":"FRANCISCO GOYTIA","unit":"","city":"ZACATECAS","district":"","region":"","postcode":"98000"},
{"lon":"-103.0140985","lat":"23.995019","number":"0","street":"SÁNCHEZ ROMÁN","unit":"","city":"GENERAL FRANCISCO R. MURGUÍA","district":"","region":"","postcode":"98350"},
{"lon":"-102.4995946","lat":"22.7424834","number":"100","street":"LIBRAMIENTO TRÁNSITO PESADO","unit":"","city":"GUADALUPE","district":"","region":"","postcode":"98604"},
{"lon":"-102.8748564","lat":"23.186504","number":"231","street":"HUICOT","unit":"","city":"FRESNILLO","district":"","region":"","postcode":"99020"},
{"lon":"-102.5014505","lat":"22.7570253","number":"60","street":"ESCUELA DE PREPARATORIA","unit":"","city":"GUADALUPE","district":"","region":"","postcode":"98612"},
{"lon":"-102.5371566","lat":"22.7550546","number":"0","street":"SICÓMORO","unit":"","city":"GUADALUPE","district":"","region":"","postcode":"98608"},
{"lon":"-102.5422172","lat":"22.7561083","number":"4","street":"BONATERRA","unit":"","city":"GUADALUPE","district":"","region":"","postcode":"98609"},
{"lon":"-102.5678564","lat":"22.758939","number":"204","street":"J. TRINIDAD ORTIZ","unit":"","city":"ZACATECAS","district":"","region":"","postcode":"98090"},
{"lon":"-102.4240583","lat":"22.7792157","number":"30","street":"LUIS ECHEVERRÍA","unit":"","city":"GUADALUPE","district":"","region":"","postcode":"98631"},
{"lon":"-102.586927","lat":"22.7653815","number":"302","street":"CERRO ENCINILLO","unit":"","city":"ZACATECAS","district":"","region":"","postcode":"98000"},
{"lon":"-102.5252502","lat":"22.7554164","number":"22","street":"HACIENDA DE BERNARDEZ","unit":"","city":"GUADALUPE","district":"","region":"","postcode":"98600"},
{"lon":"-102.4243893","lat":"22.7560945","number":"21","street":"CALLE LAZARO CARDENAS","unit":"","city":"GUADALUPE","district":"","region":"","postcode":"98631"},
{"lon":"-102.6968046","lat":"22.9460205","number":"707","street":"JUÁREZ SUR","unit":"","city":"CALERA","district":"","region":"","postcode":"98500"},
{"lon":"-102.5498694","lat":"22.7637282","number":"746","street":"JOSÉ LÓPEZ PORTILLO","unit":"","city":"ZACATECAS","district":"","region":"","postcode":"98065"},
{"lon":"-103.0178894","lat":"23.8094211","number":"0","street":"LOMA DEL TORO","unit":"","city":"RÍO GRANDE","district":"","region":"","postcode":"98400"},
{"lon":"-102.5722979","lat":"22.7725341","number":"106","street":"GUERRERO","unit":"","city":"ZACATECAS","district":"","region":"","postcode":"98000"},
{"lon":"-102.5597856","lat":"22.7665534","number":"153","street":"UNIVERSIDAD","unit":"","city":"ZACATECAS","district":"","region":"","postcode":"98060"},
{"lon":"-102.5341708","lat":"22.766047","number":"123","street":"PEDRO CORONEL","unit":"","city":"GUADALUPE","district":"","region":"","postcode":"98610"},
{"lon":"-102.9791378","lat":"21.6343285","number":"420","street":"FRANCISCO I. MADERO N.","unit":"","city":"JALPA","district":"","region":"","postcode":"99960"},
{"lon":"-102.5241081","lat":"22.755989","number":"13","street":"JOSÉ LÓPEZ PORTILLO","unit":"","city":"GUADALUPE","district":"","region":"","postcode":"98614"},
{"lon":"-102.6030638","lat":"22.7728413","number":"204","street":"CADETE VICENTE SUÁREZ","unit":"","city":"ZACATECAS","district":"","region":"","postcode":"98057"},
{"lon":"-102.496253","lat":"22.757365","number":"13","street":"FEDERACIÓN DE SINDICATOS","unit":"","city":"GUADALUPE","district":"","region":"","postcode":"98612"},
{"lon":"-102.5007937","lat":"22.7467008","number":"0","street":"SECRETARIA DE LA REFORMA AGRARIA","unit":"","city":"GUADALUPE","district":"","region":"","postcode":"98613"},
{"lon":"-102.5151943","lat":"22.7492603","number":"74","street":"HEROICO COLEGIO MILITAR","unit":"","city":"GUADALUPE","district":"","region":"","postcode":"98600"},
{"lon":"-102.543771","lat":"22.7566441","number":"208","street":"CARLOS LINNEO","unit":"","city":"GUADALUPE","district":"","region":"","postcode":"98609"},
{"lon":"-102.9858768","lat":"22.6580082","number":"49","street":"VALENTÍN GÓMEZ FARÍAS (ALAMEDA) CAMINO AL DURAZNO","unit":"","city":"JEREZ","district":"","region":"","postcode":"99313"},
{"lon":"-102.5565689","lat":"22.7667246","number":"104","street":"RÍO YAQUI","unit":"","city":"ZACATECAS","district":"","region":"","postcode":"98068"},
{"lon":"-102.5239746","lat":"22.7560845","number":"13","street":"FRONTERA","unit":"","city":"GUADALUPE","district":"","region":"","postcode":"98614"},
{"lon":"-102.8742458","lat":"23.1737646","number":"5","street":"ENRIQUE ESTRADA","unit":"","city":"FRESNILLO","district":"","region":"","postcode":"99000"},
{"lon":"-102.5153825","lat":"22.7553382","number":"21","street":"INDEPENDENCIA","unit":"","city":"GUADALUPE","district":"","region":"","postcode":"98613"},
{"lon":"-102.5414517","lat":"22.7542566","number":"28","street":"NIÑOS HÉROES","unit":"","city":"GUADALUPE","district":"","region":"","postcode":"98609"},
{"lon":"-102.8661613","lat":"23.1730523","number":"314","street":"GARCÍA SALINAS","unit":"","city":"FRESNILLO","district":"","region":"","postcode":"99000"},
{"lon":"-102.5440847","lat":"22.7582839","number":"206","street":"PASEO FRANCISCO GARCÍA SALINAS","unit":"","city":"ZACATECAS","district":"","region":"","postcode":"98908"},
{"lon":"-102.5733518","lat":"22.759842","number":"201","street":"JESÚS REYES HEROLES","unit":"","city":"ZACATECAS","district":"","region":"","postcode":"98090"},
{"lon":"-102.5822175","lat":"22.775361","number":"120","street":"TERRAPLÉN","unit":"","city":"ZACATECAS","district":"","region":"","postcode":"98045"},
{"lon":"-102.8827248","lat":"23.1828099","number":"38","street":"INSURGENTES","unit":"","city":"FRESNILLO","district":"","region":"","postcode":"99030"},
{"lon":"-102.8820974","lat":"23.187571","number":"412","street":"LÓPEZ MATEOS (CARRETERA PANAMERICANA)","unit":"","city":"FRESNILLO","district":"","region":"","postcode":"99039"},
{"lon":"-102.678091","lat":"22.92901","number":"23","street":"KILÓMETRO 23CARR ZAC-CALERA","unit":"","city":"CALERA","district":"","region":"","postcode":"98500"},
{"lon":"-102.5364494","lat":"22.7528377","number":"304","street":"CIPRESES","unit":"","city":"GUADALUPE","district":"","region":"","postcode":"98608"},
{"lon":"-102.594238","lat":"22.7578435","number":"208","street":"JOSÉ MARÍA VÁZQUEZ","unit":"","city":"ZACATECAS","district":"","region":"","postcode":"98087"},
{"lon":"-102.5034904","lat":"22.7405399","number":"0","street":"SECRETARIA DE TURISMO","unit":"","city":"GUADALUPE","district":"","region":"","postcode":"98608"},
{"lon":"-102.9772642","lat":"21.6318461","number":"411","street":"20 DE NOVIEMBRE","unit":"","city":"JALPA","district":"","region":"","postcode":"99601"},
{"lon":"-102.5808422","lat":"22.7651196","number":"101","street":"DE LA UNIÓN","unit":"","city":"ZACATECAS","district":"","region":"","postcode":"98000"},
{"lon":"-102.5822131","lat":"22.7653713","number":"108","street":"FERROCARRIL","unit":"","city":"ZACATECAS","district":"","region":"","postcode":"98090"},
{"lon":"-102.5680857","lat":"22.758885","number":"204","street":"FERNANDO AMILPA","unit":"","city":"ZACATECAS","district":"","region":"","postcode":"98090"},
{"lon":"-102.5600456","lat":"22.7662452","number":"101","street":"NINGUNO","unit":"","city":"ZACATECAS","district":"","region":"","postcode":"98060"},
{"lon":"-102.5035551","lat":"22.740519","number":"0","street":"SECRETARIA DE TURISMO","unit":"","city":"GUADALUPE","district":"","region":"","postcode":"98608"},
{"lon":"-102.5829956","lat":"22.7664615","number":"103","street":"NINGUNO","unit":"","city":"ZACATECAS","district":"","region":"","postcode":"98000"},
{"lon":"-102.898034","lat":"23.1707212","number":"212","street":"RÍO CHAPALA","unit":"","city":"FRESNILLO","district":"","region":"","postcode":"99084"},
{"lon":"-102.4193252","lat":"22.7832955","number":"10","street":"PÁNFILO NATERA","unit":"","city":"GUADALUPE","district":"","region":"","postcode":"98631"},
{"lon":"-102.5729485","lat":"22.7755848","number":"110","street":"DE GÓMEZ FARÍAS","unit":"","city":"ZACATECAS","district":"","region":"","postcode":"98000"},
{"lon":"-102.5810182","lat":"22.7657324","number":"103","street":"ADOLFO LÓPEZ MATEOS","unit":"","city":"ZACATECAS","district":"","region":"","postcode":"98050"},
{"lon":"-102.8835672","lat":"23.1760724","number":"12","street":"JEREZ","unit":"","city":"FRESNILLO","district":"","region":"","postcode":"99030"},
{"lon":"-102.58547","lat":"22.7524704","number":"912","street":"SIERRA DE MAPIMI","unit":"","city":"ZACATECAS","district":"","region":"","postcode":"98085"},
{"lon":"-102.6015053","lat":"22.7717061","number":"295","street":"BRIGADA SERVÍN","unit":"","city":"ZACATECAS","district":"","region":"","postcode":"98000"},
{"lon":"-102.5786852","lat":"22.7768359","number":"405","street":"DEL AUXILIO","unit":"","city":"ZACATECAS","district":"","region":"","postcode":"98040"},
{"lon":"-102.7066545","lat":"22.9554565","number":"201","street":"MONTERREY","unit":"","city":"CALERA","district":"","region":"","postcode":"98500"},
{"lon":"-102.5853747","lat":"22.7755781","number":"202","street":"SALAMANCA","unit":"","city":"ZACATECAS","district":"","region":"","postcode":"98040"},
{"lon":"-102.5397475","lat":"22.7691343","number":"92","street":"GARDENIAS","unit":"","city":"GUADALUPE","district":"","region":"","postcode":"98619"},
{"lon":"-102.51887","lat":"22.7568205","number":"85","street":"FRANCISCANOS","unit":"","city":"GUADALUPE","district":"","region":"","postcode":"98600"},
{"lon":"-102.5431373","lat":"22.7563902","number":"20","street":"B. LAMARCK","unit":"","city":"GUADALUPE","district":"","region":"","postcode":"98609"},
{"lon":"-102.6030638","lat":"22.7728413","number":"204","street":"CADETE VICENTE SUÁREZ","unit":"","city":"ZACATECAS","district":"","region":"","postcode":"98057"},
{"lon":"-102.5392529","lat":"22.7605351","number":"10","street":"MÉXICO","unit":"","city":"GUADALUPE","district":"","region":"","postcode":"98619"},
{"lon":"-102.5866323","lat":"22.7551003","number":"3","street":"LAGO DE CHAPALA","unit":"","city":"ZACATECAS","district":"","region":"","postcode":"98085"},
{"lon":"-102.5534416","lat":"22.7638209","number":"262","street":"UNIVERSIDAD","unit":"","city":"ZACATECAS","district":"","region":"","postcode":"98068"},
{"lon":"-102.5801207","lat":"22.7658685","number":"102","street":"LOMAS DE LA ESTACIÓN","unit":"","city":"ZACATECAS","district":"","region":"","postcode":"98050"},
{"lon":"-102.5742128","lat":"22.7685797","number":"712","street":"MORELOS","unit":"","city":"ZACATECAS","district":"","region":"","postcode":"98000"},
{"lon":"-102.5533855","lat":"22.7602089","number":"207","street":"PIRINEOS","unit":"","city":"ZACATECAS","district":"","region":"","postcode":"98098"},
{"lon":"-102.5476217","lat":"22.7644976","number":"112","street":"2","unit":"","city":"ZACATECAS","district":"","region":"","postcode":"98068"},
{"lon":"-102.5011908","lat":"22.7561145","number":"92","street":"CAMINO REAL","unit":"","city":"GUADALUPE","district":"","region":"","postcode":"98617"},
{"lon":"-103.1183892","lat":"21.3981594","number":"0","street":"NINGUNO","unit":"","city":"JUCHIPILA","district":"","region":"","postcode":"99960"},
{"lon":"-102.5764599","lat":"22.7616602","number":"108","street":"ELECTRICISTAS","unit":"","city":"ZACATECAS","district":"","region":"","postcode":"98070"},
{"lon":"-103.3198868","lat":"21.6680638","number":"16","street":"JOSÉ DOLORES","unit":"","city":"TEPECHITLÁN","district":"","region":"","postcode":"99750"},
{"lon":"-102.5622523","lat":"22.7508581","number":"123","street":"NINGUNO","unit":"","city":"ZACATECAS","district":"","region":"","postcode":"98099"},
{"lon":"-103.5614319","lat":"22.3048619","number":"5","street":"INSURGENTES","unit":"","city":"MONTE ESCOBEDO","district":"","region":"","postcode":"99420"},
{"lon":"-102.5570155","lat":"22.7650749","number":"214","street":"UNIVERSIDAD","unit":"","city":"ZACATECAS","district":"","region":"","postcode":"98068"},
{"lon":"-102.4211203","lat":"22.7890657","number":"10","street":"LUIS ECHEVERRÍA","unit":"","city":"GUADALUPE","district":"","region":"","postcode":"98631"},
{"lon":"-102.8624777","lat":"23.1731837","number":"9","street":"DURANGO","unit":"","city":"FRESNILLO","district":"","region":"","postcode":"99000"},
{"lon":"-102.8638296","lat":"23.1988362","number":"17","street":"MINA","unit":"","city":"FRESNILLO","district":"","region":"","postcode":"99010"},
{"lon":"-102.5245386","lat":"22.7574951","number":"26","street":"HACIENDA DE BERNARDEZ","unit":"","city":"GUADALUPE","district":"","region":"","postcode":"98610"},
{"lon":"-102.5404394","lat":"22.756331","number":"376","street":"PASEO GARCÍA SALINAS","unit":"","city":"GUADALUPE","district":"","region":"","postcode":"98609"},
{"lon":"-103.568601","lat":"22.768583","number":"147","street":"JOSÉ MARÍA MORELOS","unit":"","city":"VALPARAÍSO","district":"","region":"","postcode":"99200"},
{"lon":"-102.4997747","lat":"22.7687041","number":"6","street":"LA FE","unit":"","city":"GUADALUPE","district":"","region":"","postcode":"98600"},
{"lon":"-102.5245118","lat":"22.7619776","number":"424","street":"HACIENDA DE TRANCOSO","unit":"","city":"GUADALUPE","district":"","region":"","postcode":"98617"},
{"lon":"-102.5226344","lat":"22.7516264","number":"30","street":"HEROICO COLEGIO MILITAR","unit":"","city":"GUADALUPE","district":"","region":"","postcode":"98608"},
{"lon":"-102.5173767","lat":"22.7497928","number":"50","street":"HEROICO COLEGIO MILITAR","unit":"","city":"GUADALUPE","district":"","region":"","postcode":"98600"},
{"lon":"-102.5339517","lat":"22.7719277","number":"1","street":"SAN GIULIANO","unit":"","city":"GUADALUPE","district":"","region":"","postcode":"98610"},
{"lon":"-103.8796397","lat":"23.4791605","number":"0","street":"NINGUNO","unit":"","city":"CHALCHIHUITES","district":"","region":"","postcode":"99260"},
{"lon":"-102.5805966","lat":"22.7671022","number":"231","street":"REGENERACIÓN","unit":"","city":"ZACATECAS","district":"","region":"","postcode":"98050"},
{"lon":"-102.5895377","lat":"22.7683722","number":"107","street":"CERRO DEL PADRE","unit":"","city":"ZACATECAS","district":"","region":"","postcode":"98056"},
{"lon":"-102.6988697","lat":"22.9535911","number":"610","street":"ADOLFO LÓPEZ MATEOS","unit":"","city":"CALERA","district":"","region":"","postcode":"98500"},
{"lon":"-102.8834877","lat":"23.1897363","number":"0","street":"LÓPEZ MATEOS (CARRETERA PANAMERICANA)","unit":"","city":"FRESNILLO","district":"","region":"","postcode":"99039"},
{"lon":"-102.9024381","lat":"23.1731628","number":"1","street":"JOSÉ MARÍA MORELOS","unit":"","city":"FRESNILLO","district":"","region":"","postcode":"99000"},
{"lon":"-102.622287","lat":"22.7674892","number":"1","street":"ROBERTO ROBLES","unit":"","city":"ZACATECAS","district":"","region":"","postcode":"98000"},
{"lon":"-103.030502","lat":"23.8353559","number":"119","street":"ALDAMA","unit":"","city":"RÍO GRANDE","district":"","region":"","postcode":"98400"},
{"lon":"-102.4213196","lat":"22.7835743","number":"15","street":"DEPORTIVA","unit":"","city":"GUADALUPE","district":"","region":"","postcode":"98600"},
{"lon":"-102.5890393","lat":"22.7448451","number":"617","street":"SIERRA MADRE","unit":"","city":"ZACATECAS","district":"","region":"","postcode":"98085"},
{"lon":"-102.5970257","lat":"22.7658053","number":"48","street":"GIRASOLES","unit":"","city":"ZACATECAS","district":"","region":"","postcode":"98054"},
{"lon":"-102.5282171","lat":"22.7551281","number":"19","street":"HACIENDA DE SANTA CRUZ","unit":"","city":"GUADALUPE","district":"","region":"","postcode":"98610"},
{"lon":"-102.5899403","lat":"22.7623284","number":"501","street":"RAMÓN CORONA","unit":"","city":"ZACATECAS","district":"","region":"","postcode":"98080"},
{"lon":"-102.5890333","lat":"22.7689934","number":"1116","street":"SAN MARCOS","unit":"","city":"ZACATECAS","district":"","region":"","postcode":"98049"},
{"lon":"-102.5826507","lat":"22.7713599","number":"135","street":"IGNACIO RAMÍREZ","unit":"","city":"ZACATECAS","district":"","region":"","postcode":"98040"},
{"lon":"-102.8500078","lat":"23.1941395","number":"126","street":"MERCURIO","unit":"","city":"FRESNILLO","district":"","region":"","postcode":"99059"},
{"lon":"-102.5713375","lat":"22.7721162","number":"504","street":"VENUSTIANO CARRANZA","unit":"","city":"ZACATECAS","district":"","region":"","postcode":"98000"},
{"lon":"-102.8726391","lat":"23.1879911","number":"0","street":"IGNACIO RAMÍREZ","unit":"","city":"FRESNILLO","district":"","region":"","postcode":"99020"},
{"lon":"-103.297374","lat":"21.7853168","number":"0","street":"MARIANO MATAMOROS","unit":"","city":"TLALTENANGO DE SÁNCHEZ ROMÁN","district":"","region":"","postcode":"99700"},
{"lon":"-103.633216","lat":"23.6448639","number":"8","street":"NUEVO LEÓN","unit":"","city":"SOMBRERETE","district":"","region":"","postcode":"99100"},
{"lon":"-102.5097708","lat":"22.756148","number":"55","street":"REVOLUCIÓN MEXICANA","unit":"","city":"GUADALUPE","district":"","region":"","postcode":"98613"},
{"lon":"-102.5647734","lat":"22.7560738","number":"1","street":"DOCTOR JUAN IGNACIO N.","unit":"","city":"ZACATECAS","district":"","region":"","postcode":"98057"},
{"lon":"-102.5841273","lat":"22.7494386","number":"201","street":"CERRO CRESTÓN CHINO","unit":"","city":"ZACATECAS","district":"","region":"","postcode":"98085"},
{"lon":"-102.8660232","lat":"23.1798749","number":"3","street":"ANDRÉS A. FRÍAS","unit":"","city":"FRESNILLO","district":"","region":"","postcode":"99070"},
{"lon":"-103.0024392","lat":"22.6305757","number":"3","street":"TEPOZÁN","unit":"","city":"JEREZ","district":"","region":"","postcode":"99390"},
{"lon":"-102.5404758","lat":"22.7540776","number":"0","street":"FERNANDO MONTES DE OCA","unit":"","city":"GUADALUPE","district":"","region":"","postcode":"98609"},
{"lon":"-102.8621222","lat":"23.1732266","number":"102","street":"DURANGO","unit":"","city":"FRESNILLO","district":"","region":"","postcode":"99000"},
{"lon":"-102.8680439","lat":"23.1764357","number":"27","street":"JUAN DE TOLOSA","unit":"","city":"FRESNILLO","district":"","region":"","postcode":"99000"},
{"lon":"-102.8712049","lat":"23.17273","number":"134","street":"MORELOS SUR","unit":"","city":"FRESNILLO","district":"","region":"","postcode":"99000"},
{"lon":"-102.8751705","lat":"23.1761375","number":"601","street":"REFORMA","unit":"","city":"FRESNILLO","district":"","region":"","postcode":"99000"},
{"lon":"-102.571662","lat":"22.774543","number":"301","street":"PRIMERO DE MAYO","unit":"","city":"ZACATECAS","district":"","region":"","postcode":"98000"},
{"lon":"-102.5735385","lat":"22.7634173","number":"105","street":"13 DE JUNIO","unit":"","city":"ZACATECAS","district":"","region":"","postcode":"98070"},
{"lon":"-102.5915769","lat":"22.772567","number":"302","street":"CAXCANES","unit":"","city":"ZACATECAS","district":"","region":"","postcode":"98056"},
{"lon":"-103.6491751","lat":"23.6215344","number":"48","street":"LÁZARO CÁRDENAS","unit":"","city":"SOMBRERETE","district":"","region":"","postcode":"99100"},
{"lon":"-102.5874514","lat":"22.7705062","number":"100","street":"ANTONIO R. ORTIZ","unit":"","city":"ZACATECAS","district":"","region":"","postcode":"98049"},
{"lon":"-102.8397528","lat":"23.1728328","number":"0","street":"BIÓSFERA","unit":"","city":"FRESNILLO","district":"","region":"","postcode":"99054"},
{"lon":"-102.5734805","lat":"22.7632445","number":"601","street":"PROGRESO","unit":"","city":"ZACATECAS","district":"","region":"","postcode":"98070"},
{"lon":"-103.04212","lat":"23.8170526","number":"0","street":"RÍO BRAVO","unit":"","city":"RÍO GRANDE","district":"","region":"","postcode":"98400"},
{"lon":"-102.5144662","lat":"22.7378695","number":"50","street":"LIBRAMIENTO TRÁNSITO PESADO","unit":"","city":"GUADALUPE","district":"","region":"","postcode":"98605"},
{"lon":"-102.8555617","lat":"23.2100018","number":"0","street":"NINGUNO","unit":"","city":"FRESNILLO","district":"","region":"","postcode":"99000"},
{"lon":"-102.8653851","lat":"23.1721212","number":"303","street":"ARTEAGA","unit":"","city":"FRESNILLO","district":"","region":"","postcode":"99000"},
{"lon":"-103.6247151","lat":"23.6468059","number":"0","street":"NINGUNO","unit":"","city":"SOMBRERETE","district":"","region":"","postcode":"99100"},
{"lon":"-102.5235011","lat":"22.7459066","number":"48","street":"SAN JOSÉ DE GRACIA","unit":"","city":"GUADALUPE","district":"","region":"","postcode":"98600"},
{"lon":"-102.97986","lat":"21.6387536","number":"907","street":"REVOLUCIÓN NORTE","unit":"","city":"JALPA","district":"","region":"","postcode":"99601"},
{"lon":"-103.6346946","lat":"23.6404628","number":"80","street":"NUEVA","unit":"","city":"SOMBRERETE","district":"","region":"","postcode":"99100"},
{"lon":"-102.5244443","lat":"22.7555699","number":"5","street":"5 DE MAYO","unit":"","city":"GUADALUPE","district":"","region":"","postcode":"98610"},
{"lon":"-102.4183965","lat":"22.7839385","number":"7","street":"DEL DIF","unit":"","city":"GUADALUPE","district":"","region":"","postcode":"98631"},
{"lon":"-102.5712023","lat":"22.7593741","number":"108","street":"5","unit":"","city":"ZACATECAS","district":"","region":"","postcode":"98090"},
{"lon":"-102.5510515","lat":"22.7614054","number":"23","street":"PASEO FRANCISCO GARCÍA SALINAS","unit":"","city":"ZACATECAS","district":"","region":"","postcode":"98600"},
{"lon":"-102.4800396","lat":"22.7596675","number":"150","street":"VILLA DE NUESTRA SEÑORA DE LA ASUNCIÓN","unit":"","city":"GUADALUPE","district":"","region":"","postcode":"98600"},
{"lon":"-102.5205838","lat":"22.758649","number":"1","street":"CERRO DE LA VIRGEN","unit":"","city":"GUADALUPE","district":"","region":"","postcode":"98610"},
{"lon":"-102.5059234","lat":"22.7586408","number":"38","street":"PEDRO RUÍZ GONZÁLEZ","unit":"","city":"GUADALUPE","district":"","region":"","postcode":"98600"},
{"lon":"-102.5236698","lat":"22.7525995","number":"0","street":"HEROICO COLEGIO MILITAR","unit":"","city":"GUADALUPE","district":"","region":"","postcode":"98614"},
{"lon":"-102.9924391","lat":"22.6501112","number":"19","street":"ROSALES","unit":"","city":"JEREZ","district":"","region":"","postcode":"99300"},
{"lon":"-101.5827668","lat":"22.2870717","number":"0","street":"NINGUNO","unit":"","city":"PINOS","district":"","region":"","postcode":"98920"},
{"lon":"-103.6069444","lat":"21.2244444","number":"6","street":"J. RUIZ","unit":"","city":"TEÚL DE GONZÁLEZ ORTEGA","district":"","region":"","postcode":"99814"},
{"lon":"-103.0277786","lat":"23.8303579","number":"0","street":"5 DE FEBRERO","unit":"","city":"RÍO GRANDE","district":"","region":"","postcode":"98422"},
{"lon":"-102.8697257","lat":"23.1826517","number":"27","street":"HOMBRES ILUSTRES","unit":"","city":"FRESNILLO","district":"","region":"","postcode":"99020"},
{"lon":"-102.6883008","lat":"21.3907119","number":"0","street":"PINO SUÁREZ","unit":"","city":"APULCO","district":"","region":"","postcode":"99920"},
{"lon":"-102.8659355","lat":"23.1752327","number":"39","street":"NARCISO MENDOZA","unit":"","city":"FRESNILLO","district":"","region":"","postcode":"99000"},
{"lon":"-102.9629814","lat":"23.4517169","number":"18","street":"NINGUNO","unit":"","city":"FRESNILLO","district":"","region":"","postcode":"99188"},
{"lon":"-102.5877459","lat":"22.7649604","number":"0","street":"CERRO PAPANTÓN","unit":"","city":"ZACATECAS","district":"","region":"","postcode":"98053"},
{"lon":"-102.983077","lat":"22.6529303","number":"40","street":"GALEANA","unit":"","city":"JEREZ","district":"","region":"","postcode":"99300"},
{"lon":"-102.9778823","lat":"22.6492341","number":"0","street":"GUILLERMO PRIETO","unit":"","city":"JEREZ","district":"","region":"","postcode":"99340"},
{"lon":"-102.985213","lat":"22.6553893","number":"11","street":"GUADALUPE","unit":"","city":"JEREZ","district":"","region":"","postcode":"99310"},
{"lon":"-102.5889059","lat":"22.7446602","number":"621","street":"SIERRA MADRE","unit":"","city":"ZACATECAS","district":"","region":"","postcode":"98085"},
{"lon":"-103.3916143","lat":"24.2941171","number":"83","street":"CENTENARIO SUR","unit":"","city":"JUAN ALDAMA","district":"","region":"","postcode":"98300"},
{"lon":"-102.8604387","lat":"23.1919984","number":"713","street":"PLATEROS","unit":"","city":"FRESNILLO","district":"","region":"","postcode":"99059"},
{"lon":"-102.862268","lat":"23.1718486","number":"0","street":"OLIVO","unit":"","city":"FRESNILLO","district":"","region":"","postcode":"99000"},
{"lon":"-102.8486375","lat":"23.188537","number":"0","street":"DEL SOL","unit":"","city":"FRESNILLO","district":"","region":"","postcode":"99059"},
{"lon":"-102.8499035","lat":"23.1720131","number":"620","street":"FRANCISCO VILLA","unit":"","city":"FRESNILLO","district":"","region":"","postcode":"99054"},
{"lon":"-102.8782698","lat":"23.1730769","number":"410","street":"ENRIQUE ESTRADA","unit":"","city":"FRESNILLO","district":"","region":"","postcode":"99060"},
{"lon":"-102.8861928","lat":"23.171242","number":"34","street":"VID","unit":"","city":"FRESNILLO","district":"","region":"","postcode":"99086"},
{"lon":"-102.508961","lat":"22.751868","number":"66","street":"FELIPE ÁNGELES","unit":"","city":"GUADALUPE","district":"","region":"","postcode":"98613"},
{"lon":"-102.5270975","lat":"22.7504442","number":"0","street":"EL SALERO","unit":"","city":"GUADALUPE","district":"","region":"","postcode":"98600"},
{"lon":"-102.4790371","lat":"22.7609863","number":"85","street":"VILLA DE GUADALUPE","unit":"","city":"GUADALUPE","district":"","region":"","postcode":"98600"},
{"lon":"-102.6014303","lat":"22.7512831","number":"106","street":"SEGUNDA DE MATAMOROS","unit":"","city":"ZACATECAS","district":"","region":"","postcode":"98160"},
{"lon":"-102.6998766","lat":"22.952678","number":"186","street":"ABASOLO NORTE","unit":"","city":"CALERA","district":"","region":"","postcode":"98500"},
{"lon":"-102.4986755","lat":"22.7343152","number":"23","street":"MINA DE LA VALENCIANA","unit":"","city":"GUADALUPE","district":"","region":"","postcode":"98604"},
{"lon":"-103.0375256","lat":"23.8179105","number":"0","street":"LOS 7 MARES","unit":"","city":"RÍO GRANDE","district":"","region":"","postcode":"98400"},
{"lon":"-102.9640112","lat":"23.4524517","number":"0","street":"20 DE NOVIEMBRE","unit":"","city":"FRESNILLO","district":"","region":"","postcode":"99188"},
{"lon":"-102.9965352","lat":"22.6478515","number":"35","street":"ALAMEDA PONIENTE","unit":"","city":"JEREZ","district":"","region":"","postcode":"99300"},
{"lon":"-102.6993462","lat":"22.9421582","number":"0","street":"URUGUAY","unit":"","city":"CALERA","district":"","region":"","postcode":"98500"},
{"lon":"-102.4985966","lat":"22.7549028","number":"0","street":"DE DERECHO","unit":"","city":"GUADALUPE","district":"","region":"","postcode":"98617"},
{"lon":"-102.8565132","lat":"23.1889948","number":"406","street":"EBANOS","unit":"","city":"FRESNILLO","district":"","region":"","postcode":"99059"},
{"lon":"-102.9766027","lat":"21.6419915","number":"1136","street":"JUÁREZ","unit":"","city":"JALPA","district":"","region":"","postcode":"99601"},
{"lon":"-103.6422522","lat":"23.6376084","number":"51","street":"JESÚS ARECHIGA","unit":"","city":"SOMBRERETE","district":"","region":"","postcode":"99100"},
{"lon":"-102.4910526","lat":"22.768229","number":"234","street":"SEGUNDA LOS BARONES","unit":"","city":"GUADALUPE","district":"","region":"","postcode":"98612"},
{"lon":"-103.445661","lat":"24.2902999","number":"5","street":"PRIMERA DE CONSTITUCIÓN","unit":"","city":"MIGUEL AUZA","district":"","region":"","postcode":"98330"},
{"lon":"-102.5951899","lat":"22.7698879","number":"215","street":"ALEJANDRO VOLTA","unit":"","city":"ZACATECAS","district":"","region":"","postcode":"98057"},
{"lon":"-103.5618026","lat":"22.3012429","number":"12","street":"REVERIANO REYES","unit":"","city":"MONTE ESCOBEDO","district":"","region":"","postcode":"99400"},