{"lon":"42.903651","lat":"50.4039932","number":"142","street":"улица Свердлова","unit":"","city":"Панфилово","district":"Новоаннинский муниципальный район","region":"","postcode":"403990"},
{"lon":"42.9856877","lat":"50.369254","number":"44а","street":"улица Центральная","unit":"","city":"Новосельский","district":"Новоаннинский муниципальный район","region":"","postcode":"403995"},
{"lon":"42.5574227","lat":"50.8410516","number":"25","street":"улица Восточная","unit":"","city":"Куликовский","district":"Новониколаевский муниципальный район","region":"","postcode":"403930"},
{"lon":"42.9001046","lat":"50.4064559","number":"112","street":"улица Свердлова","unit":"","city":"Панфилово","district":"Новоаннинский муниципальный район","region":"","postcode":"403990"},
{"lon":"42.6358457","lat":"50.8074715","number":"3","street":"улица Береговая","unit":"","city":"Баклановский","district":"Новониколаевский муниципальный район","region":"","postcode":"403930"},
{"lon":"42.9361044","lat":"50.4224812","number":"6","street":"улица Зеленая","unit":"","city":"\"с-за \"\"АМО\"\"\"","district":"Новоаннинский муниципальный район","region":"","postcode":"403991"},
{"lon":"42.6341244","lat":"50.8106272","number":"15","street":"улица Береговая","unit":"","city":"Баклановский","district":"Новониколаевский муниципальный район","region":"","postcode":"403930"},
{"lon":"42.663934","lat":"51.0882041","number":"32","street":"Зеленая","unit":"","city":"Верхнекардаильский","district":"Новониколаевский муниципальный район","region":"","postcode":"403923"},
{"lon":"42.6792074","lat":"51.0852295","number":"4","street":"Речная","unit":"","city":"Верхнекардаильский","district":"Новониколаевский муниципальный район","region":"","postcode":"403923"},
{"lon":"44.1889481","lat":"48.0693989","number":"112","street":"улица Гордиенко","unit":"","city":"Абганерово","district":"Октябрьский муниципальный район","region":"","postcode":"404302"},
{"lon":"43.149272","lat":"50.7816702","number":"23","street":"улица Советская","unit":"","city":"Песчановка","district":"Киквидзенский муниципальный район","region":"","postcode":"403231"},
{"lon":"43.2239799","lat":"50.7698874","number":"9","street":"улица Молодежная","unit":"","city":"Озерки","district":"Киквидзенский муниципальный район","region":"","postcode":"403238"},
{"lon":"42.8042846","lat":"50.6809419","number":"44","street":"улица МОЛОДЕЖНАЯ","unit":"","city":"АЛЬСЯПИНСКИЙ","district":"Новоаннинский муниципальный район","region":"","postcode":"403982"},
{"lon":"43.2223772","lat":"50.7700487","number":"10","street":"улица Молодежная","unit":"","city":"Озерки","district":"Киквидзенский муниципальный район","region":"","postcode":"403238"},
{"lon":"43.2253892","lat":"50.771426","number":"1","street":"улица Садовая","unit":"","city":"Озерки","district":"Киквидзенский муниципальный район","region":"","postcode":"403238"},
{"lon":"42.8235887","lat":"50.4192262","number":"28","street":"улица Хуторская","unit":"","city":"\"с-за \"\"АМО\"\"\"","district":"Новоаннинский муниципальный район","region":"","postcode":"403990"},
{"lon":"43.2097021","lat":"50.7729969","number":"60","street":"улица Садовая","unit":"","city":"Озерки","district":"Киквидзенский муниципальный район","region":"","postcode":"403238"},
{"lon":"44.1923778","lat":"48.0841743","number":"2","street":"улица Молодёжная","unit":"","city":"Абганерово","district":"Октябрьский муниципальный район","region":"","postcode":"404302"},
{"lon":"43.0401492","lat":"50.8171493","number":"58","street":"улица Придорожная","unit":"","city":"Завязка","district":"Киквидзенский муниципальный район","region":"","postcode":"403227"},
{"lon":"44.1903176","lat":"48.0830256","number":"4/2/2","street":"улица Титова","unit":"","city":"Абганерово","district":"Октябрьский муниципальный район","region":"","postcode":"404302"},
{"lon":"43.2372089","lat":"50.7735321","number":"13","street":"улица Советская","unit":"","city":"Озерки","district":"Киквидзенский муниципальный район","region":"","postcode":"403238"},
{"lon":"46.3900827","lat":"50.4231","number":"Склад","street":"улица","unit":"","city":"Новая Полтавка","district":"Старополтавский муниципальный район","region":"","postcode":"404215"},
{"lon":"44.1909909","lat":"48.0862249","number":"23","street":"улица Титова","unit":"","city":"Абганерово","district":"Октябрьский муниципальный район","region":"","postcode":"404302"},
{"lon":"42.8149227","lat":"50.6878559","number":"12","street":"улица БУЗУЛУКСКАЯ","unit":"","city":"АЛЬСЯПИНСКИЙ","district":"Новоаннинский муниципальный район","region":"","postcode":"403982"},
{"lon":"42.8476641","lat":"50.7350013","number":"35","street":"улица ДОНСКАЯ","unit":"","city":"ГАЛУШКИНСКИЙ","district":"Новоаннинский муниципальный район","region":"","postcode":"403982"},
{"lon":"42.8413544","lat":"50.740949","number":"30","street":"улица ДОНСКАЯ","unit":"","city":"ГАЛУШКИНСКИЙ","district":"Новоаннинский муниципальный район","region":"","postcode":"403982"},
{"lon":"46.39025","lat":"50.5041545","number":"Кошара","street":"улица","unit":"","city":"Старая Полтавка","district":"Старополтавский муниципальный район","region":"","postcode":"404211"},
{"lon":"42.5495594","lat":"50.5490884","number":"18/2","street":"улица Центральная","unit":"","city":"Березовка 2-я","district":"Новоаннинский муниципальный район","region":"","postcode":"403976"},
{"lon":"42.8867411","lat":"50.4135615","number":"24","street":"улица Свердлова","unit":"","city":"Панфилово","district":"Новоаннинский муниципальный район","region":"","postcode":"403990"},
{"lon":"42.7044275","lat":"50.5328095","number":"8","street":"улица Степная","unit":"","city":"Новоаннинский","district":"Новоаннинский муниципальный район","region":"","postcode":"403955"},
{"lon":"44.0549286","lat":"47.9766697","number":"11/1","street":"улица гагарина","unit":"","city":"шелестово","district":"Октябрьский муниципальный район","region":"","postcode":"404312"},
{"lon":"42.9878778","lat":"50.3730634","number":"32","street":"улица Рабочая","unit":"","city":"Новосельский","district":"Новоаннинский муниципальный район","region":"","postcode":"403995"},
{"lon":"42.8416582","lat":"50.7458341","number":"9","street":"улица ЦЕНТРАЛЬНАЯ","unit":"","city":"ГАЛУШКИНСКИЙ","district":"Новоаннинский муниципальный район","region":"","postcode":"403982"},
{"lon":"43.4507429","lat":"47.9867507","number":"30","street":"улица Раздольная","unit":"","city":"Чиков","district":"Октябрьский муниципальный район","region":"","postcode":"404331"},
{"lon":"43.518126","lat":"47.9959914","number":"9/2","street":"улица Лиманная","unit":"","city":"Чиков","district":"Октябрьский муниципальный район","region":"","postcode":"404331"},
{"lon":"43.4121298","lat":"47.9799173","number":"29","street":"улица Дружбы","unit":"","city":"Водянский","district":"Октябрьский муниципальный район","region":"","postcode":"404331"},
{"lon":"43.4463753","lat":"47.9871151","number":"13","street":"переулок Казачий","unit":"","city":"Чиков","district":"Октябрьский муниципальный район","region":"","postcode":"404331"},
{"lon":"43.0241084","lat":"49.3375717","number":"16","street":"улица Печерских","unit":"","city":"Караженский","district":"Клетский муниципальный район","region":"","postcode":"403562"},
{"lon":"42.8471755","lat":"49.4036442","number":"14","street":"улица Степная","unit":"","city":"Распопинская","district":"Клетский муниципальный район","region":"","postcode":"403576"},
{"lon":"47.1597507","lat":"50.1098258","number":"15","street":"улица Центральная","unit":"","city":"Смычка","district":"Палласовский муниципальный район","region":"","postcode":"404231"},
{"lon":"44.7795264","lat":"50.4768095","number":"15","street":"Заречная","unit":"","city":"Слюсарево","district":"Котельниковский муниципальный район","region":"","postcode":"403827"},
{"lon":"44.7917257","lat":"50.4788829","number":"36","street":"Садовая","unit":"","city":"Слюсарево","district":"Котовский муниципальный район","region":"","postcode":"403827"},
{"lon":"44.4488917","lat":"50.4453565","number":"19","street":"улица Первомайская","unit":"","city":"Островская","district":"Даниловский муниципальный район","region":"","postcode":"403391"},
{"lon":"44.9270029","lat":"49.0273157","number":"20/2","street":"переулок Ленинградский","unit":"","city":"Рахинка","district":"Среднеахтубинский муниципальный район","region":"","postcode":"404145"},
{"lon":"44.4512999","lat":"50.4471008","number":"27","street":"улица Луговая","unit":"","city":"Островская","district":"Даниловский муниципальный район","region":"","postcode":"403391"},
{"lon":"44.9216437","lat":"49.017379","number":"45","street":"улица Советская","unit":"","city":"Рахинка","district":"Среднеахтубинский муниципальный район","region":"","postcode":"404145"},
{"lon":"44.7007093","lat":"48.6509849","number":"3","street":"Раздольная","unit":"","city":"Закутский","district":"Среднеахтубинский муниципальный район","region":"","postcode":"404152"},
{"lon":"44.6329358","lat":"48.7043835","number":"2","street":"переулок Школьный","unit":"","city":"Госпитомник","district":"Среднеахтубинский муниципальный район","region":"","postcode":"404159"},
{"lon":"44.9190211","lat":"49.0171097","number":"41","street":"улица Садовая","unit":"","city":"Рахинка","district":"Среднеахтубинский муниципальный район","region":"","postcode":"404145"},
{"lon":"44.6284897","lat":"48.7030381","number":"25/1","street":"Дружбы","unit":"","city":"Госпитомник","district":"Среднеахтубинский муниципальный район","region":"","postcode":"404159"},
{"lon":"44.9191018","lat":"49.0145931","number":"32","street":"улица Садовая","unit":"","city":"Рахинка","district":"Среднеахтубинский муниципальный район","region":"","postcode":"404145"},
{"lon":"44.0659289","lat":"50.1707745","number":"38","street":"Набережная","unit":"","city":"Атамановка","district":"Даниловский муниципальный район","region":"","postcode":"403388"},
{"lon":"44.6628203","lat":"48.7032531","number":"31","street":"Зеленая","unit":"","city":"Бурковский","district":"Среднеахтубинский муниципальный район","region":"","postcode":"404151"},
{"lon":"44.6626447","lat":"48.6975519","number":"7/2","street":"улица Заречная","unit":"","city":"Бурковский","district":"Среднеахтубинский муниципальный район","region":"","postcode":"404151"},
{"lon":"44.6672275","lat":"48.7059301","number":"1","street":"Набережный","unit":"","city":"Бурковский","district":"Среднеахтубинский муниципальный район","region":"","postcode":"404151"},
{"lon":"44.883363","lat":"50.5229682","number":"12","street":"Набережная","unit":"","city":"Крячки","district":"Котовский муниципальный район","region":"","postcode":"403822"},
{"lon":"44.7749699","lat":"50.4824979","number":"35","street":"Советская","unit":"","city":"слюсарево","district":"Котовский муниципальный район","region":"","postcode":"403827"},
{"lon":"44.9226721","lat":"49.0194395","number":"56/2","street":"улица Советская","unit":"","city":"Рахинка","district":"Среднеахтубинский муниципальный район","region":"","postcode":"404145"},
{"lon":"44.927499","lat":"49.0262794","number":"93","street":"улица 60 лет Октября","unit":"","city":"Рахинка","district":"Среднеахтубинский муниципальный район","region":"","postcode":"404145"},
{"lon":"44.9952981","lat":"50.4649868","number":"52","street":"Октябрьская","unit":"","city":"Мокрая Ольховка","district":"Котовский муниципальный район","region":"","postcode":"403820"},
{"lon":"44.8906405","lat":"48.6152873","number":"10","street":"переулок Дядькина","unit":"","city":"Суходол","district":"Среднеахтубинский муниципальный район","region":"","postcode":"404147"},
{"lon":"43.8221401","lat":"50.4969432","number":"14","street":"улица Совесткая","unit":"","city":"Профсоюзник","district":"Даниловский муниципальный район","region":"","postcode":"403383"},
{"lon":"44.8925372","lat":"48.6850118","number":"7/2","street":"улица Вишневая","unit":"","city":"Красный Сад","district":"Среднеахтубинский муниципальный район","region":"","postcode":"404148"},
{"lon":"44.742016","lat":"50.2088959","number":"17","street":"Кирова","unit":"","city":"Моисеево","district":"Котовский муниципальный район","region":"","postcode":"403807"},
{"lon":"44.9950237","lat":"50.4641352","number":"58","street":"Октябрьская","unit":"","city":"Мокрая Ольховка","district":"Котовский муниципальный район","region":"","postcode":"403820"},
{"lon":"44.920227","lat":"48.9778618","number":"1/2","street":"улица Зеленая","unit":"","city":"Волжанка","district":"Среднеахтубинский муниципальный район","region":"","postcode":"404164"},
{"lon":"44.0676592","lat":"50.1714384","number":"16","street":"Калиновская","unit":"","city":"Атамановка","district":"Даниловский муниципальный район","region":"","postcode":"403388"},
{"lon":"44.6617724","lat":"50.5970922","number":"20","street":"Широкая","unit":"","city":"Мирошники","district":"Котовский муниципальный район","region":"","postcode":"403824"},
{"lon":"44.726837","lat":"50.2152659","number":"38","street":"Горького","unit":"","city":"Моисеево","district":"Котовский муниципальный район","region":"","postcode":"403807"},
{"lon":"43.8202646","lat":"50.4855903","number":"5","street":"улица Народная","unit":"","city":"Семибратовский","district":"Даниловский муниципальный район","region":"","postcode":"403383"},
{"lon":"44.7456773","lat":"50.2076911","number":"41","street":"Кирова","unit":"","city":"Моисеево","district":"Котовский муниципальный район","region":"","postcode":"403807"},
{"lon":"44.4542928","lat":"50.4459859","number":"43","street":"улица Луговая","unit":"","city":"Островская","district":"Даниловский муниципальный район","region":"","postcode":"403391"},
{"lon":"44.7494754","lat":"50.2043783","number":"64","street":"Кирова","unit":"","city":"Моисеево","district":"Котовский муниципальный район","region":"","postcode":"403807"},
{"lon":"44.7516739","lat":"50.2054022","number":"5","street":"переулок Степной","unit":"","city":"Моисеево","district":"Котовский муниципальный район","region":"","postcode":"403807"},
{"lon":"44.7361355","lat":"50.5582076","number":"26","street":"Победы","unit":"","city":"Дорошево","district":"Котовский муниципальный район","region":"","postcode":"403823"},
{"lon":"44.9935676","lat":"50.4722989","number":"3","street":"Октябрьская","unit":"","city":"Мокрая Ольховка","district":"Котовский муниципальный район","region":"","postcode":"403820"},
{"lon":"44.7467625","lat":"50.2042678","number":"7","street":"переулок Южный","unit":"","city":"Моисеево","district":"Котовский муниципальный район","region":"","postcode":"403807"},
{"lon":"45.0008821","lat":"50.3620548","number":"3","street":"школьная","unit":"","city":"ж/д_ст Лапшинская","district":"Котовский муниципальный район","region":"","postcode":"403811"},
{"lon":"43.8270426","lat":"50.4961809","number":"8","street":"переулок Набережный","unit":"","city":"Профсоюзник","district":"Даниловский муниципальный район","region":"","postcode":"403383"},
{"lon":"44.8803742","lat":"48.6186539","number":"1","street":"улица заречная","unit":"","city":"суходол","district":"Среднеахтубинский муниципальный район","region":"","postcode":"404147"},
{"lon":"44.4540272","lat":"50.445667","number":"3","street":"улица Комсомольская","unit":"","city":"Островская","district":"Даниловский муниципальный район","region":"","postcode":"403391"},
{"lon":"44.8506886","lat":"48.721881","number":"21","street":"Рабочая","unit":"","city":"Средняя Ахтуба","district":"Среднеахтубинский муниципальный район","region":"","postcode":"404143"},
{"lon":"44.6607273","lat":"48.710543","number":"51","street":"Мира","unit":"","city":"Бурковский","district":"Среднеахтубинский муниципальный район","region":"","postcode":"404151"},
{"lon":"43.8214422","lat":"50.4984852","number":"1/1","street":"улица Пионерская","unit":"","city":"Профсоюзник","district":"Даниловский муниципальный район","region":"","postcode":"4033383"},
{"lon":"44.9169631","lat":"48.6336469","number":"4","street":"улица Речная","unit":"","city":"Максима Горького","district":"Среднеахтубинский муниципальный район","region":"","postcode":"404147"},
{"lon":"44.7758107","lat":"50.5571679","number":"32","street":"Майская","unit":"","city":"Тарасово","district":"Котовский муниципальный район","region":"","postcode":"403823"},
{"lon":"44.9491312","lat":"48.5678571","number":"7","street":"улица Булгаков","unit":"","city":"Булгаков","district":"Среднеахтубинский муниципальный район","region":"","postcode":"404147"},
{"lon":"44.6509502","lat":"50.5989487","number":"3","street":"Мира","unit":"","city":"Мирошники","district":"Котовский муниципальный район","region":"","postcode":"403824"},
{"lon":"44.8950085","lat":"48.6771332","number":"1","street":"улица Озерная","unit":"","city":"Красный Сад","district":"Среднеахтубинский муниципальный район","region":"","postcode":"404148"},
{"lon":"44.9216661","lat":"49.0098836","number":"8","street":"улица Советская","unit":"","city":"Рахинка","district":"Среднеахтубинский муниципальный район","region":"","postcode":"404145"},
{"lon":"44.6251207","lat":"48.6895824","number":"7","street":"Приозерная","unit":"","city":"Сахарный","district":"Среднеахтубинский муниципальный район","region":"","postcode":"404161"},
{"lon":"44.5046741","lat":"50.1866699","number":"4","street":"Больничная","unit":"","city":"Попки","district":"Котовский муниципальный район","region":"","postcode":"403806"},
{"lon":"44.8573293","lat":"48.6832011","number":"11е","street":"Промышленная","unit":"","city":"Куйбышев","district":"Среднеахтубинский муниципальный район","region":"","postcode":"404146"},
{"lon":"44.658108","lat":"50.5725904","number":"8","street":"Луговая","unit":"","city":"Гордиенки","district":"Котовский муниципальный район","region":"","postcode":"403824"},
{"lon":"44.820673","lat":"48.7016079","number":"1/2","street":"улица Садовая","unit":"","city":"Колхозная Ахтуба","district":"Среднеахтубинский муниципальный район","region":"","postcode":"404143"},
{"lon":"44.7276935","lat":"48.7643458","number":"3/2","street":"улица Юности","unit":"","city":"Кировец","district":"Среднеахтубинский муниципальный район","region":"","postcode":"404150"},
{"lon":"44.727766","lat":"48.7632006","number":"14/1","street":"улица Ахтубинская","unit":"","city":"Кировец","district":"Среднеахтубинский муниципальный район","region":"","postcode":"404150"},
{"lon":"44.6497676","lat":"48.7102184","number":"7","street":"Новоселов","unit":"","city":"Маслово","district":"Среднеахтубинский муниципальный район","region":"","postcode":"404151"},
{"lon":"44.8092719","lat":"48.7161429","number":"51/2","street":"улица веселая","unit":"","city":"Колхозная Ахтуба","district":"Среднеахтубинский муниципальный район","region":"","postcode":"404143"},
{"lon":"44.8114607","lat":"48.7148305","number":"63/2","street":"улица центральная","unit":"","city":"Колхозная Ахтуба","district":"Среднеахтубинский муниципальный район","region":"","postcode":"404143"},
{"lon":"44.9519961","lat":"48.5670873","number":"11","street":"улица Лесная","unit":"","city":"Суходол","district":"Среднеахтубинский муниципальный район","region":"","postcode":"404147"},
{"lon":"44.8442587","lat":"48.7036468","number":"6","street":"улица заречная","unit":"","city":"Колхозная Ахтуба","district":"Среднеахтубинский муниципальный район","region":"","postcode":"404143"},
{"lon":"44.8433436","lat":"48.6855917","number":"10/1","street":"Байкальская","unit":"","city":"Куйбышев","district":"Среднеахтубинский муниципальный район","region":"","postcode":"404146"},
{"lon":"44.9889215","lat":"50.4751704","number":"16","street":"Куйбышева","unit":"","city":"Мокрая Ольховка","district":"Котовский муниципальный район","region":"","postcode":"403820"},
{"lon":"44.818118","lat":"48.6956916","number":"9/2","street":"улица Садовая","unit":"","city":"п . Колхозная Ахтуба","district":"Среднеахтубинский муниципальный район","region":"","postcode":"404143"},
{"lon":"45.0717281","lat":"50.2172254","number":"4А","street":"Центральная","unit":"","city":"Авилово","district":"Котовский муниципальный район","region":"","postcode":"403815"},
{"lon":"44.1083932","lat":"50.3535826","number":"80","street":"улица Октябрьская","unit":"","city":"Даниловка","district":"Даниловский муниципальный район","region":"","postcode":"403371"},
{"lon":"44.851932","lat":"48.6792316","number":"29","street":"турусова","unit":"","city":"куйбышев","district":"Среднеахтубинский муниципальный район","region":"","postcode":"404146"},
{"lon":"44.8575936","lat":"48.6437617","number":"27/2","street":"Центральная","unit":"","city":"Кочетково","district":"Среднеахтубинский муниципальный район","region":"","postcode":"404146"},
{"lon":"44.7948344","lat":"48.7150447","number":"3/1","street":"улица Центральная","unit":"","city":"Колхозная Ахтуба","district":"Среднеахтубинский муниципальный район","region":"","postcode":"404143"},
{"lon":"44.8578008","lat":"48.643395","number":"25/3","street":"Центральная","unit":"","city":"Кочетково","district":"Среднеахтубинский муниципальный район","region":"","postcode":"404146"},
{"lon":"44.852453","lat":"48.583248","number":"18","street":"улица речная","unit":"","city":"чапаевец","district":"Среднеахтубинский муниципальный район","region":"","postcode":"404147"},
{"lon":"44.6631262","lat":"48.7010242","number":"14","street":"Тополевая","unit":"","city":"Бурковский","district":"Среднеахтубинский муниципальный район","region":"","postcode":"404151"},
{"lon":"44.2485215","lat":"50.1948798","number":"12","street":"Заречная","unit":"","city":"Кувшинов","district":"Даниловский муниципальный район","region":"","postcode":"403387"},
{"lon":"45.0704642","lat":"50.2198877","number":"18","street":"Заречная","unit":"","city":"Авилово","district":"Котовский муниципальный район","region":"","postcode":"403815"},
{"lon":"44.8822805","lat":"48.6174321","number":"6/1","street":"улица Советская","unit":"","city":"Суходол","district":"Среднеахтубинский муниципальный район","region":"","postcode":"404147"},
{"lon":"45.009985","lat":"50.3182448","number":"2","street":"Советская","unit":"","city":"купцово","district":"Котовский муниципальный район","region":"","postcode":"403812"},
{"lon":"44.7246239","lat":"48.6607228","number":"19","street":"двойная","unit":"","city":"великий октябрь","district":"Среднеахтубинский муниципальный район","region":"","postcode":"404158"},
{"lon":"44.7932866","lat":"48.7168276","number":"1а/1","street":"улица Веселая","unit":"","city":"Колхозная Ахтуба","district":"Среднеахтубинский муниципальный район","region":"","postcode":"404143"},
{"lon":"44.5362914","lat":"50.620424","number":"12","street":"Карла Маркса","unit":"","city":"Сосновка","district":"Котовский муниципальный район","region":"","postcode":"403825"},
{"lon":"44.8545401","lat":"48.5898473","number":"1а","street":"улица Садовая","unit":"","city":"Чапаевец","district":"Среднеахтубинский муниципальный район","region":"","postcode":"404147"},
{"lon":"44.8014237","lat":"48.6650271","number":"2а","street":"Заречная","unit":"","city":"Каширин","district":"Среднеахтубинский муниципальный район","region":"","postcode":"404146"},
{"lon":"44.9891925","lat":"50.4810505","number":"7Б","street":"8 Марта","unit":"","city":"Мокрая Ольховка","district":"Котовский муниципальный район","region":"","postcode":"403820"},
{"lon":"44.238232","lat":"50.1889946","number":"10","street":"Центральная","unit":"","city":"Кувшинов","district":"Даниловский муниципальный район","region":"","postcode":"403387"},
{"lon":"44.9409917","lat":"50.1813173","number":"45Б","street":"улица Школьная","unit":"","city":"Коростино","district":"Котовский муниципальный район","region":"","postcode":"403809"},
{"lon":"44.9130585","lat":"48.6178554","number":"8/2","street":"улица Суходольская","unit":"","city":"Суходол","district":"Среднеахтубинский муниципальный район","region":"","postcode":"404147"},
{"lon":"44.2137368","lat":"50.4624275","number":"83","street":"Народная","unit":"","city":"Лобойково","district":"Даниловский муниципальный район","region":"","postcode":"403380"},
{"lon":"44.5417452","lat":"50.6226988","number":"6","street":"Центральный","unit":"","city":"Сосновка","district":"Котовский муниципальный район","region":"","postcode":"403825"},
{"lon":"45.1017945","lat":"50.1982023","number":"16А","street":"Центральная","unit":"","city":"Новониколаевка","district":"Котовский муниципальный район","region":"","postcode":"403815"},
{"lon":"44.8112753","lat":"48.6296363","number":"40","street":"Вишневая","unit":"","city":"Красный","district":"Среднеахтубинский муниципальный район","region":"","postcode":"404146"},
{"lon":"47.2076572","lat":"50.3012959","number":"3/1","street":"улица Почтовая","unit":"","city":"Торгун","district":"Старополтавский муниципальный район","region":"","postcode":"404202"},
{"lon":"44.2167226","lat":"50.4581147","number":"39","street":"Молодёжная","unit":"","city":"Лобойково","district":"Даниловский муниципальный район","region":"","postcode":"403380"},
{"lon":"45.0028246","lat":"50.3167449","number":"441","street":"Ленина","unit":"","city":"Купцово","district":"Котовский муниципальный район","region":"","postcode":"403812"},
{"lon":"45.115033","lat":"50.351004","number":"1","street":"комсомольская","unit":"","city":"с Смородино","district":"Котовский муниципальный район","region":"","postcode":"403813"},
{"lon":"45.099271","lat":"50.1972035","number":"23","street":"Центральная","unit":"","city":"Новониколаевка","district":"Котовский муниципальный район","region":"","postcode":"403815"},
{"lon":"44.1292388","lat":"50.3336218","number":"24","street":"улица Рабочая","unit":"","city":"Красный","district":"Даниловский муниципальный район","region":"","postcode":"403395"},
{"lon":"45.1020078","lat":"50.1990365","number":"9","street":"Центральная","unit":"","city":"Новониколаевка","district":"Котовский муниципальный район","region":"","postcode":"403815"},
{"lon":"44.4814352","lat":"50.1796808","number":"28","street":"Садовая","unit":"","city":"Попки","district":"Котовский муниципальный район","region":"","postcode":"403806"},
{"lon":"44.1310472","lat":"50.3320849","number":"10","street":"тупик Рабочая","unit":"","city":"Красный","district":"Даниловский муниципальный район","region":"","postcode":"403395"},
{"lon":"44.7964371","lat":"48.7186613","number":"4","street":"улица береговая","unit":"","city":"Колхозная Ахтуба","district":"Среднеахтубинский муниципальный район","region":"","postcode":"404143"},
{"lon":"44.1334123","lat":"50.3322099","number":"6","street":"улица Центральная","unit":"","city":"Красный","district":"Даниловский муниципальный район","region":"","postcode":"403395"},
{"lon":"44.7391233","lat":"48.7384059","number":"24","street":"улица центральная","unit":"","city":"Тутов","district":"Среднеахтубинский муниципальный район","region":"","postcode":"404143"},
{"lon":"44.1049104","lat":"50.3551237","number":"121","street":"улица Октябрьская","unit":"","city":"Даниловка","district":"Даниловский муниципальный район","region":"","postcode":"403371"},
{"lon":"44.9369717","lat":"50.1863414","number":"6","street":"переулок Молодежный","unit":"","city":"Коростино","district":"Котовский муниципальный район","region":"","postcode":"403809"},
{"lon":"45.3025371","lat":"49.0767087","number":"9/2","street":"улица им.О.Рыжовой","unit":"","city":"Красный Октябрь","district":"Среднеахтубинский муниципальный район","region":"","postcode":"404149"},
{"lon":"45.1040585","lat":"50.5294734","number":"16","street":"Коренная","unit":"","city":"Перещепное","district":"Котовский муниципальный район","region":"","postcode":"403821"},
{"lon":"45.0000947","lat":"50.4704048","number":"1","street":"Шмидта","unit":"","city":"Мокрая Ольховка","district":"Котовский муниципальный район","region":"","postcode":"403820"},
{"lon":"45.1003269","lat":"50.5267226","number":"32","street":"Зеленая","unit":"","city":"Перещепное","district":"Котовский муниципальный район","region":"","postcode":"403821"},
{"lon":"47.2105921","lat":"50.3048295","number":"5/1","street":"Октябрьская","unit":"","city":"Торгун","district":"Старополтавский муниципальный район","region":"","postcode":"404202"},
{"lon":"45.003649","lat":"50.3171805","number":"43","street":"улица Ленина","unit":"","city":"Купцово","district":"Котовский муниципальный район","region":"","postcode":"403812"},
{"lon":"45.1172096","lat":"50.352076","number":"10а","street":"комсомольская","unit":"","city":"с Смородино","district":"Котовский муниципальный район","region":"","postcode":"403813"},
{"lon":"44.8017991","lat":"48.7137951","number":"12","street":"улица центральная","unit":"","city":"Колхозная Ахтуба","district":"Среднеахтубинский муниципальный район","region":"","postcode":"404143"},
{"lon":"45.0044128","lat":"50.3136169","number":"26А","street":"Октябрьская","unit":"","city":"Купцово","district":"Котовский муниципальный район","region":"","postcode":"403812"},
{"lon":"45.1181223","lat":"50.3532656","number":"15","street":"комсомольская","unit":"","city":"с Смородино","district":"Котовский муниципальный район","region":"","postcode":"403813"},
{"lon":"47.2105466","lat":"50.3023029","number":"21","street":"Центральная","unit":"","city":"Торгун","district":"Старополтавский муниципальный район","region":"","postcode":"404202"},
{"lon":"45.1028593","lat":"50.1995796","number":"52","street":"Центральная","unit":"","city":"Новониколаевка","district":"Котовский муниципальный район","region":"","postcode":"403815"},
{"lon":"47.2118006","lat":"50.3041033","number":"16/2","street":"Первомайская","unit":"","city":"Торгун","district":"Старополтавский муниципальный район","region":"","postcode":"404202"},
{"lon":"44.8073722","lat":"48.7143987","number":"40","street":"улица центральная","unit":"","city":"Колхозная Ахтуба","district":"Среднеахтубинский муниципальный район","region":"","postcode":"404143"},
{"lon":"44.9214114","lat":"50.1861664","number":"4","street":"Новая","unit":"","city":"Коростино","district":"Котовский муниципальный район","region":"","postcode":"403809"},
{"lon":"44.9502711","lat":"50.3620337","number":"4","street":"Горная","unit":"","city":"Лобынец","district":"Котовский муниципальный район","region":"","postcode":"403811"},
{"lon":"44.7675425","lat":"48.7176512","number":"3/1","street":"улица Прямая","unit":"","city":"Новенький","district":"Среднеахтубинский муниципальный район","region":"","postcode":"404143"},
{"lon":"45.0107766","lat":"50.3172203","number":"5А","street":"Ленина","unit":"","city":"Купцово","district":"Котовский муниципальный район","region":"","postcode":"403812"},
{"lon":"44.8042203","lat":"48.6358077","number":"14б","street":"Вишневая","unit":"","city":"Красный","district":"Среднеахтубинский муниципальный район","region":"","postcode":"404146"},
{"lon":"45.0016626","lat":"50.3167064","number":"48А","street":"Ленина","unit":"","city":"Купцово","district":"Котовский муниципальный район","region":"","postcode":"403812"},
{"lon":"44.7405461","lat":"48.7414549","number":"9","street":"улица лесная","unit":"","city":"Тутов","district":"Среднеахтубинский муниципальный район","region":"","postcode":"404143"},
{"lon":"44.7028605","lat":"50.2647619","number":"55","street":"Мира","unit":"","city":"Ефимовка","district":"Котовский муниципальный район","region":"","postcode":"403816"},
{"lon":"43.9983896","lat":"50.2718173","number":"7","street":"переулок Коммунистический","unit":"","city":"Берёзовская","district":"Даниловский муниципальный район","region":"","postcode":"403385"},
{"lon":"47.2103412","lat":"50.301164","number":"6/2","street":"Почтовая","unit":"","city":"Торгун","district":"Старополтавский муниципальный район","region":"","postcode":"404202"},
{"lon":"43.9972287","lat":"50.2714608","number":"2","street":"переулок Интернациональный","unit":"","city":"Берёзовская","district":"Даниловский муниципальный район","region":"","postcode":"403385"},
{"lon":"45.1103263","lat":"50.538701","number":"10","street":"Гагарина","unit":"","city":"Перещепное","district":"Котовский муниципальный район","region":"","postcode":"403821"},
{"lon":"44.9309211","lat":"50.1820401","number":"3","street":"улица Чапаева","unit":"","city":"Коростино","district":"Котовский муниципальный район","region":"","postcode":"403809"},
{"lon":"44.9182725","lat":"49.0099829","number":"2а","street":"улица Садовая","unit":"","city":"Рахинка","district":"Среднеахтубинский муниципальный район","region":"","postcode":"404145"},
{"lon":"47.2023561","lat":"50.2954922","number":"22/1","street":"Республиканская","unit":"","city":"Торгун","district":"Старополтавский муниципальный район","region":"","postcode":"404202"},
{"lon":"44.0808441","lat":"50.1670955","number":"1","street":"Ивановская","unit":"","city":"Атамановка","district":"Даниловский муниципальный район","region":"","postcode":"403388"},
{"lon":"47.2031357","lat":"50.2950484","number":"23/2","street":"Республиканская","unit":"","city":"Торгун","district":"Старополтавский муниципальный район","region":"","postcode":"404202"},
{"lon":"44.0891381","lat":"50.1691134","number":"12","street":"Ивановская","unit":"","city":"Атамановка","district":"Даниловский муниципальный район","region":"","postcode":"403388"},
{"lon":"44.0598696","lat":"50.4235916","number":"4/2","street":"Центральная","unit":"","city":"Миусово","district":"Даниловский муниципальный район","region":"","postcode":"403384"},
{"lon":"43.0611334","lat":"47.9004577","number":"25","street":"улица Алимова","unit":"","city":"Красноярский","district":"Котельниковский муниципальный район","region":"","postcode":"404371"},
{"lon":"44.0701921","lat":"50.1697463","number":"16","street":"Садовая","unit":"","city":"Атамановка","district":"Даниловский муниципальный район","region":"","postcode":"403388"},
{"lon":"43.5406443","lat":"48.5689402","number":"28","street":"улица Ленина","unit":"","city":"Приморский","district":"Калачевский муниципальный район","region":"","postcode":"404528"},
{"lon":"43.5455952","lat":"48.5679122","number":"23","street":"улица Мира","unit":"","city":"Приморский","district":"Калачевский муниципальный район","region":"","postcode":"404528"},
{"lon":"43.538141","lat":"48.5655422","number":"5","street":"улица Солнечная","unit":"","city":"Приморский","district":"Калачевский муниципальный район","region":"","postcode":"404528"},
{"lon":"44.7886603","lat":"48.7347562","number":"65","street":"улица Зеленая","unit":"","city":"Киляковка","district":"Среднеахтубинский муниципальный район","region":"","postcode":"404143"},
{"lon":"43.1586206","lat":"47.5870741","number":"5","street":"улица Центральная","unit":"","city":"Нагольный","district":"Котельниковский муниципальный район","region":"","postcode":"404361"},
{"lon":"44.9183031","lat":"49.0204831","number":"29","street":"улица Рабочий","unit":"","city":"Рахинка","district":"Среднеахтубинский муниципальный район","region":"","postcode":"404145"},
{"lon":"44.8350654","lat":"50.2304777","number":"5","street":"Зеленая","unit":"","city":"Племхоз","district":"Котовский муниципальный район","region":"","postcode":"403808"},
{"lon":"43.2153888","lat":"48.0006956","number":"9","street":"улица Генералова","unit":"","city":"х.Генераловский","district":"Котельниковский муниципальный район","region":"","postcode":"404372"},
{"lon":"44.9985862","lat":"50.4829054","number":"31","street":"Кирова","unit":"","city":"Мокрая Ольховка","district":"Котовский муниципальный район","region":"","postcode":"403820"},
{"lon":"44.7835454","lat":"48.7342752","number":"41","street":"улица зеленая","unit":"","city":"Киляковка","district":"Среднеахтубинский муниципальный район","region":"","postcode":"404143"},
{"lon":"44.066061","lat":"50.1720431","number":"10","street":"Калиновская","unit":"","city":"Атамановка","district":"Даниловский муниципальный район","region":"","postcode":"403388"},
{"lon":"44.8327327","lat":"50.2294937","number":"18.3","street":"Зеленая","unit":"","city":"Племхоз","district":"Котовский муниципальный район","region":"","postcode":"403808"},
{"lon":"44.5159139","lat":"50.1952869","number":"35","street":"Октябрьская","unit":"","city":"Попки","district":"Котовский муниципальный район","region":"","postcode":"403806"},
{"lon":"44.7874519","lat":"48.7345875","number":"57","street":"улица Зеленая","unit":"","city":"Киляковка","district":"Среднеахтубинский муниципальный район","region":"","postcode":"404143"},
{"lon":"44.1150098","lat":"50.3537222","number":"40","street":"улица Центральная","unit":"","city":"Даниловка","district":"Даниловский муниципальный район","region":"","postcode":"403371"},
{"lon":"44.8334893","lat":"50.230749","number":"12","street":"улица Зеленая","unit":"","city":"Племхоз","district":"Котовский муниципальный район","region":"","postcode":"403808"},
{"lon":"42.8300573","lat":"47.7665627","number":"44/2","street":"улица Цимлянская","unit":"","city":"Нагавская","district":"Котельниковский муниципальный район","region":"","postcode":"404375"},
{"lon":"44.929555","lat":"50.1838402","number":"54","street":"Кирова","unit":"","city":"Коростино","district":"Котовский муниципальный район","region":"","postcode":"403809"},
{"lon":"44.0675464","lat":"50.1697642","number":"45/1","street":"Центральная","unit":"","city":"Атамановка","district":"Даниловский муниципальный район","region":"","postcode":"403388"},
{"lon":"45.8833179","lat":"50.5073271","number":"48","street":"Волжская","unit":"","city":"Иловатка","district":"Старополтавский муниципальный район","region":"","postcode":"404220"},
{"lon":"42.320374","lat":"49.3747715","number":"32","street":"улица Центральная","unit":"","city":"Большой","district":"Серафимовичский муниципальный район","region":"","postcode":" "},
{"lon":"42.3176572","lat":"49.3657153","number":"22","street":"улица Гвардейская","unit":"","city":"Большой","district":"Серафимовичский муниципальный район","region":"","postcode":" "},
{"lon":"42.3146848","lat":"49.3821224","number":"3","street":"улица Солнечная","unit":"","city":"Большой","district":"Серафимовичский муниципальный район","region":"","postcode":" "},
{"lon":"42.3261722","lat":"49.3893529","number":"6а","street":"улица Степная","unit":"","city":"Большой","district":"Серафимовичский муниципальный район","region":"","postcode":" "},
{"lon":"42.3250558","lat":"49.3821463","number":"7","street":"улица Дружбы","unit":"","city":"Большой","district":"Серафимовичский муниципальный район","region":"","postcode":" "},
{"lon":"42.306942","lat":"49.430857","number":"29","street":"улица Дорожная","unit":"","city":"Котовский","district":"Серафимовичский муниципальный район","region":"","postcode":" "},
{"lon":"42.3071605","lat":"49.3925455","number":"1","street":"улица Юрия Гагарина","unit":"","city":"Большой","district":"Серафимовичский муниципальный район","region":"","postcode":" "},
{"lon":"43.4843329","lat":"47.8455101","number":"20/2","street":"улица Молодёжная","unit":"","city":"Равнинный","district":"Котельниковский муниципальный район","region":"","postcode":"404385"},
{"lon":"44.5349336","lat":"48.8478613","number":"29/2","street":"Победы","unit":"","city":"Орловка","district":"Городищенский муниципальный район","region":"","postcode":"403014"},
{"lon":"43.1649621","lat":"47.5828596","number":"37","street":"улица Центральная","unit":"","city":"Нагольный","district":"Котельниковский муниципальный район","region":"","postcode":"404361"},
{"lon":"43.1676279","lat":"47.5806655","number":"1/1","street":"улица Надежда","unit":"","city":"Нагольный","district":"Котельниковский муниципальный район","region":"","postcode":"404361"},
{"lon":"43.9937529","lat":"50.2679796","number":"59","street":"улица Недорубова","unit":"","city":"Берёзовская","district":"Даниловский муниципальный район","region":"","postcode":"403385"},
{"lon":"43.4676741","lat":"47.7001473","number":"5","street":"улица Мира","unit":"","city":"Пимено-Черни","district":"Котельниковский муниципальный район","region":"","postcode":"404365"},
{"lon":"45.8822204","lat":"50.5137526","number":"20","street":"Ленина","unit":"","city":"Иловатка","district":"Старополтавский муниципальный район","region":"","postcode":"404220"},
{"lon":"43.6592254","lat":"47.8469999","number":"9/1","street":"улица СТЕПНАЯ","unit":"","city":"ТЕРНОВОЙ","district":"Котельниковский муниципальный район","region":"","postcode":"404385"},
{"lon":"44.5370501","lat":"48.845557","number":"2Б","street":"улица Советская","unit":"","city":"Орловка","district":"Городищенский муниципальный район","region":"","postcode":"403014"},
{"lon":"46.4228917","lat":"50.3545471","number":"9","street":"переулок Молодежный","unit":"","city":"Валуевка","district":"Старополтавский муниципальный район","region":"","postcode":"404218"},
{"lon":"43.1701746","lat":"47.5819757","number":"49","street":"улица Набережная","unit":"","city":"Нагольный","district":"Котельниковский муниципальный район","region":"","postcode":"404361"},
{"lon":"45.8907122","lat":"50.5080556","number":"88","street":"улица Советская","unit":"","city":"Иловатка","district":"Старополтавский муниципальный район","region":"","postcode":"404220"},
{"lon":"42.8240127","lat":"47.7638866","number":"25/2","street":"улица Молодежная","unit":"","city":"Нагавская","district":"Котельниковский муниципальный район","region":"","postcode":"404375"},
{"lon":"43.5246884","lat":"47.5115722","number":"номер не присвоенб","street":"улица адрес не присвоен","unit":"","city":"Поперечный","district":"Котельниковский муниципальный район","region":"","postcode":"404367"},
{"lon":"44.538064","lat":"48.8447916","number":"20","street":"улица Тракторная","unit":"","city":"Орловка","district":"Городищенский муниципальный район","region":"","postcode":"403014"},
{"lon":"43.9887313","lat":"50.2698001","number":"17","street":"улица Советская","unit":"","city":"Берёзовская","district":"Даниловский муниципальный район","region":"","postcode":"403385"},
{"lon":"43.2147478","lat":"48.0098179","number":"11/1","street":"улица Северная","unit":"","city":"х.Генераловский","district":"Котельниковский муниципальный район","region":"","postcode":"404372"},
{"lon":"43.5334931","lat":"47.519576","number":"12","street":"улица Школьная","unit":"","city":"Поперечный","district":"Котельниковский муниципальный район","region":"","postcode":"404367"},
{"lon":"43.1651044","lat":"48.0130567","number":"6","street":"улица Аксайская","unit":"","city":"Пугачевская","district":"Котельниковский муниципальный район","region":"","postcode":"404378"},
{"lon":"45.8861045","lat":"50.5143773","number":"46","street":"улица Колхозная","unit":"","city":"Иловатка","district":"Старополтавский муниципальный район","region":"","postcode":"404220"},
{"lon":"43.8987993","lat":"48.9378551","number":"5","street":"переулок Мирный","unit":"","city":"Вертячий","district":"Городищенский муниципальный район","region":"","postcode":"403025"},
{"lon":"43.4712162","lat":"47.693401","number":"4","street":"улица Зеленая","unit":"","city":"Пимено-Черни","district":"Котельниковский муниципальный район","region":"","postcode":"404365"},
{"lon":"45.888576","lat":"50.5121236","number":"56","street":"улица Колхозная","unit":"","city":"Иловатка","district":"Старополтавский муниципальный район","region":"","postcode":"404220"},
{"lon":"43.3349174","lat":"47.9811018","number":"3","street":"улица Ленина","unit":"","city":"Дорофеевский","district":"Котельниковский муниципальный район","region":"","postcode":"404373"},
{"lon":"43.1009899","lat":"47.8473632","number":"28","street":"улица Центральная","unit":"","city":"Нижнеяблочный","district":"Котельниковский муниципальный район","region":"","postcode":"404370"},
{"lon":"43.429705","lat":"47.6859622","number":"4","street":"улица Юбилейная","unit":"","city":"Нижние Черни","district":"Котельниковский муниципальный район","region":"","postcode":"404364"},
{"lon":"43.3284147","lat":"47.9806213","number":"1","street":"улица Восточная","unit":"","city":"Дорофеевский","district":"Котельниковский муниципальный район","region":"","postcode":"404373"},
{"lon":"43.3273593","lat":"47.9831256","number":"24","street":"улица Цветочная","unit":"","city":"Дорофеевский","district":"Котельниковский муниципальный район","region":"","postcode":"404373"},
{"lon":"43.9149572","lat":"48.9471032","number":"42/2","street":"улица Мира","unit":"","city":"Вертячий","district":"Городищенский муниципальный район","region":"","postcode":"403025"},
{"lon":"45.8856257","lat":"50.5184442","number":"19","street":"улица Комсомольская","unit":"","city":"Иловатка","district":"Старополтавский муниципальный район","region":"","postcode":"404220"},
{"lon":"43.1575121","lat":"48.0111065","number":"15","street":"улица Донская","unit":"","city":"Пугачевская","district":"Котельниковский муниципальный район","region":"","postcode":"404378"},
{"lon":"43.3276997","lat":"47.9840564","number":"9","street":"улица Цветочная","unit":"","city":"Дорофеевский","district":"Котельниковский муниципальный район","region":"","postcode":"404373"},
{"lon":"43.0963605","lat":"47.8487159","number":"46","street":"улица Центральная","unit":"","city":"Нижнеяблочный","district":"Котельниковский муниципальный район","region":"","postcode":"404370"},
{"lon":"45.883703","lat":"50.5153845","number":"41","street":"улица Садовая","unit":"","city":"Иловатка","district":"Старополтавский муниципальный район","region":"","postcode":"404220"},
{"lon":"44.3805361","lat":"48.4431773","number":"2в","street":"улица Дружбы","unit":"","city":"Червленое","district":"Светлоярский муниципальный район","region":"","postcode":"404186"},
{"lon":"44.3813479","lat":"48.4420246","number":"6","street":"улица Дружбы","unit":"","city":"Червленое","district":"Светлоярский муниципальный район","region":"","postcode":"404186"},
{"lon":"44.6155917","lat":"48.3285731","number":"12","street":"площадь Хвастанцева","unit":"","city":"Дубовый Овраг","district":"Светлоярский муниципальный район","region":"","postcode":"404175"},
{"lon":"44.5061699","lat":"48.4446003","number":"3","street":"микрорайон","unit":"","city":"Чапурники","district":"Светлоярский муниципальный район","region":"","postcode":"404181"},
{"lon":"44.531428","lat":"48.8456376","number":"36","street":"улица Волгоградская","unit":"","city":"Орловка","district":"Городищенский муниципальный район","region":"","postcode":"403014"},
{"lon":"44.6148207","lat":"48.3426344","number":"24","street":"улица Василенко","unit":"","city":"Дубовый Овраг","district":"Светлоярский муниципальный район","region":"","postcode":"404175"},
{"lon":"43.0996791","lat":"47.8452341","number":"29","street":"улица Цимлянская","unit":"","city":"Нижнеяблочный","district":"Котельниковский муниципальный район","region":"","postcode":"404370"},
{"lon":"43.0916657","lat":"47.8475261","number":"67","street":"улица Цимлянская","unit":"","city":"Нижнеяблочный","district":"Котельниковский муниципальный район","region":"","postcode":"404370"},
{"lon":"44.616319","lat":"48.344033","number":"22","street":"улица Октябрьская","unit":"","city":"Дубовый Овраг","district":"Светлоярский муниципальный район","region":"","postcode":"404175"},
{"lon":"43.0915935","lat":"47.84681","number":"24/1","street":"улица Морская","unit":"","city":"Нижнеяблочный","district":"Котельниковский муниципальный район","region":"","postcode":"404370"},
{"lon":"44.6190523","lat":"48.3388627","number":"61ж","street":"улица Октябрьская","unit":"","city":"Дубовый Овраг","district":"Светлоярский муниципальный район","region":"","postcode":"404175"},
{"lon":"44.5315314","lat":"48.4722607","number":"7","street":"переулок Виноградный","unit":"","city":"Кирова","district":"Светлоярский муниципальный район","region":"","postcode":"404180"},
{"lon":"44.6193199","lat":"48.3305867","number":"39","street":"улица Советская","unit":"","city":"дубовый Овраг","district":"Светлоярский муниципальный район","region":"","postcode":"404175"},
{"lon":"43.8986561","lat":"48.94721","number":"16","street":"улица Школьная","unit":"","city":"Вертячий","district":"Городищенский муниципальный район","region":"","postcode":"403025"},
{"lon":"44.6200234","lat":"48.3303053","number":"40","street":"улица Советская","unit":"","city":"Дубовый Овраг","district":"Светлоярский муниципальный район","region":"","postcode":"404175"},
{"lon":"44.6157973","lat":"48.3332659","number":"19","street":"улица Садовая","unit":"","city":"Дубовый Овраг","district":"Светлоярский муниципальный район","region":"","postcode":"404175"},
{"lon":"43.1036732","lat":"47.8514963","number":"8/2","street":"улица Степная","unit":"","city":"Нижнеяблочный","district":"Котельниковский муниципальный район","region":"","postcode":"404370"},
{"lon":"44.6791933","lat":"48.1997629","number":"21","street":"улица Советская","unit":"","city":"Цаца","district":"Светлоярский муниципальный район","region":"","postcode":"404177"},
{"lon":"44.6761974","lat":"48.1890973","number":"2/1","street":"улица советская новая","unit":"","city":"цаца","district":"Светлоярский муниципальный район","region":"","postcode":"404177"},
{"lon":"43.9150849","lat":"48.952036","number":"45/2","street":"улица Быстрова","unit":"","city":"Вертячий","district":"Городищенский муниципальный район","region":"","postcode":"403025"},
{"lon":"44.5794645","lat":"48.4119394","number":"19/2","street":"улица Спортивная","unit":"","city":"Большие Чапурники","district":"Светлоярский муниципальный район","region":"","postcode":"404174"},
{"lon":"44.5799896","lat":"48.4119248","number":"17/1","street":"улица Спортивная","unit":"","city":"Большие Чапурники","district":"Светлоярский муниципальный район","region":"","postcode":"404174"},
{"lon":"43.8115109","lat":"48.9168026","number":"16","street":"улица им.Гули Королёвой","unit":"","city":"Песковатка","district":"Городищенский муниципальный район","region":"","postcode":"403029"},
{"lon":"46.819121","lat":"50.2130739","number":"Водонапорная башня","street":"улица Коршуновская","unit":"","city":"Коршуновка","district":"Старополтавский муниципальный район","region":"","postcode":"404200"},
{"lon":"46.7540384","lat":"50.3496849","number":"6/2","street":"улица Казахстанская","unit":"","city":"Цветочное","district":"Старополтавский муниципальный район","region":"","postcode":"404200"},
{"lon":"44.6763908","lat":"48.1976944","number":"53","street":"улица Центральная","unit":"","city":"Цаца","district":"Светлоярский муниципальный район","region":"","postcode":"404177"},
{"lon":"43.9090915","lat":"48.9460438","number":"8","street":"улица Чуйкова","unit":"","city":"Вертячий","district":"Городищенский муниципальный район","region":"","postcode":"403025"},
{"lon":"44.6768637","lat":"48.196941","number":"78","street":"улица Центральная","unit":"","city":"Цаца","district":"Светлоярский муниципальный район","region":"","postcode":"404177"},
{"lon":"44.1927788","lat":"48.4847127","number":"2/2","street":"улица Ворошилова","unit":"","city":"Нариман","district":"Светлоярский муниципальный район","region":"","postcode":"404197"},
{"lon":"44.3778992","lat":"48.4734014","number":"21","street":"улица Полевая","unit":"","city":"Ивановка","district":"Светлоярский муниципальный район","region":"","postcode":"404187"},
{"lon":"46.8574689","lat":"50.2853546","number":"7","street":"улица Центральная","unit":"","city":"Вербный","district":"Старополтавский муниципальный район","region":"","postcode":"404203"},
{"lon":"43.8114934","lat":"48.9151273","number":"8/1","street":"улица Дзержинского","unit":"","city":"Песковатка","district":"Городищенский муниципальный район","region":"","postcode":"403029"},
{"lon":"44.5327019","lat":"48.4754143","number":"60","street":"улица Тепличная","unit":"","city":"Кирова","district":"Светлоярский муниципальный район","region":"","postcode":"404180"},
{"lon":"46.4177463","lat":"50.3529135","number":"41","street":"улица Ильменская","unit":"","city":"Валуевка","district":"Старополтавский муниципальный район","region":"","postcode":"404218"},
{"lon":"44.6657542","lat":"48.1857358","number":"69","street":"улица КАМЫШИНСКАЯ","unit":"","city":"ЦАЦА","district":"Светлоярский муниципальный район","region":"","postcode":"404177"},
{"lon":"43.080421","lat":"48.3619966","number":"11","street":"улица Асеева","unit":"","city":"Нижний Чир","district":"Суровикинский муниципальный район","region":"","postcode":"404446"},
{"lon":"43.0816616","lat":"48.3470974","number":"20","street":"улица Вальковых","unit":"","city":"Нижний Чир","district":"Суровикинский муниципальный район","region":"","postcode":"404446"},
{"lon":"43.0870218","lat":"48.3642846","number":"9","street":"улица им. Воскобойникова","unit":"","city":"Нижний Чир","district":"Суровикинский муниципальный район","region":"","postcode":"404446"},
{"lon":"42.9934483","lat":"48.7480497","number":"4","street":"улица Степная","unit":"","city":"Савинский","district":"Суровикинский муниципальный район","region":"","postcode":"404435"},
{"lon":"42.839601","lat":"48.4569115","number":"5","street":"улица Крестьянская","unit":"","city":"Сысоевский","district":"Суровикинский муниципальный район","region":"","postcode":"404421"},
{"lon":"42.8424749","lat":"48.6028653","number":"8","street":"микрорайон 2","unit":"","city":"Суровикино","district":"Суровикинский муниципальный район","region":"","postcode":"404415"},
{"lon":"42.9938199","lat":"48.7389231","number":"20","street":"улица Степная","unit":"","city":"Савинский","district":"Суровикинский муниципальный район","region":"","postcode":"404435"},
{"lon":"43.1752726","lat":"48.7041617","number":"19а","street":"улица Центральная","unit":"","city":"Попов-1","district":"Суровикинский муниципальный район","region":"","postcode":"404426"},
{"lon":"46.472692","lat":"50.4815318","number":"10/2а","street":"улица Степная","unit":"","city":"Старая Полтавка","district":"Старополтавский муниципальный район","region":"","postcode":"404211"},
{"lon":"46.4717585","lat":"50.482691","number":"6/2","street":"улица Степная","unit":"","city":"Старая Полтавка","district":"Старополтавский муниципальный район","region":"","postcode":"404211"},
{"lon":"46.473461","lat":"50.4737739","number":"1Е","street":"улица Молодежная","unit":"","city":"Старая Полтавка","district":"Старополтавский муниципальный район","region":"","postcode":"404211"},
{"lon":"43.1392552","lat":"48.5272486","number":"10/1а","street":"улица Школьная","unit":"","city":"Бурацкий","district":"Суровикинский муниципальный район","region":"","postcode":"404451"},
{"lon":"43.0899005","lat":"48.3623281","number":"43","street":"улица им. Дзержинского","unit":"","city":"Нижний Чир","district":"Суровикинский муниципальный район","region":"","postcode":"404446"},
{"lon":"42.8484077","lat":"48.4553776","number":"8б","street":"улица Центральная","unit":"","city":"Сысоевский","district":"Суровикинский муниципальный район","region":"","postcode":"404421"},
{"lon":"43.0866149","lat":"48.3707744","number":"16","street":"улица Горная","unit":"","city":"Нижний Чир","district":"Суровикинский муниципальный район","region":"","postcode":"404446"},
{"lon":"42.9623514","lat":"48.8242321","number":"58","street":"улица им.Генерала Брагина","unit":"","city":"Добринка","district":"Суровикинский муниципальный район","region":"","postcode":"404433"},
{"lon":"42.1389508","lat":"51.0396421","number":"5","street":"улица Казачья","unit":"","city":"Большинский","district":"Урюпинский муниципальный район","region":"","postcode":"403104"},
{"lon":"46.4770196","lat":"50.4786144","number":"69/1","street":"улица Колхозная","unit":"","city":"Старая Полтавка","district":"Старополтавский муниципальный район","region":"","postcode":"404211"},
{"lon":"43.2076235","lat":"48.6714556","number":"8а","street":"улица Просёлочная","unit":"","city":"Яблоневый","district":"Суровикинский муниципальный район","region":"","postcode":"404426"},
{"lon":"43.1556141","lat":"48.4814696","number":"3","street":"улица Партизанская","unit":"","city":"Новомаксимовский","district":"Суровикинский муниципальный район","region":"","postcode":"404450"},
{"lon":"42.9792682","lat":"48.8203076","number":"1","street":"улица им.Генерала Брагина","unit":"","city":"Добринка","district":"Суровикинский муниципальный район","region":"","postcode":"404433"},
{"lon":"42.9656568","lat":"48.8208876","number":"57","street":"улица им.Генерала Брагина","unit":"","city":"Добринка","district":"Суровикинский муниципальный район","region":"","postcode":"404433"},
{"lon":"42.8569387","lat":"48.4484188","number":"12","street":"улица Каменная","unit":"","city":"Сысоевский","district":"Суровикинский муниципальный район","region":"","postcode":"404421"},
{"lon":"43.0934083","lat":"48.3715743","number":"9","street":"улица им. Димитрова","unit":"","city":"Нижний Чир","district":"Суровикинский муниципальный район","region":"","postcode":"404446"},
{"lon":"42.6813365","lat":"48.3977817","number":"9","street":"улица Прудовая","unit":"","city":"\"отделения  №3  совхоза  \"\"Красная  Звезда\"\"\"","district":"Суровикинский муниципальный район","region":"","postcode":"404421"},
{"lon":"42.1213907","lat":"51.0263943","number":"12","street":"переулок Куминской","unit":"","city":"Серковский","district":"Урюпинский муниципальный район","region":"","postcode":"403104"},
{"lon":"42.9288575","lat":"48.6401405","number":"8","street":"улица Заречная","unit":"","city":"Ближнеосиновский","district":"Суровикинский муниципальный район","region":"","postcode":"404415"},
{"lon":"42.1210499","lat":"51.0266477","number":"8","street":"улица Школьная","unit":"","city":"Серковский","district":"Урюпинский муниципальный район","region":"","postcode":"403104"},
{"lon":"43.1617421","lat":"48.4798224","number":"13","street":"улица Фрунзе","unit":"","city":"Новомаксимовский","district":"Суровикинский муниципальный район","region":"","postcode":"404450"},
{"lon":"42.8470399","lat":"48.4529403","number":"1б","street":"улица Южная","unit":"","city":"Сысоевский","district":"Суровикинский муниципальный район","region":"","postcode":"404421"},
{"lon":"43.1361553","lat":"48.5285016","number":"15а","street":"улица им.Плешакова","unit":"","city":"Бурацкий","district":"Суровикинский муниципальный район","region":"","postcode":"404451"},
{"lon":"46.4781709","lat":"50.48221","number":"94/2","street":"улица Колхозная","unit":"","city":"Старая Полтавка","district":"Старополтавский муниципальный район","region":"","postcode":"404211"},
{"lon":"43.1625431","lat":"48.4805064","number":"1","street":"улица Фрунзе","unit":"","city":"Новомаксимовский","district":"Суровикинский муниципальный район","region":"","postcode":"404450"},
{"lon":"43.1289589","lat":"48.527099","number":"19а","street":"улица Центральная","unit":"","city":"Бурацкий","district":"Суровикинский муниципальный район","region":"","postcode":"404451"},
{"lon":"43.1666969","lat":"48.4779003","number":"20","street":"улица школьная","unit":"","city":"Новомаксимовский","district":"Суровикинский муниципальный район","region":"","postcode":"404450"},
{"lon":"42.8466958","lat":"48.4542085","number":"7а","street":"улица Победы","unit":"","city":"Сысоевский","district":"Суровикинский муниципальный район","region":"","postcode":"404421"},
{"lon":"43.1667172","lat":"48.4780138","number":"18","street":"улица Школьная","unit":"","city":"Новомаксимовский","district":"Суровикинский муниципальный район","region":"","postcode":"404450"},
{"lon":"43.1708967","lat":"48.6632564","number":"17а","street":"улица Садовая","unit":"","city":"Лысов","district":"Суровикинский муниципальный район","region":"","postcode":"404426"},
{"lon":"46.4776988","lat":"50.4732796","number":"21","street":"улица Октябрьская","unit":"","city":"Старая Полтавка","district":"Старополтавский муниципальный район","region":"","postcode":"404211"},
{"lon":"42.104216","lat":"51.0154742","number":"29","street":"улица Молодежная","unit":"","city":"Серковский","district":"Урюпинский муниципальный район","region":"","postcode":"403103"},
{"lon":"43.1683284","lat":"48.4784793","number":"6","street":"улица Донская","unit":"","city":"Новомаксимовский","district":"Суровикинский муниципальный район","region":"","postcode":"404450"},
{"lon":"42.1105262","lat":"51.0205506","number":"55/2","street":"улица Молодежная","unit":"","city":"Сепковский","district":"Урюпинский муниципальный район","region":"","postcode":"403103"},
{"lon":"43.0861754","lat":"48.349511","number":"25","street":"улица Зелёная","unit":"","city":"Нижний Чир","district":"Суровикинский муниципальный район","region":"","postcode":"404446"},
{"lon":"43.1531931","lat":"48.4794278","number":"15","street":"улица Колхозная","unit":"","city":"Новомаксимовский","district":"Суровикинский муниципальный район","region":"","postcode":"404450"},
{"lon":"42.1019868","lat":"51.0115219","number":"9/1","street":"улица Молодежная","unit":"","city":"Серковский","district":"Урюпинский муниципальный район","region":"","postcode":"403103"},
{"lon":"43.1762224","lat":"48.6511834","number":"13а","street":"улица Молодёжная","unit":"","city":"Лысов","district":"Суровикинский муниципальный район","region":"","postcode":"404426"},
{"lon":"46.9081245","lat":"50.3789785","number":"70","street":"улица Октябрьская","unit":"","city":"Гмелинка","district":"Старополтавский муниципальный район","region":"","postcode":"404200"},
{"lon":"42.8426585","lat":"48.7923558","number":"9","street":"улица Центральная","unit":"","city":"Лобакин","district":"Суровикинский муниципальный район","region":"","postcode":"404432"},
{"lon":"42.103175","lat":"51.0043592","number":"58","street":"улица Шефская","unit":"","city":"Нижнецепляевский","district":"Урюпинский муниципальный район","region":"","postcode":"403103"},
{"lon":"46.9076425","lat":"50.3807133","number":"99","street":"улица Октябрьская","unit":"","city":"Гмелинка","district":"Старополтавский муниципальный район","region":"","postcode":"404200"},
{"lon":"43.1791993","lat":"48.644668","number":"43а","street":"улица Молодёжная","unit":"","city":"Лысов","district":"Суровикинский муниципальный район","region":"","postcode":"404426"},
{"lon":"42.8482186","lat":"48.7926282","number":"29","street":"улица Центральная","unit":"","city":"Лобакин","district":"Суровикинский муниципальный район","region":"","postcode":"404432"},
{"lon":"43.2115159","lat":"48.7574627","number":"130","street":"улица Заречная","unit":"","city":"Качалин","district":"Суровикинский муниципальный район","region":"","postcode":"404440"},
{"lon":"43.1945308","lat":"48.4815388","number":"147","street":"улица цимлянская","unit":"","city":"верхнечирский","district":"Суровикинский муниципальный район","region":"","postcode":"404452"},
{"lon":"42.9666845","lat":"48.8105443","number":"12","street":"улица Александровская","unit":"","city":"Добринка","district":"Суровикинский муниципальный район","region":"","postcode":"404433"},
{"lon":"43.1720534","lat":"48.648026","number":"10а","street":"улица Весёлая","unit":"","city":"Лысов","district":"Суровикинский муниципальный район","region":"","postcode":"404426"},
{"lon":"43.1772915","lat":"48.6479244","number":"28а","street":"улица Молодёжная","unit":"","city":"Лысов","district":"Суровикинский муниципальный район","region":"","postcode":"404426"},
{"lon":"43.1581718","lat":"48.4816681","number":"27","street":"улица Октябрьская","unit":"","city":"Новомаксимовский","district":"Суровикинский муниципальный район","region":"","postcode":"404450"},
{"lon":"43.0780283","lat":"48.3543153","number":"14","street":"улица им. Куйбышева","unit":"","city":"Нижний Чир","district":"Суровикинский муниципальный район","region":"","postcode":"404446"},
{"lon":"46.4801902","lat":"50.4702418","number":"23","street":"улица Победа","unit":"","city":"Старая Полтавка","district":"Старополтавский муниципальный район","region":"","postcode":"404211"},
{"lon":"46.4805543","lat":"50.468728","number":"18","street":"улица Победа","unit":"","city":"Старая Полтавка","district":"Старополтавский муниципальный район","region":"","postcode":"404211"},
{"lon":"42.7810354","lat":"48.6307396","number":"181","street":"улица","unit":"","city":"Нижнеосиновский","district":"Суровикинский муниципальный район","region":"","postcode":"404436"},
{"lon":"42.7757478","lat":"48.6332505","number":"201","street":"улица","unit":"","city":"Нижнеосиновский","district":"Суровикинский муниципальный район","region":"","postcode":"404436"},
{"lon":"42.8344689","lat":"48.379246","number":"1а","street":"переулок Зеленый","unit":"","city":"Верхнесолоновский","district":"Суровикинский муниципальный район","region":"","postcode":"404422"},
{"lon":"42.8324448","lat":"48.3761824","number":"8","street":"улица Мира","unit":"","city":"верхнесолоновский","district":"Суровикинский муниципальный район","region":"","postcode":"404422"},
{"lon":"46.4811777","lat":"50.4821672","number":"99а","street":"улица Победа","unit":"","city":"Старая Полтавка","district":"Старополтавский муниципальный район","region":"","postcode":"404211"},
{"lon":"43.0355814","lat":"48.5257304","number":"18","street":"улица Продольная","unit":"","city":"Ближнеосиновский","district":"Старополтавский муниципальный район","region":"","postcode":"404443"},
{"lon":"42.99961","lat":"50.551118","number":"28/1","street":"улица Центральная","unit":"","city":"Калачевский","district":"Киквидзенский муниципальный район","region":"","postcode":"403213"},
{"lon":"42.9950693","lat":"50.6093023","number":"8/1","street":"улица Юбилейная","unit":"","city":"с Кузькин","district":"Киквидзенский муниципальный район","region":"","postcode":"403213"},
{"lon":"42.9939228","lat":"50.6112725","number":"14/2","street":"улица Юбилейная","unit":"","city":"с Кузькин","district":"Киквидзенский муниципальный район","region":"","postcode":"403213"},
{"lon":"42.8441305","lat":"48.7885012","number":"1","street":"улица Луговая","unit":"","city":"Лобакин","district":"Суровикинский муниципальный район","region":"","postcode":"404432"},
{"lon":"43.0350299","lat":"48.526133","number":"29","street":"улица Продольная","unit":"","city":"Ближнеосиновский","district":"Суровикинский муниципальный район","region":"","postcode":"404443"},
{"lon":"43.0007451","lat":"50.5486044","number":"10/2","street":"улица Центральная","unit":"","city":"Калачевский","district":"Киквидзенский муниципальный район","region":"","postcode":"403213"},
{"lon":"43.0360912","lat":"48.5297471","number":"1","street":"улица Родниковая","unit":"","city":"Ближнеосиновский","district":"Суровикинский муниципальный район","region":"","postcode":"404443"},
{"lon":"42.8376431","lat":"48.7846881","number":"2","street":"переулок Подгорный","unit":"","city":"Лобакин","district":"Суровикинский муниципальный район","region":"","postcode":"404432"},
{"lon":"43.1533344","lat":"50.6261087","number":"19/1","street":"улица Центральная","unit":"","city":"Гришин","district":"Киквидзенский муниципальный район","region":"","postcode":"403211"},
{"lon":"42.8391722","lat":"48.781315","number":"21","street":"улица Заречная","unit":"","city":"Лобакин","district":"Суровикинский муниципальный район","region":"","postcode":"404432"},
{"lon":"43.0333485","lat":"50.9204809","number":"4а","street":"улица Центральная","unit":"","city":"Алонцево","district":"Киквидзенский муниципальный район","region":"","postcode":"403228"},
{"lon":"42.9226656","lat":"50.7293968","number":"21","street":"улица Набережная","unit":"","city":"Дубровский","district":"Киквидзенский муниципальный район","region":"","postcode":"403225"},
{"lon":"42.8651192","lat":"50.7963798","number":"17","street":"улица Центральная","unit":"","city":"Страхов","district":"Киквидзенский муниципальный район","region":"","postcode":"403226"},
{"lon":"43.3099858","lat":"50.9915805","number":"15","street":"улица Центральная","unit":"","city":"Михайловка","district":"Киквидзенский муниципальный район","region":"","postcode":"403237"},
{"lon":"43.2689508","lat":"50.8799029","number":"24","street":"улица Молодежная","unit":"","city":"Калиновский","district":"Киквидзенский муниципальный район","region":"","postcode":"403234"},
{"lon":"43.1327023","lat":"50.4267426","number":"51","street":"улица Дар-гора","unit":"","city":"Новокиевка","district":"Новоаннинский муниципальный район","region":"","postcode":"403992"},
{"lon":"43.1570382","lat":"50.6253493","number":"13","street":"улица Восточная","unit":"","city":"Гришин","district":"Киквидзенский муниципальный район","region":"","postcode":"403211"},
{"lon":"43.3105343","lat":"50.991588","number":"19","street":"улица Центральная","unit":"","city":"Михайловка","district":"Киквидзенский муниципальный район","region":"","postcode":"403237"},
{"lon":"42.454492","lat":"51.0444302","number":"28/2","street":"МОЛОДЕЖНАЯ","unit":"","city":"ДВОЙНОВСКИЙ","district":"Новониколаевский муниципальный район","region":"","postcode":"403922"},
{"lon":"42.9587847","lat":"50.4271112","number":"16","street":"улица Кубинская","unit":"","city":"Бурнацкий","district":"Новоаннинский муниципальный район","region":"","postcode":"403991"},
{"lon":"43.0530338","lat":"50.3899138","number":"29","street":"улица Северная","unit":"","city":"Дробязкин","district":"Новоаннинский муниципальный район","region":"","postcode":"403995"},
{"lon":"43.2907797","lat":"50.9920052","number":"21","street":"улица Алексеевская","unit":"","city":"Михайловка","district":"Киквидзенский муниципальный район","region":"","postcode":"403237"},
{"lon":"42.3058381","lat":"50.5080332","number":"871","street":"улица Советская","unit":"","city":"Мартыновский","district":"Новоаннинский муниципальный район","region":"","postcode":"403972"},
{"lon":"43.1943273","lat":"50.96321","number":"14","street":"улица Крестьянская","unit":"","city":"Ежовка","district":"Киквидзенский муниципальный район","region":"","postcode":"403235"},
{"lon":"43.0446981","lat":"50.3895376","number":"2","street":"улица Северная","unit":"","city":"Дробязкин","district":"Новоаннинский муниципальный район","region":"","postcode":"403995"},
{"lon":"42.8877714","lat":"50.4065015","number":"6","street":"улица Д.Бедного","unit":"","city":"Панфилово","district":"Новоаннинский муниципальный район","region":"","postcode":"403990"},
{"lon":"42.61365","lat":"50.5484582","number":"12","street":"улица Центральная","unit":"","city":"Березовка 1-я","district":"Новоаннинский муниципальный район","region":"","postcode":"403976"},
{"lon":"42.9544526","lat":"50.4321817","number":"7","street":"улица Центральная","unit":"","city":"Бурнацкий","district":"Новоаннинский муниципальный район","region":"","postcode":"403991"},
{"lon":"42.8668627","lat":"50.3626438","number":"11","street":"улица Центральная","unit":"","city":"Троецкий","district":"Новоаннинский муниципальный район","region":"","postcode":"403996"},
{"lon":"42.9171459","lat":"50.4239231","number":"2","street":"улица Степная","unit":"","city":"\"с-за \"\"АМО\"\"\"","district":"Новоаннинский муниципальный район","region":"","postcode":"403991"},
{"lon":"43.2986523","lat":"50.7979685","number":"53","street":"улица Степная","unit":"","city":"Мачеха","district":"Киквидзенский муниципальный район","region":"","postcode":"403232"},
{"lon":"43.2709202","lat":"50.8808902","number":"17","street":"улица Заречная","unit":"","city":"Калиновский","district":"Киквидзенский муниципальный район","region":"","postcode":"403234"},
{"lon":"43.0332629","lat":"50.920484","number":"4","street":"улица Центральная","unit":"","city":"Алонцево","district":"Киквидзенский муниципальный район","region":"","postcode":"403228"},
{"lon":"43.1794496","lat":"50.605373","number":"19/4","street":"улица Молодежная","unit":"","city":"Крутой Лог","district":"Киквидзенский муниципальный район","region":"","postcode":"403211"},
{"lon":"42.2821368","lat":"50.5034796","number":"12","street":"улица Советская","unit":"","city":"Мартыновский","district":"Новоаннинский муниципальный район","region":"","postcode":"403972"},
{"lon":"43.2095095","lat":"51.0641417","number":"3","street":"улица советская","unit":"","city":"александровка","district":"Киквидзенский муниципальный район","region":"","postcode":"403236"},
{"lon":"42.8794361","lat":"50.3623126","number":"16/1","street":"улица Целинная","unit":"","city":"Троецкий","district":"Новоаннинский муниципальный район","region":"","postcode":"403996"},
{"lon":"45.7756666","lat":"50.6168247","number":"45","street":"улица Октябрьская","unit":"","city":"Красный Яр","district":"Старополтавский муниципальный район","region":"","postcode":"404222"},
{"lon":"43.2174396","lat":"51.0698282","number":"25","street":"улица школьная","unit":"","city":"александровка","district":"Киквидзенский муниципальный район","region":"","postcode":"403236"},
{"lon":"45.7739928","lat":"50.6154261","number":"28","street":"улица Советская","unit":"","city":"Красный Яр","district":"Старополтавский муниципальный район","region":"","postcode":"404222"},
{"lon":"42.9270155","lat":"50.7372456","number":"77","street":"улица Центральная","unit":"","city":"Дубровский","district":"Киквидзенский муниципальный район","region":"","postcode":"403225"},
{"lon":"42.2855539","lat":"50.503266","number":"19","street":"улица Советская","unit":"","city":"Мартыновский","district":"Новоаннинский муниципальный район","region":"","postcode":"403972"},
{"lon":"45.4738281","lat":"50.0321039","number":"30/2","street":"улица Пролетарская","unit":"","city":"Николаевск","district":"Николаевский муниципальный район","region":"","postcode":" "},
{"lon":"42.9284291","lat":"50.7336427","number":"52","street":"улица Набережная","unit":"","city":"Дубровский","district":"Киквидзенский муниципальный район","region":"","postcode":"403225"},
{"lon":"45.4537231","lat":"50.0291374","number":"16кв. 1","street":"улица Чернышевского","unit":"","city":"Николаевск","district":"Николаевский муниципальный район","region":"","postcode":" "},
{"lon":"46.4883483","lat":"50.4681176","number":"3","street":"улица Набережная","unit":"","city":"Старая Полтавка","district":"Старополтавский муниципальный район","region":"","postcode":"404211"},
{"lon":"45.7741368","lat":"50.6129344","number":"9","street":"улица Кооперативная","unit":"","city":"Красный Яр","district":"Старополтавский муниципальный район","region":"","postcode":"404222"},
{"lon":"42.9311602","lat":"50.7375376","number":"78","street":"улица Набережная","unit":"","city":"Дубровский","district":"Киквидзенский муниципальный район","region":"","postcode":"403225"},
{"lon":"43.3227017","lat":"50.8073886","number":"13","street":"улица Комсомольская","unit":"","city":"Мачеха","district":"Киквидзенский муниципальный район","region":"","postcode":"403232"},
{"lon":"42.2777302","lat":"50.5043511","number":"1","street":"улица Советская","unit":"","city":"Мартыновский","district":"Новоаннинский муниципальный район","region":"","postcode":"403972"},
{"lon":"43.1178563","lat":"50.3899314","number":"13","street":"улица Молодежная","unit":"","city":"Махиновский","district":"Новоаннинский муниципальный район","region":"","postcode":"403992"},
{"lon":"42.8990155","lat":"50.4019297","number":"40","street":"улица Степная","unit":"","city":"Панфилово","district":"Новоаннинский муниципальный район","region":"","postcode":"403990"},
{"lon":"43.0327736","lat":"50.7357433","number":"2з","street":"улица им. Н. Сухова","unit":"","city":"Преображенская","district":"Киквидзенский муниципальный район","region":"","postcode":"403221"},
{"lon":"43.4621232","lat":"47.9801381","number":"3/2","street":"улица Речная","unit":"","city":"Заливский","district":"Октябрьский муниципальный район","region":"","postcode":"404331"},
{"lon":"46.4835076","lat":"50.4740754","number":"63","street":"улица Центральная","unit":"","city":"Старая Полтавка","district":"Старополтавский муниципальный район","region":"","postcode":"404211"},
{"lon":"42.7926196","lat":"51.0089289","number":"11","street":"улица Зеленая","unit":"","city":"Хоперский","district":"Новониколаевский муниципальный район","region":"","postcode":"403912"},
{"lon":"42.9170239","lat":"50.4250522","number":"9/2","street":"улица Степная","unit":"","city":"\"с-за \"\"АМО\"\"\"","district":"Новоаннинский муниципальный район","region":"","postcode":"403991"},
{"lon":"43.4512733","lat":"47.9763427","number":"32","street":"улица Вишневая","unit":"","city":"Заливский","district":"Октябрьский муниципальный район","region":"","postcode":"404331"},
{"lon":"42.6526776","lat":"50.3837644","number":"5/1","street":"улица Торговая","unit":"","city":"Бочаровский","district":"Новоаннинский муниципальный район","region":"","postcode":"403965"},
{"lon":"42.483902","lat":"51.0520989","number":"2","street":"ЦЕНТРАЛЬНАЯ","unit":"","city":"ДВОЙНОВСКИЙ","district":"Новониколаевский муниципальный район","region":"","postcode":"403922"},
{"lon":"42.5913725","lat":"50.2849003","number":"2","street":"улица Степная","unit":"","city":"Сатаровский","district":"Новоаннинский муниципальный район","region":"","postcode":"403965"},
{"lon":"42.8518983","lat":"50.7458019","number":"41","street":"улица ЦЕНТРАЛЬНАЯ","unit":"","city":"ГАЛУШКИНСКИЙ","district":"Новоаннинский муниципальный район","region":"","postcode":"403982"},
{"lon":"43.1751127","lat":"50.6068943","number":"5","street":"улица Школьная","unit":"","city":"Крутой Лог","district":"Киквидзенский муниципальный район","region":"","postcode":"403211"},
{"lon":"46.4837724","lat":"50.4688122","number":"14","street":"улица Центральная","unit":"","city":"Старая Полтавка","district":"Старополтавский муниципальный район","region":"","postcode":"404211"},
{"lon":"46.4861538","lat":"50.4851264","number":"150А","street":"улица Центральная","unit":"","city":"Старая Полтавка","district":"Старополтавский муниципальный район","region":"","postcode":"404211"},
{"lon":"42.5666837","lat":"50.681514","number":"56","street":"улица Ленина","unit":"","city":"Черкесовский","district":"Новоаннинский муниципальный район","region":"","postcode":"403980"},
{"lon":"42.868685","lat":"50.3607358","number":"4","street":"переулок Казачий","unit":"","city":"Троецкий","district":"Новоаннинский муниципальный район","region":"","postcode":"403996"},
{"lon":"42.5656717","lat":"50.6910773","number":"2","street":"переулок Куйбышева","unit":"","city":"Черкесовский","district":"Новоаннинский муниципальный район","region":"","postcode":"403980"},
{"lon":"42.9103662","lat":"51.0392368","number":"1/2","street":"улица Рабочая","unit":"","city":"Красноармейский","district":"Новониколаевский муниципальный район","region":"","postcode":"403913"},
{"lon":"42.9146307","lat":"51.0404558","number":"13/1","street":"Рабочая","unit":"","city":"Красноармейский","district":"Новониколаевский муниципальный район","region":"","postcode":"403913"},
{"lon":"42.9007916","lat":"50.3654531","number":"8/1","street":"улица Ценральная","unit":"","city":"Труд рассвет","district":"Новоаннинский муниципальный район","region":"","postcode":"403996"},
{"lon":"46.4853633","lat":"50.4802055","number":"112","street":"улица Центральная","unit":"","city":"Старая Полтавка","district":"Старополтавский муниципальный район","region":"","postcode":"404211"},
{"lon":"45.7759685","lat":"50.6144319","number":"22","street":"улица Октябрьская","unit":"","city":"Красный Яр","district":"Старополтавский муниципальный район","region":"","postcode":"404222"},
{"lon":"42.6802088","lat":"50.4358812","number":"2/1","street":"улица Продольная","unit":"","city":"Кузнецовский","district":"Новоаннинский муниципальный район","region":"","postcode":"403965"},
{"lon":"42.4516917","lat":"51.0340229","number":"29","street":"улица НАБЕРЕЖНАЯ","unit":"","city":"ДВОЙНОВСКИЙ","district":"Новониколаевский муниципальный район","region":"","postcode":"403922"},
{"lon":"42.6953925","lat":"50.4346068","number":"46/2","street":"улица Продольная","unit":"","city":"Кузнецовский","district":"Новоаннинский муниципальный район","region":"","postcode":"403965"},
{"lon":"42.9108259","lat":"51.0450683","number":"13/2","street":"улица Сиреневая","unit":"","city":"Красноармейский","district":"Новониколаевский муниципальный район","region":"","postcode":"403913"},
{"lon":"43.458199","lat":"47.9791171","number":"10","street":"улица Цимлянская","unit":"","city":"Заливский","district":"Октябрьский муниципальный район","region":"","postcode":"404331"},
{"lon":"42.9008419","lat":"50.3983917","number":"72","street":"улица Ленинская","unit":"","city":"Панфилово","district":"Новоаннинский муниципальный район","region":"","postcode":"403990"},
{"lon":"45.7679142","lat":"50.6200099","number":"57","street":"улица Чапаева","unit":"","city":"Красный Яр","district":"Старополтавский муниципальный район","region":"","postcode":"404222"},
{"lon":"42.6935214","lat":"50.4342595","number":"21","street":"улица Чудесная","unit":"","city":"Кузнецовский","district":"Новоаннинский муниципальный район","region":"","postcode":"403965"},
{"lon":"43.4569573","lat":"47.9821196","number":"30","street":"улица Цимлянская","unit":"","city":"Заливский","district":"Октябрьский муниципальный район","region":"","postcode":"404331"},
{"lon":"46.4854362","lat":"50.4753666","number":"47","street":"улица им. Королева С.Л.","unit":"","city":"Старая Полтавка","district":"Старополтавский муниципальный район","region":"","postcode":"404211"},
{"lon":"42.5375815","lat":"50.8435294","number":"23","street":"улица Привокзальная","unit":"","city":"Куликовский","district":"Новониколаевский муниципальный район","region":"","postcode":"403930"},
{"lon":"43.2050812","lat":"50.9560649","number":"2б","street":"улица Центральная","unit":"","city":"Ежовка","district":"Киквидзенский муниципальный район","region":"","postcode":"403235"},
{"lon":"42.7933829","lat":"51.006968","number":"9","street":"Школьная","unit":"","city":"Хоперский","district":"Новониколаевский муниципальный район","region":"","postcode":"403912"},
{"lon":"42.5353124","lat":"50.8347213","number":"13","street":"улица Крестьянская","unit":"","city":"Куликовский","district":"Новониколаевский муниципальный район","region":"","postcode":"403930"},
{"lon":"42.9099558","lat":"51.0382734","number":"5","street":"переулок Заречный","unit":"","city":"Красноармейский","district":"Новониколаевский муниципальный район","region":"","postcode":"403913"},
{"lon":"42.2987296","lat":"50.4965516","number":"39","street":"улица Гуляевская","unit":"","city":"Мартыновский","district":"Новоаннинский муниципальный район","region":"","postcode":"403972"},
{"lon":"42.6764138","lat":"51.088115","number":"16","street":"Тополиная","unit":"","city":"Верхнекардаильский","district":"Новониколаевский муниципальный район","region":"","postcode":"403923"},
{"lon":"42.9014887","lat":"51.0470767","number":"6/1","street":"улица 8 Марта","unit":"","city":"Красноармейский","district":"Новониколаевский муниципальный район","region":"","postcode":"403913"},
{"lon":"43.4114748","lat":"47.9768469","number":"14","street":"улица Ленина","unit":"","city":"Водянский","district":"Октябрьский муниципальный район","region":"","postcode":"404325"},
{"lon":"43.4095218","lat":"47.9778014","number":"12","street":"улица Лазоревая","unit":"","city":"Водянский","district":"Октябрьский муниципальный район","region":"","postcode":"404325"},
{"lon":"46.4868362","lat":"50.4751638","number":"63","street":"улица Ерусланская","unit":"","city":"Старая Полтавка","district":"Старополтавский муниципальный район","region":"","postcode":"404211"},
{"lon":"43.039913","lat":"50.7426117","number":"23","street":"улица 50 лет Победы","unit":"","city":"Преображенская","district":"Киквидзенский муниципальный район","region":"","postcode":"403221"},
{"lon":"42.4662018","lat":"50.5161533","number":"15","street":"улица Центральная","unit":"","city":"Ярыженский","district":"Новоаннинский муниципальный район","region":"","postcode":"403975"},
{"lon":"42.9033417","lat":"50.4083475","number":"25","street":"улица ус. Плодосовхоза","unit":"","city":"Панфилово","district":"Новоаннинский муниципальный район","region":"","postcode":"403990"},
{"lon":"43.4565263","lat":"47.9845308","number":"63","street":"улица Цимлянская","unit":"","city":"Заливский","district":"Октябрьский муниципальный район","region":"","postcode":"404331"},
{"lon":"43.1661893","lat":"50.7674172","number":"101","street":"улица озёрная","unit":"","city":"Казарино","district":"Киквидзенский муниципальный район","region":"","postcode":"403230"},
{"lon":"42.4668907","lat":"50.5183866","number":"3","street":"улица Степная","unit":"","city":"Ярыженский","district":"Новоаннинский муниципальный район","region":"","postcode":"403975"},
{"lon":"43.1747418","lat":"50.7948723","number":"127","street":"улица Буденного","unit":"","city":"Семеновка","district":"Киквидзенский муниципальный район","region":"","postcode":"403231"},
{"lon":"43.4549094","lat":"47.9855242","number":"20","street":"улица Веселая","unit":"","city":"Заливский","district":"Октябрьский муниципальный район","region":"","postcode":"404331"},
{"lon":"42.7387752","lat":"50.4114869","number":"2","street":"улица Заречная","unit":"","city":"Гуляевский","district":"Новоаннинский муниципальный район","region":"","postcode":"403965"},
{"lon":"42.9108877","lat":"51.0480132","number":"15","street":"улица Школьная","unit":"","city":"Красноармейский","district":"Новониколаевский муниципальный район","region":"","postcode":"403913"},
{"lon":"42.982169","lat":"50.3654084","number":"6","street":"улица Молодежная","unit":"","city":"Новосельский","district":"Новоаннинский муниципальный район","region":"","postcode":"403995"},
{"lon":"43.0128039","lat":"50.7327415","number":"153","street":"улица Углянская","unit":"","city":"Преображенская","district":"Киквидзенский муниципальный район","region":"","postcode":"403221"},
{"lon":"42.9834783","lat":"50.3692818","number":"13/1","street":"улица Школьная","unit":"","city":"Новосельский","district":"Новоаннинский муниципальный район","region":"","postcode":"403995"},
{"lon":"42.9328213","lat":"50.4238632","number":"31","street":"улица Перевозинская","unit":"","city":"\"с-за \"\"АМО\"\"\"","district":"Новоаннинский муниципальный район","region":"","postcode":"403991"},
{"lon":"42.5680711","lat":"50.6857197","number":"28","street":"улица Ленина","unit":"","city":"Черкесовский","district":"Новоаннинский муниципальный район","region":"","postcode":"403980"},
{"lon":"42.9074383","lat":"51.0490254","number":"9","street":"улица Народная","unit":"","city":"Красноармейский","district":"Новониколаевский муниципальный район","region":"","postcode":"403913"},
{"lon":"42.9844698","lat":"50.3729139","number":"26/2","street":"улица Центральная","unit":"","city":"Новосельский","district":"Новоаннинский муниципальный район","region":"","postcode":"403995"},
{"lon":"43.269924","lat":"48.0074453","number":"1","street":"улица центральная","unit":"","city":"новоаксайский","district":"Октябрьский муниципальный район","region":"","postcode":"404332"},
{"lon":"42.2298314","lat":"48.4091819","number":"13","street":"улица Заречная","unit":"","city":"Чернышковский","district":"Чернышковский муниципальный район","region":"","postcode":"404462"},
{"lon":"42.6843872","lat":"48.1738752","number":"1/1","street":"улица 2я.гвардейская","unit":"","city":"тормосин","district":"Чернышковский муниципальный район","region":"","postcode":"404473"},
{"lon":"44.0567898","lat":"47.9884856","number":"4","street":"улица песчаная","unit":"","city":"шелестово","district":"Октябрьский муниципальный район","region":"","postcode":"404312"},
{"lon":"44.0492378","lat":"47.9808784","number":"38","street":"проспект калинина","unit":"","city":"шелестово","district":"Октябрьский муниципальный район","region":"","postcode":"404312"},
{"lon":"42.241522","lat":"48.4206599","number":"12/2","street":"улица Победы","unit":"","city":"Чернышковский","district":"Чернышковский муниципальный район","region":"","postcode":"404462"},
{"lon":"42.682046","lat":"48.1725477","number":"5","street":"улица ленина","unit":"","city":"тормосин","district":"Чернышковский муниципальный район","region":"","postcode":"404473"},
{"lon":"42.2336023","lat":"48.4228692","number":"14а","street":"улица им. 2-й Гвардейской Армии","unit":"","city":"Чернышковский","district":"Чернышковский муниципальный район","region":"","postcode":"404462"},
{"lon":"42.2349469","lat":"48.4295532","number":"21/2","street":"улица Техническая","unit":"","city":"Чернышковский","district":"Чернышковский муниципальный район","region":"","postcode":"404462"},
{"lon":"42.2233908","lat":"48.4272348","number":"14","street":"улица Пролетарская","unit":"","city":"Чернышковский","district":"Чернышковский муниципальный район","region":"","postcode":"404462"},
{"lon":"42.219558","lat":"48.4296621","number":"45","street":"улица Луговая","unit":"","city":"Чернышковский","district":"Чернышковский муниципальный район","region":"","postcode":"404462"},
{"lon":"42.2283474","lat":"48.4270183","number":"2","street":"улица Попова","unit":"","city":"Чернышковский","district":"Чернышковский муниципальный район","region":"","postcode":"404462"},
{"lon":"42.2478479","lat":"48.2517077","number":"18","street":"улица Московская","unit":"","city":"Верхнегнутов","district":"Чернышковский муниципальный район","region":"","postcode":"404482"},
{"lon":"42.2490689","lat":"48.2510269","number":"17","street":"улица Молодежная","unit":"","city":"Верхнегнутов","district":"Чернышковский муниципальный район","region":"","postcode":"404482"},
{"lon":"42.2450398","lat":"48.2489068","number":"20","street":"улица Советская","unit":"","city":"Верхнегнутов","district":"Чернышковский муниципальный район","region":"","postcode":"404482"},
{"lon":"42.2067462","lat":"48.4178956","number":"20","street":"улица Новая","unit":"","city":"Чернышковский","district":"Чернышковский муниципальный район","region":"","postcode":"404462"},
{"lon":"42.2090986","lat":"48.4189186","number":"10/2","street":"улица Новая","unit":"","city":"Чернышковский","district":"Чернышковский муниципальный район","region":"","postcode":"404462"},
{"lon":"43.0408303","lat":"49.3213027","number":"7","street":"улица Крестьянская","unit":"","city":"Поднижний","district":"Клетский муниципальный район","region":"","postcode":"403562"},
{"lon":"44.0596939","lat":"47.9943011","number":"45","street":"улица песчаная","unit":"","city":"шелестово","district":"Октябрьский муниципальный район","region":"","postcode":"404312"},
{"lon":"42.218483","lat":"48.4315803","number":"73/1","street":"улица Юбилейная","unit":"","city":"Чернышковский","district":"Чернышковский муниципальный район","region":"","postcode":"404462"},
{"lon":"42.0253356","lat":"48.0871059","number":"16","street":"улица Зеленая","unit":"","city":"Низянка","district":"Чернышковский муниципальный район","region":"","postcode":"404484"},
{"lon":"43.3405061","lat":"49.4021406","number":"4","street":"переулок 1 пер. степной","unit":"","city":"Перекопская","district":"Клетский муниципальный район","region":"","postcode":"403574"},
{"lon":"42.2111647","lat":"48.430414","number":"104","street":"улица Кузнечная","unit":"","city":"Чернышковский","district":"Чернышковский муниципальный район","region":"","postcode":"404462"},
{"lon":"42.5601177","lat":"49.2765653","number":"24","street":"улица Раздольная","unit":"","city":"Жирковский","district":"Клетский муниципальный район","region":"","postcode":"403554"},
{"lon":"42.2145191","lat":"48.423456","number":"311","street":"переулок Школьный","unit":"","city":"Чернышковский","district":"Чернышковский муниципальный район","region":"","postcode":"404462"},
{"lon":"42.6700312","lat":"48.1691089","number":"20","street":"улица тани.скоробогатовой","unit":"","city":"тормосин","district":"Чернышковский муниципальный район","region":"","postcode":"404473"},
{"lon":"42.2119225","lat":"48.4295716","number":"90","street":"улица Кузнечная","unit":"","city":"Чернышковский","district":"Чернышковский муниципальный район","region":"","postcode":"404462"},
{"lon":"42.683575","lat":"48.1678173","number":"64","street":"улица октябрьская","unit":"","city":"тормосин","district":"Чернышковский муниципальный район","region":"","postcode":"404473"},
{"lon":"42.6701415","lat":"48.1701234","number":"13","street":"улица тани.скоробогатовой","unit":"","city":"тормосин","district":"Чернышковский муниципальный район","region":"","postcode":"404473"},
{"lon":"42.2295169","lat":"48.4305872","number":"142","street":"улица Степная","unit":"","city":"Чернышковский","district":"Чернышковский муниципальный район","region":"","postcode":"404462"},
{"lon":"42.2452166","lat":"48.2478953","number":"8","street":"улица Пролетарская","unit":"","city":"Верхнегнутов","district":"Чернышковский муниципальный район","region":"","postcode":"404482"},
{"lon":"42.6914595","lat":"48.1628478","number":"32","street":"улица пролетарская","unit":"","city":"тормосин","district":"Чернышковский муниципальный район","region":"","postcode":"404473"},
{"lon":"42.4358262","lat":"48.0606635","number":"5","street":"улица Западная","unit":"","city":"Лозной","district":"Чернышковский муниципальный район","region":"","postcode":"404486"},
{"lon":"42.6905571","lat":"48.1667812","number":"28","street":"улица чапаева","unit":"","city":"тормосин","district":"Фроловский муниципальный район","region":"","postcode":"404473"},
{"lon":"42.2195697","lat":"48.427219","number":"31","street":"улица Партизанская","unit":"","city":"Чернышковский","district":"Чернышковский муниципальный район","region":"","postcode":"404462"},
{"lon":"42.6893088","lat":"48.166835","number":"б/н","street":"улица чапаева","unit":"","city":"тормосин","district":"Чернышковский муниципальный район","region":"","postcode":"404473"},
{"lon":"42.2173143","lat":"48.4174389","number":"35/2","street":"улица Садовая","unit":"","city":"Чернышковский","district":"Чернышковский муниципальный район","region":"","postcode":"404462"},
{"lon":"42.6908029","lat":"48.1670013","number":"27","street":"улица чапаева","unit":"","city":"тормосин","district":"Чернышковский муниципальный район","region":"","postcode":"404473"},
{"lon":"42.1788838","lat":"48.2396222","number":"11/1","street":"улица Колхозная","unit":"","city":"Гладков","district":"Чернышковский муниципальный район","region":"","postcode":"404484"},
{"lon":"42.2210096","lat":"48.4163157","number":"10б","street":"улица Паршина","unit":"","city":"Чернышковский","district":"Чернышковский муниципальный район","region":"","postcode":"404462"},
{"lon":"42.2234457","lat":"48.4224867","number":"35А","street":"улица Цимлянская","unit":"","city":"Чернышковский","district":"Чернышковский муниципальный район","region":"","postcode":"404462"},
{"lon":"42.2494059","lat":"48.2444356","number":"6/2","street":"улица Октябрьская","unit":"","city":"Верхнегнутов","district":"Чернышковский муниципальный район","region":"","postcode":"404482"},
{"lon":"42.1254903","lat":"48.0893213","number":"6/1","street":"улица Отрадная","unit":"","city":"Россошанский","district":"Чернышковский муниципальный район","region":"","postcode":"404484"},
{"lon":"44.7066516","lat":"48.7701663","number":"3","street":"переулок Банный","unit":"","city":"Лебяжья Поляна","district":"Среднеахтубинский муниципальный район","region":"","postcode":"404150"},
{"lon":"42.2273054","lat":"48.4206661","number":"3","street":"улица Советская","unit":"","city":"Чернышковский","district":"Чернышковский муниципальный район","region":"","postcode":"404462"},
{"lon":"45.0680114","lat":"49.347853","number":"9","street":"улица Набережная","unit":"","city":"Луговая Пролейка","district":"Быковский муниципальный район","region":"","postcode":"404075"},
{"lon":"44.7039771","lat":"48.7689177","number":"6","street":"улица Широкая","unit":"","city":"Лебяжья Поляна","district":"Среднеахтубинский муниципальный район","region":"","postcode":"404150"},
{"lon":"44.774974","lat":"49.9978206","number":"25","street":"улица Пролетарская","unit":"","city":"Рыбинкка","district":"Ольховский муниципальный район","region":"","postcode":"403661"},
{"lon":"45.304485","lat":"49.0799286","number":"3\\1","street":"улица Мира","unit":"","city":"Красный Октябрь","district":"Среднеахтубинский муниципальный район","region":"","postcode":"404149"},
{"lon":"45.0380139","lat":"49.9721078","number":"72","street":"улица Центральная","unit":"","city":"Таловка","district":"Камышинский муниципальный район","region":"","postcode":"403854"},
{"lon":"44.730752","lat":"48.763321","number":"16","street":"улица Веселая","unit":"","city":"Кировец","district":"Среднеахтубинский муниципальный район","region":"","postcode":"404150"},
{"lon":"45.3046051","lat":"49.0787148","number":"7\\2","street":"улица Центральная","unit":"","city":"Красный Октябрь","district":"Среднеахтубинский муниципальный район","region":"","postcode":"404149"},
{"lon":"44.7315082","lat":"48.757775","number":"13","street":"улица Коммунистическая","unit":"","city":"Кировец","district":"Среднеахтубинский муниципальный район","region":"","postcode":"404150"},
{"lon":"45.0376618","lat":"49.9680783","number":"33","street":"улица Молодежная","unit":"","city":"Таловка","district":"Камышинский муниципальный район","region":"","postcode":"403854"},
{"lon":"42.2398564","lat":"48.4124201","number":"18","street":"улица Молодежная","unit":"","city":"Чернышковский","district":"Чернышковский муниципальный район","region":"","postcode":"404462"},
{"lon":"42.2443645","lat":"48.4144001","number":"30","street":"улица Южная","unit":"","city":"Чернышковский","district":"Чернышковский муниципальный район","region":"","postcode":"404462"},
{"lon":"44.7011079","lat":"48.7690748","number":"8","street":"улица Мичурина","unit":"","city":"Лебяжья Поляна","district":"Среднеахтубинский муниципальный район","region":"","postcode":"404150"},
{"lon":"44.7389657","lat":"48.7367189","number":"11","street":"улица центральная","unit":"","city":"Тутов","district":"Среднеахтубинский муниципальный район","region":"","postcode":"404143"},
{"lon":"44.6965642","lat":"48.7725919","number":"27/1","street":"улица Приканальная","unit":"","city":"Лебяжья Поляна","district":"Среднеахтубинский муниципальный район","region":"","postcode":"404150"},
{"lon":"44.69838","lat":"48.7700426","number":"9","street":"улица Советская","unit":"","city":"Лебяжья Поляна","district":"Среднеахтубинский муниципальный район","region":"","postcode":"404150"},
{"lon":"44.6998516","lat":"48.7686049","number":"5","street":"улица Дубовая","unit":"","city":"Лебяжья Поляна","district":"Среднеахтубинский муниципальный район","region":"","postcode":"404150"},
{"lon":"45.0219079","lat":"49.2618522","number":"37","street":"переулок Первомайский","unit":"","city":"Приморск","district":"Быковский муниципальный район","region":"","postcode":"404070"},
{"lon":"42.6881078","lat":"48.1815322","number":"133","street":"улица гагарина","unit":"","city":"тормосин","district":"Чернышковский муниципальный район","region":"","postcode":"404473"},
{"lon":"44.4035487","lat":"50.0687037","number":"13/2","street":"улица Молодежная","unit":"","city":"Гурово","district":"Ольховский муниципальный район","region":"","postcode":"403666"},
{"lon":"45.0199337","lat":"49.2572848","number":"2/3","street":"улица Портовая","unit":"","city":"Приморск","district":"Быковский муниципальный район","region":"","postcode":"404070"},
{"lon":"44.7026182","lat":"48.7263651","number":"18","street":"улица Шоссейная","unit":"","city":"Красный Буксир","district":"Среднеахтубинский муниципальный район","region":"","postcode":"404157"},
{"lon":"44.7388067","lat":"48.7421939","number":"2","street":"улица луговая","unit":"","city":"Тутов","district":"Среднеахтубинский муниципальный район","region":"","postcode":"404143"},
{"lon":"45.2150679","lat":"50.1683661","number":"18","street":"улица Кирова","unit":"","city":"Лебяжье","district":"Камышинский муниципальный район","region":"","postcode":"403842"},
{"lon":"44.6993486","lat":"48.7536313","number":"1","street":"улица Центральная","unit":"","city":"Тырлы","district":"Среднеахтубинский муниципальный район","region":"","postcode":"404150"},
{"lon":"44.6923053","lat":"48.7676238","number":"11","street":"улица Титова","unit":"","city":"Лебяжья Поляна","district":"Среднеахтубинский муниципальный район","region":"","postcode":"404150"},
{"lon":"44.7109414","lat":"48.720422","number":"31","street":"улица Центральная","unit":"","city":"Красный Буксир","district":"Среднеахтубинский муниципальный район","region":"","postcode":"404157"},