[
	{
		"lon": "6.1289665",
		"lat": "51.2052608",
		"number": "557",
		"street": "Sommer",
		"city": "Niederkrüchten",
		"district": "Niederkrüchten",
		"postcode": "41372"
	},
	{
		"lon": "6.1309495",
		"lat": "51.2061916",
		"number": "153",
		"street": "Sommer",
		"city": "Niederkrüchten",
		"district": "Niederkrüchten",
		"postcode": "41372"
	},
	{
		"lon": "6.1250157",
		"lat": "51.2067969",
		"number": "488",
		"street": "Sommer",
		"city": "Niederkrüchten",
		"district": "Niederkrüchten",
		"postcode": "41372"
	},
	{
		"lon": "6.125561",
		"lat": "51.206834",
		"number": "483",
		"street": "Sommer",
		"city": "Niederkrüchten",
		"district": "Niederkrüchten",
		"postcode": "41372"
	},
	{
		"lon": "6.1266162",
		"lat": "51.2076014",
		"number": "327",
		"street": "Sommer",
		"city": "Niederkrüchten",
		"district": "Niederkrüchten",
		"postcode": "41372"
	},
	{
		"lon": "6.1262732",
		"lat": "51.2093276",
		"number": "64",
		"street": "Roermonder Straße",
		"city": "Niederkrüchten",
		"district": "Niederkrüchten",
		"postcode": "41372"
	},
	{
		"lon": "6.1316443",
		"lat": "51.206954",
		"number": "202",
		"street": "Sommer",
		"city": "Niederkrüchten",
		"district": "Niederkrüchten",
		"postcode": "41372"
	},
	{
		"lon": "6.1261972",
		"lat": "51.2102877",
		"number": "8",
		"street": "Waldstraße",
		"city": "Niederkrüchten",
		"district": "Niederkrüchten",
		"postcode": "41372"
	},
	{
		"lon": "6.1289471",
		"lat": "51.2125669",
		"number": "41",
		"street": "Op dem Felde",
		"city": "Niederkrüchten",
		"district": "Niederkrüchten",
		"postcode": "41372"
	},
	{
		"lon": "6.1352015",
		"lat": "51.2069067",
		"number": "3",
		"street": "Sommer",
		"city": "Niederkrüchten",
		"district": "Niederkrüchten",
		"postcode": "41372"
	},
	{
		"lon": "6.1356115",
		"lat": "51.2086177",
		"number": "52",
		"street": "Sommer",
		"city": "Niederkrüchten",
		"district": "Niederkrüchten",
		"postcode": "41372"
	},
	{
		"lon": "6.1377059",
		"lat": "51.2121846",
		"number": "35 a",
		"street": "Alte Zollstraße",
		"city": "Niederkrüchten",
		"district": "Niederkrüchten",
		"postcode": "41372"
	},
	{
		"lon": "6.1425928",
		"lat": "51.2102589",
		"number": "7",
		"street": "Tackenkamp",
		"city": "Niederkrüchten",
		"district": "Niederkrüchten",
		"postcode": "41372"
	},
	{
		"lon": "6.148453",
		"lat": "51.2103144",
		"number": "160",
		"street": "Hauptstraße",
		"city": "Niederkrüchten",
		"district": "Niederkrüchten",
		"postcode": "41372"
	},
	{
		"lon": "6.1449551",
		"lat": "51.2110549",
		"number": "3",
		"street": "Alte Zollstraße",
		"city": "Niederkrüchten",
		"district": "Niederkrüchten",
		"postcode": "41372"
	},
	{
		"lon": "6.1427279",
		"lat": "51.2131853",
		"number": "10",
		"street": "Tannenweg",
		"city": "Niederkrüchten",
		"district": "Niederkrüchten",
		"postcode": "41372"
	},
	{
		"lon": "6.1436365",
		"lat": "51.2136094",
		"number": "33",
		"street": "Schmielenweg",
		"city": "Niederkrüchten",
		"district": "Niederkrüchten",
		"postcode": "41372"
	},
	{
		"lon": "6.1458563",
		"lat": "51.2122987",
		"number": "20 a",
		"street": "An der Wae",
		"city": "Niederkrüchten",
		"district": "Niederkrüchten",
		"postcode": "41372"
	},
	{
		"lon": "6.1412109",
		"lat": "51.2145678",
		"number": "38",
		"street": "Holunderweg",
		"city": "Niederkrüchten",
		"district": "Niederkrüchten",
		"postcode": "41372"
	},
	{
		"lon": "6.1453013",
		"lat": "51.2146463",
		"number": "59",
		"street": "An der Wae",
		"city": "Niederkrüchten",
		"district": "Niederkrüchten",
		"postcode": "41372"
	},
	{
		"lon": "6.139731",
		"lat": "51.2230495",
		"number": "16",
		"street": "Graskamp",
		"city": "Niederkrüchten",
		"district": "Niederkrüchten",
		"postcode": "41372"
	},
	{
		"lon": "6.1366482",
		"lat": "51.2261048",
		"number": "110",
		"street": "Dorfstraße",
		"city": "Niederkrüchten",
		"district": "Niederkrüchten",
		"postcode": "41372"
	},
	{
		"lon": "6.1484856",
		"lat": "51.223498",
		"number": "33",
		"street": "Dorfstraße",
		"city": "Niederkrüchten",
		"district": "Niederkrüchten",
		"postcode": "41372"
	},
	{
		"lon": "6.1962292",
		"lat": "51.1916353",
		"number": "16",
		"street": "Lamertzweg",
		"city": "Niederkrüchten",
		"district": "Niederkrüchten",
		"postcode": "41372"
	},
	{
		"lon": "6.1987454",
		"lat": "51.1923223",
		"number": "1 a",
		"street": "In der Stiege",
		"city": "Niederkrüchten",
		"district": "Niederkrüchten",
		"postcode": "41372"
	},
	{
		"lon": "6.1957847",
		"lat": "51.1944073",
		"number": "33",
		"street": "In der Stiege",
		"city": "Niederkrüchten",
		"district": "Niederkrüchten",
		"postcode": "41372"
	},
	{
		"lon": "6.1991707",
		"lat": "51.1960573",
		"number": "33",
		"street": "Burgstraße",
		"city": "Niederkrüchten",
		"district": "Niederkrüchten",
		"postcode": "41372"
	},
	{
		"lon": "6.2049319",
		"lat": "51.1925948",
		"number": "23",
		"street": "An der Meer",
		"city": "Niederkrüchten",
		"district": "Niederkrüchten",
		"postcode": "41372"
	},
	{
		"lon": "6.2052192",
		"lat": "51.1967084",
		"number": "37",
		"street": "Schmutzersweg",
		"city": "Niederkrüchten",
		"district": "Niederkrüchten",
		"postcode": "41372"
	},
	{
		"lon": "6.2186836",
		"lat": "51.1935757",
		"number": "8",
		"street": "Eibenweg",
		"city": "Niederkrüchten",
		"district": "Niederkrüchten",
		"postcode": "41372"
	},
	{
		"lon": "6.2181787",
		"lat": "51.196614",
		"number": "12",
		"street": "Auf dem Stepken",
		"city": "Niederkrüchten",
		"district": "Niederkrüchten",
		"postcode": "41372"
	},
	{
		"lon": "6.2177063",
		"lat": "51.1977601",
		"number": "18",
		"street": "Oberkrüchtener Weg",
		"city": "Niederkrüchten",
		"district": "Niederkrüchten",
		"postcode": "41372"
	},
	{
		"lon": "6.1587176",
		"lat": "51.2052061",
		"number": "39",
		"street": "Krummer Weg",
		"city": "Niederkrüchten",
		"district": "Niederkrüchten",
		"postcode": "41372"
	},
	{
		"lon": "6.1518963",
		"lat": "51.209936",
		"number": "4",
		"street": "Franzstraße",
		"city": "Niederkrüchten",
		"district": "Niederkrüchten",
		"postcode": "41372"
	},
	{
		"lon": "6.1532947",
		"lat": "51.2100214",
		"number": "1",
		"street": "Karlstraße",
		"city": "Niederkrüchten",
		"district": "Niederkrüchten",
		"postcode": "41372"
	},
	{
		"lon": "6.1560776",
		"lat": "51.2102936",
		"number": "60",
		"street": "Im Grund",
		"city": "Niederkrüchten",
		"district": "Niederkrüchten",
		"postcode": "41372"
	},
	{
		"lon": "6.1513186",
		"lat": "51.211357",
		"number": "34",
		"street": "Alter Kirchweg",
		"city": "Niederkrüchten",
		"district": "Niederkrüchten",
		"postcode": "41372"
	},
	{
		"lon": "6.1553507",
		"lat": "51.2120088",
		"number": "76",
		"street": "Schulstraße",
		"city": "Niederkrüchten",
		"district": "Niederkrüchten",
		"postcode": "41372"
	},
	{
		"lon": "6.1568967",
		"lat": "51.2142557",
		"number": "13",
		"street": "August-Macke-Weg",
		"city": "Niederkrüchten",
		"district": "Niederkrüchten",
		"postcode": "41372"
	},
	{
		"lon": "6.1605898",
		"lat": "51.2099288",
		"number": "78",
		"street": "Hauptstraße",
		"city": "Niederkrüchten",
		"district": "Niederkrüchten",
		"postcode": "41372"
	},
	{
		"lon": "6.1634377",
		"lat": "51.2095751",
		"number": "11",
		"street": "Kreithövel",
		"city": "Niederkrüchten",
		"district": "Niederkrüchten",
		"postcode": "41372"
	},
	{
		"lon": "6.1661598",
		"lat": "51.2104595",
		"number": "35",
		"street": "Hauptstraße",
		"city": "Niederkrüchten",
		"district": "Niederkrüchten",
		"postcode": "41372"
	},
	{
		"lon": "6.1612352",
		"lat": "51.2124214",
		"number": "22",
		"street": "Schulstraße",
		"city": "Niederkrüchten",
		"district": "Niederkrüchten",
		"postcode": "41372"
	},
	{
		"lon": "6.1609721",
		"lat": "51.2132829",
		"number": "16",
		"street": "Rubensstraße",
		"city": "Niederkrüchten",
		"district": "Niederkrüchten",
		"postcode": "41372"
	},
	{
		"lon": "6.1663036",
		"lat": "51.2114453",
		"number": "5",
		"street": "Laurentiusstraße",
		"city": "Niederkrüchten",
		"district": "Niederkrüchten",
		"postcode": "41372"
	},
	{
		"lon": "6.1642059",
		"lat": "51.2146267",
		"number": "18",
		"street": "Lessingstraße",
		"city": "Niederkrüchten",
		"district": "Niederkrüchten",
		"postcode": "41372"
	},
	{
		"lon": "6.1683742",
		"lat": "51.209819",
		"number": "11",
		"street": "In der Furt",
		"city": "Niederkrüchten",
		"district": "Niederkrüchten",
		"postcode": "41372"
	},
	{
		"lon": "6.167121",
		"lat": "51.2127017",
		"number": "12",
		"street": "Poststraße",
		"city": "Niederkrüchten",
		"district": "Niederkrüchten",
		"postcode": "41372"
	},
	{
		"lon": "6.1685255",
		"lat": "51.2140454",
		"number": "17",
		"street": "Halenderfeld",
		"city": "Niederkrüchten",
		"district": "Niederkrüchten",
		"postcode": "41372"
	},
	{
		"lon": "6.173991",
		"lat": "51.2144086",
		"number": "32 a",
		"street": "An der Beek",
		"city": "Niederkrüchten",
		"district": "Niederkrüchten",
		"postcode": "41372"
	},
	{
		"lon": "6.1557477",
		"lat": "51.2151705",
		"number": "38",
		"street": "Grünewaldstraße",
		"city": "Niederkrüchten",
		"district": "Niederkrüchten",
		"postcode": "41372"
	},
	{
		"lon": "6.1580884",
		"lat": "51.2158109",
		"number": "19",
		"street": "Overhetfelder Straße",
		"city": "Niederkrüchten",
		"district": "Niederkrüchten",
		"postcode": "41372"
	},
	{
		"lon": "6.1641922",
		"lat": "51.2153055",
		"number": "34",
		"street": "Uhlandstraße",
		"city": "Niederkrüchten",
		"district": "Niederkrüchten",
		"postcode": "41372"
	},
	{
		"lon": "6.1547861",
		"lat": "51.2236965",
		"number": "5",
		"street": "Dollenkamp",
		"city": "Niederkrüchten",
		"district": "Niederkrüchten",
		"postcode": "41372"
	},
	{
		"lon": "6.1538711",
		"lat": "51.2295907",
		"number": "22",
		"street": "Mühlenweg",
		"city": "Niederkrüchten",
		"district": "Niederkrüchten",
		"postcode": "41372"
	},
	{
		"lon": "6.1595235",
		"lat": "51.2276218",
		"number": "56",
		"street": "Dilborner Straße",
		"city": "Niederkrüchten",
		"district": "Niederkrüchten",
		"postcode": "41372"
	},
	{
		"lon": "6.1613713",
		"lat": "51.2287464",
		"number": "85",
		"street": "Dilborner Straße",
		"city": "Niederkrüchten",
		"district": "Niederkrüchten",
		"postcode": "41372"
	},
	{
		"lon": "6.1696833",
		"lat": "51.2159979",
		"number": "1 a",
		"street": "Halenderfeld",
		"city": "Niederkrüchten",
		"district": "Niederkrüchten",
		"postcode": "41372"
	},
	{
		"lon": "6.1916658",
		"lat": "51.2040123",
		"number": "29",
		"street": "Boscherhausen",
		"city": "Niederkrüchten",
		"district": "Niederkrüchten",
		"postcode": "41372"
	},
	{
		"lon": "6.1857385",
		"lat": "51.2119526",
		"number": "67",
		"street": "Sohlweg",
		"city": "Niederkrüchten",
		"district": "Niederkrüchten",
		"postcode": "41372"
	},
	{
		"lon": "6.1914117",
		"lat": "51.2154733",
		"number": "9",
		"street": "Meisenweg",
		"city": "Niederkrüchten",
		"district": "Niederkrüchten",
		"postcode": "41372"
	},
	{
		"lon": "6.1940126",
		"lat": "51.2148757",
		"number": "47",
		"street": "Wilhelm-Brester-Straße",
		"city": "Niederkrüchten",
		"district": "Niederkrüchten",
		"postcode": "41372"
	},
	{
		"lon": "6.2130183",
		"lat": "51.2021237",
		"number": "14",
		"street": "Beethovenstraße",
		"city": "Niederkrüchten",
		"district": "Niederkrüchten",
		"postcode": "41372"
	},
	{
		"lon": "6.2144383",
		"lat": "51.20198",
		"number": "21",
		"street": "Händelstraße",
		"city": "Niederkrüchten",
		"district": "Niederkrüchten",
		"postcode": "41372"
	},
	{
		"lon": "6.2171716",
		"lat": "51.2026931",
		"number": "34",
		"street": "Mittelstraße",
		"city": "Niederkrüchten",
		"district": "Niederkrüchten",
		"postcode": "41372"
	},
	{
		"lon": "6.2156973",
		"lat": "51.2046868",
		"number": "33",
		"street": "Wagnerstraße",
		"city": "Niederkrüchten",
		"district": "Niederkrüchten",
		"postcode": "41372"
	},
	{
		"lon": "6.2176419",
		"lat": "51.2052972",
		"number": "14",
		"street": "Mozartstraße",
		"city": "Niederkrüchten",
		"district": "Niederkrüchten",
		"postcode": "41372"
	},
	{
		"lon": "6.214644",
		"lat": "51.2132612",
		"number": "11",
		"street": "Kahrstraße",
		"city": "Niederkrüchten",
		"district": "Niederkrüchten",
		"postcode": "41372"
	},
	{
		"lon": "6.2162962",
		"lat": "51.2136861",
		"number": "21",
		"street": "Kahrstraße",
		"city": "Niederkrüchten",
		"district": "Niederkrüchten",
		"postcode": "41372"
	},
	{
		"lon": "6.2150583",
		"lat": "51.2152147",
		"number": "3",
		"street": "Am Ringofen",
		"city": "Niederkrüchten",
		"district": "Niederkrüchten",
		"postcode": "41372"
	},
	{
		"lon": "6.2171215",
		"lat": "51.215094",
		"number": "26",
		"street": "Am Reitplatz",
		"city": "Niederkrüchten",
		"district": "Niederkrüchten",
		"postcode": "41372"
	},
	{
		"lon": "6.1907631",
		"lat": "51.2164335",
		"number": "5",
		"street": "Finkenweg",
		"city": "Niederkrüchten",
		"district": "Niederkrüchten",
		"postcode": "41372"
	},
	{
		"lon": "6.1923087",
		"lat": "51.2163977",
		"number": "15",
		"street": "Wilhelm-Brester-Straße",
		"city": "Niederkrüchten",
		"district": "Niederkrüchten",
		"postcode": "41372"
	},
	{
		"lon": "6.1946071",
		"lat": "51.2238472",
		"number": "7",
		"street": "Dahlienweg",
		"city": "Niederkrüchten",
		"district": "Niederkrüchten",
		"postcode": "41372"
	},
	{
		"lon": "6.1958582",
		"lat": "51.2278676",
		"number": "41",
		"street": "Venloer Straße",
		"city": "Niederkrüchten",
		"district": "Niederkrüchten",
		"postcode": "41372"
	},
	{
		"lon": "6.2119989",
		"lat": "51.2186401",
		"number": "14",
		"street": "Laarer Weg",
		"city": "Niederkrüchten",
		"district": "Niederkrüchten",
		"postcode": "41372"
	},
	{
		"lon": "6.2076045",
		"lat": "51.2301428",
		"number": "42",
		"street": "Borner Straße",
		"city": "Niederkrüchten",
		"district": "Niederkrüchten",
		"postcode": "41372"
	},
	{
		"lon": "6.1268713",
		"lat": "51.2298488",
		"number": "255",
		"street": "Venekotenweg",
		"city": "Niederkrüchten",
		"district": "Niederkrüchten",
		"postcode": "41372"
	},
	{
		"lon": "6.1307634",
		"lat": "51.2306732",
		"number": "284",
		"street": "Venekotenweg",
		"city": "Niederkrüchten",
		"district": "Niederkrüchten",
		"postcode": "41372"
	},
	{
		"lon": "6.1331541",
		"lat": "51.2311155",
		"number": "196",
		"street": "Kapellenbruch",
		"city": "Niederkrüchten",
		"district": "Niederkrüchten",
		"postcode": "41372"
	},
	{
		"lon": "6.1356463",
		"lat": "51.231963",
		"number": "172",
		"street": "Kapellenbruch",
		"city": "Niederkrüchten",
		"district": "Niederkrüchten",
		"postcode": "41372"
	},
	{
		"lon": "6.1366384",
		"lat": "51.2319402",
		"number": "170",
		"street": "Kapellenbruch",
		"city": "Niederkrüchten",
		"district": "Niederkrüchten",
		"postcode": "41372"
	},
	{
		"lon": "6.1392865",
		"lat": "51.2336521",
		"number": "27",
		"street": "Venekotenweg",
		"city": "Niederkrüchten",
		"district": "Niederkrüchten",
		"postcode": "41372"
	},
	{
		"lon": "6.1532725",
		"lat": "51.2304023",
		"number": "15",
		"street": "Erlenweg",
		"city": "Niederkrüchten",
		"district": "Niederkrüchten",
		"postcode": "41372"
	},
	{
		"lon": "6.1561544",
		"lat": "51.2316452",
		"number": "41",
		"street": "An der Kapelle",
		"city": "Niederkrüchten",
		"district": "Niederkrüchten",
		"postcode": "41372"
	},
	{
		"lon": "6.1589758",
		"lat": "51.2310949",
		"number": "27",
		"street": "Irisstraße",
		"city": "Niederkrüchten",
		"district": "Niederkrüchten",
		"postcode": "41372"
	},
	{
		"lon": "6.1591779",
		"lat": "51.2332285",
		"number": "28",
		"street": "Farmerweg",
		"city": "Niederkrüchten",
		"district": "Niederkrüchten",
		"postcode": "41372"
	},
	{
		"lon": "6.1639936",
		"lat": "51.2333989",
		"number": "122",
		"street": "Dilborner Straße",
		"city": "Niederkrüchten",
		"district": "Niederkrüchten",
		"postcode": "41372"
	},
	{
		"lon": "6.159256",
		"lat": "51.2454088",
		"number": "7",
		"street": "Oebeler Heide",
		"city": "Brüggen",
		"district": "Brüggen",
		"postcode": "41379"
	},
	{
		"lon": "6.1789329",
		"lat": "51.2345948",
		"number": "61",
		"street": "Dilborner Straße",
		"city": "Brüggen",
		"district": "Brüggen",
		"postcode": "41379"
	},
	{
		"lon": "6.1723262",
		"lat": "51.2421372",
		"number": "9",
		"street": "Telmeskamp",
		"city": "Brüggen",
		"district": "Brüggen",
		"postcode": "41379"
	},
	{
		"lon": "6.1672695",
		"lat": "51.245198",
		"number": "119",
		"street": "Roermonder Straße",
		"city": "Brüggen",
		"district": "Brüggen",
		"postcode": "41379"
	},
	{
		"lon": "6.1733757",
		"lat": "51.2439766",
		"number": "2",
		"street": "Kranichweg",
		"city": "Brüggen",
		"district": "Brüggen",
		"postcode": "41379"
	},
	{
		"lon": "6.1720129",
		"lat": "51.2444542",
		"number": "4",
		"street": "Schwalbenweg",
		"city": "Brüggen",
		"district": "Brüggen",
		"postcode": "41379"
	},
	{
		"lon": "6.1769111",
		"lat": "51.2390438",
		"number": "15",
		"street": "An den Schwalmauen",
		"city": "Brüggen",
		"district": "Brüggen",
		"postcode": "41379"
	},
	{
		"lon": "6.1770478",
		"lat": "51.2406867",
		"number": "65",
		"street": "Wolfsbend",
		"city": "Brüggen",
		"district": "Brüggen",
		"postcode": "41379"
	},
	{
		"lon": "6.1806966",
		"lat": "51.2392869",
		"number": "2",
		"street": "Deichweg",
		"city": "Brüggen",
		"district": "Brüggen",
		"postcode": "41379"
	},
	{
		"lon": "6.1794441",
		"lat": "51.2423135",
		"number": "26",
		"street": "Roermonder Straße",
		"city": "Brüggen",
		"district": "Brüggen",
		"postcode": "41379"
	},
	{
		"lon": "6.1746293",
		"lat": "51.2430021",
		"number": "60",
		"street": "Roermonder Straße",
		"city": "Brüggen",
		"district": "Brüggen",
		"postcode": "41379"
	},
	{
		"lon": "6.1760634",
		"lat": "51.244279",
		"number": "30",
		"street": "Nachtigallenweg",
		"city": "Brüggen",
		"district": "Brüggen",
		"postcode": "41379"
	},
	{
		"lon": "6.1761757",
		"lat": "51.2455579",
		"number": "40",
		"street": "Sperberweg",
		"city": "Brüggen",
		"district": "Brüggen",
		"postcode": "41379"
	},
	{
		"lon": "6.1811553",
		"lat": "51.2426596",
		"number": "4",
		"street": "Drosselweg",
		"city": "Brüggen",
		"district": "Brüggen",
		"postcode": "41379"
	},
	{
		"lon": "6.1784738",
		"lat": "51.245789",
		"number": "15",
		"street": "Herrenlandstraße",
		"city": "Brüggen",
		"district": "Brüggen",
		"postcode": "41379"
	},
	{
		"lon": "6.1772713",
		"lat": "51.2473971",
		"number": "57",
		"street": "Leonhard-Jansen-Straße",
		"city": "Brüggen",
		"district": "Brüggen",
		"postcode": "41379"
	},
	{
		"lon": "6.1789747",
		"lat": "51.2464418",
		"number": "25",
		"street": "Ulmenweg",
		"city": "Brüggen",
		"district": "Brüggen",
		"postcode": "41379"
	},
	{
		"lon": "6.1799534",
		"lat": "51.2465868",
		"number": "7",
		"street": "Kesseler Weg",
		"city": "Brüggen",
		"district": "Brüggen",
		"postcode": "41379"
	},
	{
		"lon": "6.1780246",
		"lat": "51.2492404",
		"number": "33",
		"street": "Wildor-Hollmann-Straße",
		"city": "Brüggen",
		"district": "Brüggen",
		"postcode": "41379"
	},
	{
		"lon": "6.1795561",
		"lat": "51.2500965",
		"number": "70",
		"street": "Platanenweg",
		"city": "Brüggen",
		"district": "Brüggen",
		"postcode": "41379"
	},
	{
		"lon": "6.1900614",
		"lat": "51.2361233",
		"number": "20",
		"street": "Dilborner Straße",
		"city": "Brüggen",
		"district": "Brüggen",
		"postcode": "41379"
	},
	{
		"lon": "6.1850839",
		"lat": "51.2399299",
		"number": "13",
		"street": "Klosterstraße",
		"city": "Brüggen",
		"district": "Brüggen",
		"postcode": "41379"
	},
	{
		"lon": "6.1822732",
		"lat": "51.242168",
		"number": "4",
		"street": "Hochstraße",
		"city": "Brüggen",
		"district": "Brüggen",
		"postcode": "41379"
	},
	{
		"lon": "6.187208",
		"lat": "51.241451",
		"number": "4",
		"street": "In der Haag",
		"city": "Brüggen",
		"district": "Brüggen",
		"postcode": "41379"
	},
	{
		"lon": "6.1826783",
		"lat": "51.2428514",
		"number": "11",
		"street": "Hochstraße",
		"city": "Brüggen",
		"district": "Brüggen",
		"postcode": "41379"
	},
	{
		"lon": "6.1852028",
		"lat": "51.2434929",
		"number": "25",
		"street": "Alter Postweg",
		"city": "Brüggen",
		"district": "Brüggen",
		"postcode": "41379"
	},
	{
		"lon": "6.1843281",
		"lat": "51.2460901",
		"number": "45",
		"street": "Hochstraße",
		"city": "Brüggen",
		"district": "Brüggen",
		"postcode": "41379"
	},
	{
		"lon": "6.1861218",
		"lat": "51.2444668",
		"number": "6",
		"street": "Hagenkreuzweg",
		"city": "Brüggen",
		"district": "Brüggen",
		"postcode": "41379"
	},
	{
		"lon": "6.1867639",
		"lat": "51.2457362",
		"number": "14 b",
		"street": "Am Grasweg",
		"city": "Brüggen",
		"district": "Brueggen",
		"postcode": "41379"
	},
	{
		"lon": "6.1943057",
		"lat": "51.2416228",
		"number": "16",
		"street": "Vennmühlenweg",
		"city": "Brüggen",
		"district": "Brüggen",
		"postcode": "41379"
	},
	{
		"lon": "6.1936982",
		"lat": "51.2456915",
		"number": "76 d",
		"street": "Borner Straße",
		"city": "Brüggen",
		"district": "Brüggen",
		"postcode": "41379"
	},
	{
		"lon": "6.2043071",
		"lat": "51.2432615",
		"number": "10",
		"street": "An der Borner Mühle",
		"city": "Brüggen",
		"district": "Brüggen",
		"postcode": "41379"
	},
	{
		"lon": "6.2058106",
		"lat": "51.2445244",
		"number": "7",
		"street": "Schubertstraße",
		"city": "Brüggen",
		"district": "Brüggen",
		"postcode": "41379"
	},
	{
		"lon": "6.2052517",
		"lat": "51.2453569",
		"number": "21",
		"street": "Schumannstraße",
		"city": "Brüggen",
		"district": "Brüggen",
		"postcode": "41379"
	},
	{
		"lon": "6.2063068",
		"lat": "51.2465908",
		"number": "19",
		"street": "An der Kreuzstraße",
		"city": "Brüggen",
		"district": "Brüggen",
		"postcode": "41379"
	},
	{
		"lon": "6.2076115",
		"lat": "51.2446776",
		"number": "17",
		"street": "Borner Feld",
		"city": "Brüggen",
		"district": "Brüggen",
		"postcode": "41379"
	},
	{
		"lon": "6.2093435",
		"lat": "51.2450331",
		"number": "20",
		"street": "Bergbendenweg",
		"city": "Brüggen",
		"district": "Brüggen",
		"postcode": "41379"
	},
	{
		"lon": "6.2070707",
		"lat": "51.2464035",
		"number": "34",
		"street": "An der Kreuzstraße",
		"city": "Brüggen",
		"district": "Brüggen",
		"postcode": "41379"
	},
	{
		"lon": "6.2120457",
		"lat": "51.2444728",
		"number": "3",
		"street": "Patschelstraße",
		"city": "Brüggen",
		"district": "Brüggen",
		"postcode": "41379"
	},
	{
		"lon": "6.2154572",
		"lat": "51.2457268",
		"number": "37",
		"street": "Hustenfeld",
		"city": "Brüggen",
		"district": "Brüggen",
		"postcode": "41379"
	},
	{
		"lon": "6.1852016",
		"lat": "51.2467557",
		"number": "21",
		"street": "Am Grasweg",
		"city": "Brüggen",
		"district": "Brueggen",
		"postcode": "41379"
	},
	{
		"lon": "6.1826885",
		"lat": "51.2497258",
		"number": "7",
		"street": "Weidenweg",
		"city": "Brüggen",
		"district": "Brüggen",
		"postcode": "41379"
	},
	{
		"lon": "6.1873725",
		"lat": "51.2466992",
		"number": "16",
		"street": "Von-Schaesberg-Weg",
		"city": "Brüggen",
		"district": "Brüggen",
		"postcode": "41379"
	},
	{
		"lon": "6.1857941",
		"lat": "51.2501821",
		"number": "18",
		"street": "B.-Röttgen-Waldweg",
		"city": "Brüggen",
		"district": "Brüggen",
		"postcode": "41379"
	},
	{
		"lon": "6.1908394",
		"lat": "51.2465776",
		"number": "16",
		"street": "Weihersfeld",
		"city": "Brüggen",
		"district": "Brüggen",
		"postcode": "41379"
	},
	{
		"lon": "6.1836475",
		"lat": "51.2563848",
		"number": "56",
		"street": "Brachter Straße",
		"city": "Brüggen",
		"district": "Brüggen",
		"postcode": "41379"
	},
	{
		"lon": "6.1864715",
		"lat": "51.2607506",
		"number": "92",
		"street": "Brachter Straße",
		"city": "Brüggen",
		"district": "Brüggen",
		"postcode": "41379"
	},
	{
		"lon": "6.1949408",
		"lat": "51.2589733",
		"number": "74",
		"street": "Genholter Straße",
		"city": "Brüggen",
		"district": "Brüggen",
		"postcode": "41379"
	},
	{
		"lon": "6.2042703",
		"lat": "51.2469163",
		"number": "10",
		"street": "Sebastian-Bach-Straße",
		"city": "Brüggen",
		"district": "Brüggen",
		"postcode": "41379"
	},
	{
		"lon": "6.2050619",
		"lat": "51.2481167",
		"number": "8",
		"street": "An der Kreuzstraße",
		"city": "Brüggen",
		"district": "Brüggen",
		"postcode": "41379"
	},
	{
		"lon": "6.2026825",
		"lat": "51.2502601",
		"number": "14",
		"street": "Lüttelbrachter Straße",
		"city": "Brüggen",
		"district": "Brüggen",
		"postcode": "41379"
	},
	{
		"lon": "6.207406",
		"lat": "51.247095",
		"number": "7",
		"street": "Schlehenweg",
		"city": "Brüggen",
		"district": "Brüggen",
		"postcode": "41379"
	},
	{
		"lon": "6.2118288",
		"lat": "51.2542581",
		"number": "14",
		"street": "Am Flitz",
		"city": "Brüggen",
		"district": "Brueggen",
		"postcode": "41379"
	},
	{
		"lon": "6.20021",
		"lat": "51.2583631",
		"number": "69 a",
		"street": "Lüttelbrachter Straße",
		"city": "Brüggen",
		"district": "Brüggen",
		"postcode": "41379"
	},
	{
		"lon": "6.1999816",
		"lat": "51.2615302",
		"number": "112",
		"street": "Lüttelbrachter Straße",
		"city": "Brüggen",
		"district": "Brüggen",
		"postcode": "41379"
	},
	{
		"lon": "6.1696566",
		"lat": "51.2792802",
		"number": "110",
		"street": "Stiegstraße",
		"city": "Brüggen",
		"district": "Brüggen",
		"postcode": "41379"
	},
	{
		"lon": "6.1715801",
		"lat": "51.2854516",
		"number": "13",
		"street": "Heide",
		"city": "Brüggen",
		"district": "Brüggen",
		"postcode": "41379"
	},
	{
		"lon": "6.188064",
		"lat": "51.2690113",
		"number": "90",
		"street": "Brüggener Straße",
		"city": "Brüggen",
		"district": "Brüggen",
		"postcode": "41379"
	},
	{
		"lon": "6.1862391",
		"lat": "51.2734249",
		"number": "46",
		"street": "Tulpenweg",
		"city": "Brüggen",
		"district": "Brüggen",
		"postcode": "41379"
	},
	{
		"lon": "6.1810695",
		"lat": "51.2754007",
		"number": "10",
		"street": "Mevissenfeld",
		"city": "Brüggen",
		"district": "Brüggen",
		"postcode": "41379"
	},
	{
		"lon": "6.185878",
		"lat": "51.2744898",
		"number": "47",
		"street": "Tulpenweg",
		"city": "Brüggen",
		"district": "Brüggen",
		"postcode": "41379"
	},
	{
		"lon": "6.1914386",
		"lat": "51.2701105",
		"number": "13 a",
		"street": "Alst",
		"city": "Brüggen",
		"district": "Brüggen",
		"postcode": "41379"
	},
	{
		"lon": "6.1941031",
		"lat": "51.2702805",
		"number": "32",
		"street": "Alst",
		"city": "Brüggen",
		"district": "Brüggen",
		"postcode": "41379"
	},
	{
		"lon": "6.1990834",
		"lat": "51.262205",
		"number": "128",
		"street": "Lüttelbrachter Straße",
		"city": "Brüggen",
		"district": "Brüggen",
		"postcode": "41379"
	},
	{
		"lon": "6.1999689",
		"lat": "51.2704899",
		"number": "60",
		"street": "Alst",
		"city": "Brüggen",
		"district": "Brüggen",
		"postcode": "41379"
	},
	{
		"lon": "6.208106",
		"lat": "51.2723103",
		"number": "109",
		"street": "Alst",
		"city": "Brüggen",
		"district": "Brüggen",
		"postcode": "41379"
	},
	{
		"lon": "6.1805674",
		"lat": "51.2796557",
		"number": "16",
		"street": "Mühlenweg",
		"city": "Brüggen",
		"district": "Brüggen",
		"postcode": "41379"
	},
	{
		"lon": "6.1852246",
		"lat": "51.2823073",
		"number": "48",
		"street": "Stiegstraße",
		"city": "Brüggen",
		"district": "Brüggen",
		"postcode": "41379"
	},
	{
		"lon": "6.1924051",
		"lat": "51.2785025",
		"number": "23",
		"street": "Brüggener Straße",
		"city": "Brüggen",
		"district": "Brüggen",
		"postcode": "41379"
	},
	{
		"lon": "6.1910346",
		"lat": "51.2811393",
		"number": "26",
		"street": "Martinusstraße",
		"city": "Brüggen",
		"district": "Brüggen",
		"postcode": "41379"
	},
	{
		"lon": "6.1931624",
		"lat": "51.2810216",
		"number": "3",
		"street": "Holtweg",
		"city": "Brüggen",
		"district": "Brüggen",
		"postcode": "41379"
	},
	{
		"lon": "6.1887075",
		"lat": "51.2824858",
		"number": "30",
		"street": "Stiegstraße",
		"city": "Brüggen",
		"district": "Brüggen",
		"postcode": "41379"
	},
	{
		"lon": "6.1918939",
		"lat": "51.282737",
		"number": "9 a",
		"street": "Stiegstraße",
		"city": "Brüggen",
		"district": "Brüggen",
		"postcode": "41379"
	},
	{
		"lon": "6.1913317",
		"lat": "51.2843585",
		"number": "64",
		"street": "Holtschneiderweg",
		"city": "Brüggen",
		"district": "Brüggen",
		"postcode": "41379"
	},
	{
		"lon": "6.1948921",
		"lat": "51.281639",
		"number": "3",
		"street": "Königstraße",
		"city": "Brüggen",
		"district": "Brüggen",
		"postcode": "41379"
	},
	{
		"lon": "6.1956978",
		"lat": "51.2826515",
		"number": "10",
		"street": "Marktstraße",
		"city": "Brüggen",
		"district": "Brüggen",
		"postcode": "41379"
	},
	{
		"lon": "6.1939338",
		"lat": "51.2851659",
		"number": "15",
		"street": "Heidhausener Straße",
		"city": "Brüggen",
		"district": "Brüggen",
		"postcode": "41379"
	},
	{
		"lon": "6.1958104",
		"lat": "51.2845713",
		"number": "1 f",
		"street": "Nordwall",
		"city": "Brüggen",
		"district": "Brüggen",
		"postcode": "41379"
	},
	{
		"lon": "6.1831645",
		"lat": "51.2909243",
		"number": "39 a",
		"street": "Heidhausen",
		"city": "Brüggen",
		"district": "Brüggen",
		"postcode": "41379"
	},
	{
		"lon": "6.1902095",
		"lat": "51.2857509",
		"number": "19",
		"street": "Zissenweg",
		"city": "Brüggen",
		"district": "Brüggen",
		"postcode": "41379"
	},
	{
		"lon": "6.1939508",
		"lat": "51.2861483",
		"number": "17",
		"street": "Op de Haag",
		"city": "Brüggen",
		"district": "Brüggen",
		"postcode": "41379"
	},
	{
		"lon": "6.1877928",
		"lat": "51.2913591",
		"number": "12 a",
		"street": "Heidhausen",
		"city": "Brüggen",
		"district": "Brüggen",
		"postcode": "41379"
	},
	{
		"lon": "6.2004252",
		"lat": "51.2805006",
		"number": "32",
		"street": "Florianstraße",
		"city": "Brüggen",
		"district": "Brüggen",
		"postcode": "41379"
	},
	{
		"lon": "6.1964444",
		"lat": "51.2826313",
		"number": "20",
		"street": "Marktstraße",
		"city": "Brüggen",
		"district": "Brüggen",
		"postcode": "41379"
	},
	{
		"lon": "6.1992041",
		"lat": "51.2827634",
		"number": "13",
		"street": "Breyeller Straße",
		"city": "Brüggen",
		"district": "Brüggen",
		"postcode": "41379"
	},
	{
		"lon": "6.1979227",
		"lat": "51.2851133",
		"number": "5",
		"street": "Am Linzenkamp",
		"city": "Brüggen",
		"district": "Brüggen",
		"postcode": "41379"
	},
	{
		"lon": "6.2006342",
		"lat": "51.2827277",
		"number": "13",
		"street": "Kahrstraße",
		"city": "Brüggen",
		"district": "Brüggen",
		"postcode": "41379"
	},
	{
		"lon": "6.2019083",
		"lat": "51.2836845",
		"number": "5",
		"street": "Stifterstraße",
		"city": "Brüggen",
		"district": "Brüggen",
		"postcode": "41379"
	},
	{
		"lon": "6.1976513",
		"lat": "51.2860109",
		"number": "40",
		"street": "Am Linzenkamp",
		"city": "Brüggen",
		"district": "Brüggen",
		"postcode": "41379"
	},
	{
		"lon": "6.1996163",
		"lat": "51.2862916",
		"number": "22",
		"street": "Uhlandstraße",
		"city": "Brüggen",
		"district": "Brüggen",
		"postcode": "41379"
	},
	{
		"lon": "6.1971912",
		"lat": "51.2883298",
		"number": "6",
		"street": "Goethestraße",
		"city": "Brüggen",
		"district": "Brüggen",
		"postcode": "41379"
	},
	{
		"lon": "6.2011245",
		"lat": "51.2863375",
		"number": "32",
		"street": "Schillerstraße",
		"city": "Brüggen",
		"district": "Brüggen",
		"postcode": "41379"
	},
	{
		"lon": "6.1963025",
		"lat": "51.2916965",
		"number": "4",
		"street": "Hülst",
		"city": "Brüggen",
		"district": "Brüggen",
		"postcode": "41379"
	},
	{
		"lon": "6.2271081",
		"lat": "51.1810716",
		"number": "55",
		"street": "Varbrook",
		"city": "Niederkrüchten",
		"district": "Niederkrüchten",
		"postcode": "41372"
	},
	{
		"lon": "6.2288412",
		"lat": "51.1885396",
		"number": "21 a",
		"street": "Steinstraße",
		"city": "Niederkrüchten",
		"district": "Niederkrüchten",
		"postcode": "41372"
	},
	{
		"lon": "6.2190339",
		"lat": "51.1944362",
		"number": "23",
		"street": "Ulmenstraße",
		"city": "Niederkrüchten",
		"district": "Niederkrüchten",
		"postcode": "41372"
	},
	{
		"lon": "6.2218041",
		"lat": "51.1948813",
		"number": "1",
		"street": "Ulmenstraße",
		"city": "Niederkrüchten",
		"district": "Niederkrüchten",
		"postcode": "41372"
	},
	{
		"lon": "6.2209339",
		"lat": "51.1965782",
		"number": "2",
		"street": "Friedensstraße",
		"city": "Niederkrüchten",
		"district": "Niederkrüchten",
		"postcode": "41372"
	},
	{
		"lon": "6.2232477",
		"lat": "51.1955068",
		"number": "5 a",
		"street": "Am Stein",
		"city": "Niederkrüchten",
		"district": "Niederkrüchten",
		"postcode": "41372"
	},
	{
		"lon": "6.2199569",
		"lat": "51.1975221",
		"number": "5",
		"street": "Kurze Straße",
		"city": "Niederkrüchten",
		"district": "Niederkrüchten",
		"postcode": "41372"
	},
	{
		"lon": "6.2206852",
		"lat": "51.1984295",
		"number": "5",
		"street": "Kirchensträßchen",
		"city": "Niederkrüchten",
		"district": "Niederkrüchten",
		"postcode": "41372"
	},
	{
		"lon": "6.220872",
		"lat": "51.1991878",
		"number": "3",
		"street": "Parkstraße",
		"city": "Niederkrüchten",
		"district": "Niederkrüchten",
		"postcode": "41372"
	},
	{
		"lon": "6.225422",
		"lat": "51.1975035",
		"number": "24",
		"street": "Am Platzbruch",
		"city": "Niederkrüchten",
		"district": "Niederkrüchten",
		"postcode": "41372"
	},
	{
		"lon": "6.2417904",
		"lat": "51.187186",
		"number": "18",
		"street": "Blonderath",
		"city": "Niederkrüchten",
		"district": "Niederkrüchten",
		"postcode": "41372"
	},
	{
		"lon": "6.2694",
		"lat": "51.1837699",
		"number": "60",
		"street": "Lüttelforst",
		"city": "Schwalmtal",
		"district": "Schwalmtal",
		"postcode": "41366"
	},
	{
		"lon": "6.2606118",
		"lat": "51.1881585",
		"number": "115",
		"street": "Lüttelforst",
		"city": "Schwalmtal",
		"district": "Schwalmtal",
		"postcode": "41366"
	},
	{
		"lon": "6.2558008",
		"lat": "51.1913656",
		"number": "168",
		"street": "Lüttelforst",
		"city": "Schwalmtal",
		"district": "Schwalmtal",
		"postcode": "41366"
	},
	{
		"lon": "6.2799206",
		"lat": "51.2011996",
		"number": "139",
		"street": "Ungerather Straße",
		"city": "Schwalmtal",
		"district": "Schwalmtal",
		"postcode": "41366"
	},
	{
		"lon": "6.2221314",
		"lat": "51.2016079",
		"number": "12",
		"street": "Jahnstraße",
		"city": "Niederkrüchten",
		"district": "Niederkrüchten",
		"postcode": "41372"
	},
	{
		"lon": "6.2194138",
		"lat": "51.2056607",
		"number": "58",
		"street": "Brempter Weg",
		"city": "Niederkrüchten",
		"district": "Niederkrüchten",
		"postcode": "41372"
	},
	{
		"lon": "6.2182508",
		"lat": "51.2149868",
		"number": "8",
		"street": "Struckerhof",
		"city": "Niederkrüchten",
		"district": "Niederkrüchten",
		"postcode": "41372"
	},
	{
		"lon": "6.2226559",
		"lat": "51.2136121",
		"number": "6",
		"street": "Zur Brücke",
		"city": "Niederkrüchten",
		"district": "Niederkrüchten",
		"postcode": "41372"
	},
	{
		"lon": "6.2233968",
		"lat": "51.2158552",
		"number": "20",
		"street": "Wiesenstraße",
		"city": "Niederkrüchten",
		"district": "Niederkrüchten",
		"postcode": "41372"
	},
	{
		"lon": "6.2487824",
		"lat": "51.2164574",
		"number": "233",
		"street": "Roermonder Straße",
		"city": "Schwalmtal",
		"district": "Schwalmtal",
		"postcode": "41366"
	},
	{
		"lon": "6.2229871",
		"lat": "51.2181724",
		"number": "5",
		"street": "Am Wildpfad",
		"city": "Niederkrüchten",
		"district": "Niederkrüchten",
		"postcode": "41372"
	},
	{
		"lon": "6.2243395",
		"lat": "51.2187145",
		"number": "22",
		"street": "Am Wildpfad",
		"city": "Niederkrüchten",
		"district": "Niederkrüchten",
		"postcode": "41372"
	},
	{
		"lon": "6.2301445",
		"lat": "51.2169261",
		"number": "89",
		"street": "Harikseeweg",
		"city": "Schwalmtal",
		"district": "Schwalmtal",
		"postcode": "41366"
	},
	{
		"lon": "6.2227781",
		"lat": "51.2317742",
		"number": "1",
		"street": "Frankenmühle",
		"city": "Schwalmtal",
		"district": "Schwalmtal",
		"postcode": "41366"
	},
	{
		"lon": "6.2457411",
		"lat": "51.2213051",
		"number": "25 a",
		"street": "Linde",
		"city": "Schwalmtal",
		"district": "Schwalmtal",
		"postcode": "41366"
	},
	{
		"lon": "6.2456853",
		"lat": "51.2229097",
		"number": "149 a",
		"street": "Geneschen",
		"city": "Schwalmtal",
		"district": "Schwalmtal",
		"postcode": "41366"
	},
	{
		"lon": "6.2412303",
		"lat": "51.2261",
		"number": "38",
		"street": "Topsweg",
		"city": "Schwalmtal",
		"district": "Schwalmtal",
		"postcode": "41366"
	},
	{
		"lon": "6.2372681",
		"lat": "51.231139",
		"number": "6",
		"street": "Dietrich-Bonhoeffer-Str.",
		"city": "Schwalmtal",
		"district": "Schwalmtal",
		"postcode": "41366"
	},
	{
		"lon": "6.2415167",
		"lat": "51.2285497",
		"number": "65 b",
		"street": "Polmansstraße",
		"city": "Schwalmtal",
		"district": "Schwalmtal",
		"postcode": "41366"
	},
	{
		"lon": "6.2378269",
		"lat": "51.2315145",
		"number": "11",
		"street": "Geschw.-Scholl-Straße",
		"city": "Schwalmtal",
		"district": "Schwalmtal",
		"postcode": "41366"
	},
	{
		"lon": "6.2397139",
		"lat": "51.2317848",
		"number": "18",
		"street": "Polmansstraße",
		"city": "Schwalmtal",
		"district": "Schwalmtal",
		"postcode": "41366"
	},
	{
		"lon": "6.2437643",
		"lat": "51.2258808",
		"number": "5",
		"street": "Uranusweg",
		"city": "Schwalmtal",
		"district": "Schwalmtal",
		"postcode": "41366"
	},
	{
		"lon": "6.2459738",
		"lat": "51.2265503",
		"number": "89",
		"street": "Geneschen",
		"city": "Schwalmtal",
		"district": "Schwalmtal",
		"postcode": "41366"
	},
	{
		"lon": "6.2449259",
		"lat": "51.2281597",
		"number": "8 a",
		"street": "Nelkenweg",
		"city": "Schwalmtal",
		"district": "Schwalmtal",
		"postcode": "41366"
	},
	{
		"lon": "6.2468812",
		"lat": "51.2275956",
		"number": "8",
		"street": "Tulpenweg",
		"city": "Schwalmtal",
		"district": "Schwalmtal",
		"postcode": "41366"
	},
	{
		"lon": "6.2434831",
		"lat": "51.2303739",
		"number": "16",
		"street": "Margeritenweg",
		"city": "Schwalmtal",
		"district": "Schwalmtal",
		"postcode": "41366"
	},
	{
		"lon": "6.2421181",
		"lat": "51.2318769",
		"number": "13",
		"street": "Dopbusch",
		"city": "Schwalmtal",
		"district": "Schwalmtal",
		"postcode": "41366"
	},
	{
		"lon": "6.2486936",
		"lat": "51.2318289",
		"number": "10",
		"street": "Bruchweg",
		"city": "Schwalmtal",
		"district": "Schwalmtal",
		"postcode": "41366"
	},
	{
		"lon": "6.2640778",
		"lat": "51.2064123",
		"number": "147",
		"street": "Breslauer Straße",
		"city": "Schwalmtal",
		"district": "Schwalmtal",
		"postcode": "41366"
	},
	{
		"lon": "6.2634655",
		"lat": "51.207948",
		"number": "58",
		"street": "Danziger Straße",
		"city": "Schwalmtal",
		"district": "Schwalmtal",
		"postcode": "41366"
	},
	{
		"lon": "6.2653809",
		"lat": "51.2070754",
		"number": "44 a",
		"street": "Breslauer Straße",
		"city": "Schwalmtal",
		"district": "Schwalmtal",
		"postcode": "41366"
	},
	{
		"lon": "6.2664045",
		"lat": "51.2071594",
		"number": "103",
		"street": "Breslauer Straße",
		"city": "Schwalmtal",
		"district": "Schwalmtal",
		"postcode": "41366"
	},
	{
		"lon": "6.2652334",
		"lat": "51.2087943",
		"number": "14 a",
		"street": "Danziger Straße",
		"city": "Schwalmtal",
		"district": "Schwalmtal",
		"postcode": "41366"
	},
	{
		"lon": "6.2676796",
		"lat": "51.2086728",
		"number": "79",
		"street": "Breslauer Straße",
		"city": "Schwalmtal",
		"district": "Schwalmtal",
		"postcode": "41366"
	},
	{
		"lon": "6.255827",
		"lat": "51.2146758",
		"number": "215",
		"street": "Roermonder Straße",
		"city": "Schwalmtal",
		"district": "Schwalmtal",
		"postcode": "41366"
	},
	{
		"lon": "6.26753",
		"lat": "51.2100249",
		"number": "14",
		"street": "Klosterstraße",
		"city": "Schwalmtal",
		"district": "Schwalmtal",
		"postcode": "41366"
	},
	{
		"lon": "6.2667161",
		"lat": "51.2125162",
		"number": "16",
		"street": "Gangesallee",
		"city": "Schwalmtal",
		"district": "Schwalmtal",
		"postcode": "41366"
	},
	{
		"lon": "6.2598417",
		"lat": "51.2147056",
		"number": "37",
		"street": "Rüsgen",
		"city": "Schwalmtal",
		"district": "Schwalmtal",
		"postcode": "41366"
	},
	{
		"lon": "6.2687682",
		"lat": "51.206168",
		"number": "6 a",
		"street": "Levy-Weg",
		"city": "Schwalmtal",
		"district": "Schwalmtal",
		"postcode": "41366"
	},
	{
		"lon": "6.2692394",
		"lat": "51.2072077",
		"number": "40",
		"street": "An der Schomm",
		"city": "Schwalmtal",
		"district": "Schwalmtal",
		"postcode": "41366"
	},
	{
		"lon": "6.2725498",
		"lat": "51.2068644",
		"number": "13",
		"street": "Am Nottbäumchen",
		"city": "Schwalmtal",
		"district": "Schwalmtal",
		"postcode": "41366"
	},
	{
		"lon": "6.2694353",
		"lat": "51.2084214",
		"number": "26",
		"street": "An Haus Clee",
		"city": "Schwalmtal",
		"district": "Schwalmtal",
		"postcode": "41366"
	},
	{
		"lon": "6.2719479",
		"lat": "51.2095788",
		"number": "14",
		"street": "Ungerather Straße",
		"city": "Schwalmtal",
		"district": "Schwalmtal",
		"postcode": "41366"
	},
	{
		"lon": "6.2746291",
		"lat": "51.2078269",
		"number": "94",
		"street": "Am Nottbäumchen",
		"city": "Schwalmtal",
		"district": "Schwalmtal",
		"postcode": "41366"
	},
	{
		"lon": "6.2740362",
		"lat": "51.2089411",
		"number": "1",
		"street": "Lüttelforster Weg",
		"city": "Schwalmtal",
		"district": "Schwalmtal",
		"postcode": "41366"
	},
	{
		"lon": "6.2802349",
		"lat": "51.202539",
		"number": "131 c",
		"street": "Ungerather Straße",
		"city": "Schwalmtal",
		"district": "Schwalmtal",
		"postcode": "41366"
	},
	{
		"lon": "6.2798521",
		"lat": "51.2059331",
		"number": "43",
		"street": "Ungerather Kirchweg",
		"city": "Schwalmtal",
		"district": "Schwalmtal",
		"postcode": "41366"
	},
	{
		"lon": "6.2771347",
		"lat": "51.2087666",
		"number": "5 e",
		"street": "Ungerather Kirchweg",
		"city": "Schwalmtal",
		"district": "Schwalmtal",
		"postcode": "41366"
	},
	{
		"lon": "6.2712022",
		"lat": "51.2122376",
		"number": "53",
		"street": "Niederstraße",
		"city": "Schwalmtal",
		"district": "Schwalmtal",
		"postcode": "41366"
	},
	{
		"lon": "6.2711463",
		"lat": "51.2134458",
		"number": "34",
		"street": "Lange Straße",
		"city": "Schwalmtal",
		"district": "Schwalmtal",
		"postcode": "41366"
	},
	{
		"lon": "6.2750775",
		"lat": "51.2117395",
		"number": "9",
		"street": "Wiesenstraße",
		"city": "Schwalmtal",
		"district": "Schwalmtal",
		"postcode": "41366"
	},
	{
		"lon": "6.2737821",
		"lat": "51.2126558",
		"number": "2",
		"street": "Gladbacher Straße",
		"city": "Schwalmtal",
		"district": "Schwalmtal",
		"postcode": "41366"
	},
	{
		"lon": "6.2755991",
		"lat": "51.2120978",
		"number": "23",
		"street": "Gladbacher Straße",
		"city": "Schwalmtal",
		"district": "Schwalmtal",
		"postcode": "41366"
	},
	{
		"lon": "6.2691551",
		"lat": "51.2153155",
		"number": "66",
		"street": "An der Hausermühle",
		"city": "Schwalmtal",
		"district": "Schwalmtal",
		"postcode": "41366"
	},
	{
		"lon": "6.2731225",
		"lat": "51.2138213",
		"number": "7",
		"street": "Gartenstraße",
		"city": "Schwalmtal",
		"district": "Schwalmtal",
		"postcode": "41366"
	},
	{
		"lon": "6.2755595",
		"lat": "51.2143199",
		"number": "13",
		"street": "Wallweg",
		"city": "Schwalmtal",
		"district": "Schwalmtal",
		"postcode": "41366"
	},
	{
		"lon": "6.2755984",
		"lat": "51.2160384",
		"number": "66",
		"street": "Dülkener Straße",
		"city": "Schwalmtal",
		"district": "Schwalmtal",
		"postcode": "41366"
	},
	{
		"lon": "6.2792914",
		"lat": "51.2116405",
		"number": "49",
		"street": "Gladbacher Straße",
		"city": "Schwalmtal",
		"district": "Schwalmtal",
		"postcode": "41366"
	},
	{
		"lon": "6.2805361",
		"lat": "51.2129876",
		"number": "23 b",
		"street": "Schillerstraße",
		"city": "Schwalmtal",
		"district": "Schwalmtal",
		"postcode": "41366"
	},
	{
		"lon": "6.2809512",
		"lat": "51.2121459",
		"number": "2",
		"street": "Gerhart-Hauptmann-Straße",
		"city": "Schwalmtal",
		"district": "Schwalmtal",
		"postcode": "41366"
	},
	{
		"lon": "6.2840166",
		"lat": "51.2128701",
		"number": "23",
		"street": "Am Zoppenberg",
		"city": "Schwalmtal",
		"district": "Schwalmtal",
		"postcode": "41366"
	},
	{
		"lon": "6.2804388",
		"lat": "51.2150983",
		"number": "46",
		"street": "Friedenstraße",
		"city": "Schwalmtal",
		"district": "Schwalmtal",
		"postcode": "41366"
	},
	{
		"lon": "6.2776676",
		"lat": "51.2176397",
		"number": "20",
		"street": "Schubertstraße",
		"city": "Schwalmtal",
		"district": "Schwalmtal",
		"postcode": "41366"
	},
	{
		"lon": "6.2831247",
		"lat": "51.2157246",
		"number": "1",
		"street": "Querstraße",
		"city": "Schwalmtal",
		"district": "Schwalmtal",
		"postcode": "41366"
	},
	{
		"lon": "6.2514543",
		"lat": "51.2185064",
		"number": "5",
		"street": "Rieth",
		"city": "Schwalmtal",
		"district": "Schwalmtal",
		"postcode": "41366"
	},
	{
		"lon": "6.2619932",
		"lat": "51.2185812",
		"number": "2",
		"street": "Malvenweg",
		"city": "Schwalmtal",
		"district": "Schwalmtal",
		"postcode": "41366"
	},
	{
		"lon": "6.265982",
		"lat": "51.2180194",
		"number": "19",
		"street": "Malvenweg",
		"city": "Schwalmtal",
		"district": "Schwalmtal",
		"postcode": "41366"
	},
	{
		"lon": "6.266607",
		"lat": "51.2201958",
		"number": "76",
		"street": "Amerner Straße",
		"city": "Schwalmtal",
		"district": "Schwalmtal",
		"postcode": "41366"
	},
	{
		"lon": "6.2525556",
		"lat": "51.2303546",
		"number": "19",
		"street": "Lenzenpfad",
		"city": "Schwalmtal",
		"district": "Schwalmtal",
		"postcode": "41366"
	},
	{
		"lon": "6.2523605",
		"lat": "51.2308117",
		"number": "18",
		"street": "Palzeskamp",
		"city": "Schwalmtal",
		"district": "Schwalmtal",
		"postcode": "41366"
	},
	{
		"lon": "6.2547235",
		"lat": "51.2314564",
		"number": "2",
		"street": "Eichendorffstraße",
		"city": "Schwalmtal",
		"district": "Schwalmtal",
		"postcode": "41366"
	},
	{
		"lon": "6.2685079",
		"lat": "51.2194436",
		"number": "27 a",
		"street": "Vogelsrather Weg",
		"city": "Schwalmtal",
		"district": "Schwalmtal",
		"postcode": "41366"
	},
	{
		"lon": "6.2744585",
		"lat": "51.2221731",
		"number": "9 a",
		"street": "Hühnerkamp",
		"city": "Schwalmtal",
		"district": "Schwalmtal",
		"postcode": "41366"
	},
	{
		"lon": "6.2799859",
		"lat": "51.2189906",
		"number": "6",
		"street": "Mozartstraße",
		"city": "Schwalmtal",
		"district": "Schwalmtal",
		"postcode": "41366"
	},
	{
		"lon": "6.2679561",
		"lat": "51.2286601",
		"number": "105 b",
		"street": "Vogelsrath",
		"city": "Schwalmtal",
		"district": "Schwalmtal",
		"postcode": "41366"
	},
	{
		"lon": "6.2687306",
		"lat": "51.2328381",
		"number": "28",
		"street": "Vogelsrath",
		"city": "Schwalmtal",
		"district": "Schwalmtal",
		"postcode": "41366"
	},
	{
		"lon": "6.3061862",
		"lat": "51.1828639",
		"number": "4",
		"street": "Leloh",
		"city": "Schwalmtal",
		"district": "Schwalmtal",
		"postcode": "41366"
	},
	{
		"lon": "6.2957106",
		"lat": "51.2023856",
		"number": "6",
		"street": "Gustav-Rösler-Straße",
		"city": "Schwalmtal",
		"district": "Schwalmtal",
		"postcode": "41366"
	},
	{
		"lon": "6.3105037",
		"lat": "51.1940999",
		"number": "31",
		"street": "Fischeln",
		"city": "Schwalmtal",
		"district": "Schwalmtal",
		"postcode": "41366"
	},
	{
		"lon": "6.3099204",
		"lat": "51.2009634",
		"number": "10",
		"street": "Fischelner Weg",
		"city": "Schwalmtal",
		"district": "Schwalmtal",
		"postcode": "41366"
	},
	{
		"lon": "6.3135342",
		"lat": "51.1981925",
		"number": "18",
		"street": "Waldweg",
		"city": "Schwalmtal",
		"district": "Schwalmtal",
		"postcode": "41366"
	},
	{
		"lon": "6.2933385",
		"lat": "51.208219",
		"number": "28 i",
		"street": "Bernhard-Rösler-Straße",
		"city": "Schwalmtal",
		"district": "Schwalmtal",
		"postcode": "41366"
	},
	{
		"lon": "6.2921756",
		"lat": "51.2089599",
		"number": "1",
		"street": "St.-Wolfhelm-Straße",
		"city": "Schwalmtal",
		"district": "Schwalmtal",
		"postcode": "41366"
	},
	{
		"lon": "6.2957337",
		"lat": "51.2040385",
		"number": "4",
		"street": "Am Bergerpesch",
		"city": "Schwalmtal",
		"district": "Waldniel",
		"postcode": "41366"
	},
	{
		"lon": "6.2954926",
		"lat": "51.2065147",
		"number": "6",
		"street": "Weichselstraße",
		"city": "Schwalmtal",
		"district": "Schwalmtal",
		"postcode": "41366"
	},
	{
		"lon": "6.2975461",
		"lat": "51.2063233",
		"number": "56",
		"street": "Brunnenstraße",
		"city": "Schwalmtal",
		"district": "Schwalmtal",
		"postcode": "41366"
	},
	{
		"lon": "6.2957444",
		"lat": "51.2071756",
		"number": "35",
		"street": "Weichselstraße",
		"city": "Schwalmtal",
		"district": "Schwalmtal",
		"postcode": "41366"
	},
	{
		"lon": "6.2967054",
		"lat": "51.208419",
		"number": "16",
		"street": "Oderstraße",
		"city": "Schwalmtal",
		"district": "Schwalmtal",
		"postcode": "41366"
	},
	{
		"lon": "6.2966204",
		"lat": "51.20899",
		"number": "23",
		"street": "Oderstraße",
		"city": "Schwalmtal",
		"district": "Schwalmtal",
		"postcode": "41366"
	},
	{
		"lon": "6.2991833",
		"lat": "51.2085592",
		"number": "3",
		"street": "Brunnenstraße",
		"city": "Schwalmtal",
		"district": "Schwalmtal",
		"postcode": "41366"
	},
	{
		"lon": "6.2854986",
		"lat": "51.2151894",
		"number": "28",
		"street": "Sechs Linden",
		"city": "Schwalmtal",
		"district": "Schwalmtal",
		"postcode": "41366"
	},
	{
		"lon": "6.3015603",
		"lat": "51.2140208",
		"number": "14",
		"street": "Berg",
		"city": "Schwalmtal",
		"district": "Schwalmtal",
		"postcode": "41366"
	},
	{
		"lon": "6.308288",
		"lat": "51.2089074",
		"number": "22",
		"street": "Hostert",
		"city": "Schwalmtal",
		"district": "Schwalmtal",
		"postcode": "41366"
	},
	{
		"lon": "6.3050284",
		"lat": "51.2108613",
		"number": "17",
		"street": "Eschenrath",
		"city": "Schwalmtal",
		"district": "Schwalmtal",
		"postcode": "41366"
	},
	{
		"lon": "6.3034074",
		"lat": "51.2150273",
		"number": "31",
		"street": "Berg",
		"city": "Schwalmtal",
		"district": "Schwalmtal",
		"postcode": "41366"
	},
	{
		"lon": "6.2969988",
		"lat": "51.2190367",
		"number": "66",
		"street": "Eickener Straße",
		"city": "Schwalmtal",
		"district": "Schwalmtal",
		"postcode": "41366"
	},
	{
		"lon": "6.2893412",
		"lat": "51.227471",
		"number": "22 a",
		"street": "Birgen",
		"city": "Schwalmtal",
		"district": "Schwalmtal",
		"postcode": "41366"
	},
	{
		"lon": "6.3073086",
		"lat": "51.2323536",
		"number": "129",
		"street": "Waldnieler Straße",
		"city": "Viersen",
		"district": "Dülken",
		"postcode": "41751"
	},
	{
		"lon": "6.3236159",
		"lat": "51.2051303",
		"number": "73",
		"street": "Hehler",
		"city": "Schwalmtal",
		"district": "Schwalmtal",
		"postcode": "41366"
	},
	{
		"lon": "6.3295067",
		"lat": "51.2075102",
		"number": "12",
		"street": "Hehler",
		"city": "Schwalmtal",
		"district": "Schwalmtal",
		"postcode": "41366"
	},
	{
		"lon": "6.3189791",
		"lat": "51.2299681",
		"number": "41",
		"street": "Industriering",
		"city": "Viersen",
		"district": "Viersen",
		"postcode": "41751"
	},
	{
		"lon": "6.3323666",
		"lat": "51.2309708",
		"number": "10",
		"street": "Gewerbering",
		"city": "Viersen",
		"district": "Dülken",
		"postcode": "41751"
	},
	{
		"lon": "6.3422148",
		"lat": "51.2301584",
		"number": "32",
		"street": "Hausen",
		"city": "Viersen",
		"district": "Viersen",
		"postcode": "41751"
	},
	{
		"lon": "6.2225053",
		"lat": "51.2322134",
		"number": "5",
		"street": "Frankenmühle",
		"city": "Schwalmtal",
		"district": "Schwalmtal",
		"postcode": "41366"
	},
	{
		"lon": "6.2184335",
		"lat": "51.2466974",
		"number": "8",
		"street": "Stapp",
		"city": "Brüggen",
		"district": "Brüggen",
		"postcode": "41379"
	},
	{
		"lon": "6.237758",
		"lat": "51.2325807",
		"number": "8",
		"street": "Maximilian-Kolbe-Straße",
		"city": "Schwalmtal",
		"district": "Schwalmtal",
		"postcode": "41366"
	},
	{
		"lon": "6.2402919",
		"lat": "51.233096",
		"number": "1",
		"street": "Antoniusstraße",
		"city": "Schwalmtal",
		"district": "Schwalmtal",
		"postcode": "41366"
	},
	{
		"lon": "6.2394049",
		"lat": "51.2381863",
		"number": "2",
		"street": "Heidweiher Straße",
		"city": "Schwalmtal",
		"district": "Schwalmtal",
		"postcode": "41366"
	},
	{
		"lon": "6.2477098",
		"lat": "51.2328494",
		"number": "9",
		"street": "Hauptstraße",
		"city": "Schwalmtal",
		"district": "Schwalmtal",
		"postcode": "41366"
	},
	{
		"lon": "6.2485034",
		"lat": "51.2337143",
		"number": "5",
		"street": "Dorfstraße",
		"city": "Schwalmtal",
		"district": "Schwalmtal",
		"postcode": "41366"
	},
	{
		"lon": "6.246925",
		"lat": "51.2357356",
		"number": "29",
		"street": "Finkenweg",
		"city": "Schwalmtal",
		"district": "Schwalmtal",
		"postcode": "41366"
	},
	{
		"lon": "6.2420371",
		"lat": "51.2376928",
		"number": "15",
		"street": "Winkel",
		"city": "Schwalmtal",
		"district": "Schwalmtal",
		"postcode": "41366"
	},
	{
		"lon": "6.2464889",
		"lat": "51.236348",
		"number": "18",
		"street": "Finkenweg",
		"city": "Schwalmtal",
		"district": "Schwalmtal",
		"postcode": "41366"
	},
	{
		"lon": "6.2495309",
		"lat": "51.2386109",
		"number": "8",
		"street": "Siemensstraße",
		"city": "Schwalmtal",
		"district": "Schwalmtal",
		"postcode": "41366"
	},
	{
		"lon": "6.226205",
		"lat": "51.248269",
		"number": "8 a",
		"street": "Haverslohe",
		"city": "Brüggen",
		"district": "Brüggen",
		"postcode": "41379"
	},
	{
		"lon": "6.2346996",
		"lat": "51.2595383",
		"number": "3",
		"street": "Happelter Heide",
		"city": "Brüggen",
		"district": "Brüggen",
		"postcode": "41379"
	},
	{
		"lon": "6.2522231",
		"lat": "51.2336991",
		"number": "61 c",
		"street": "Dorfstraße",
		"city": "Schwalmtal",
		"district": "Schwalmtal",
		"postcode": "41366"
	},
	{
		"lon": "6.2503241",
		"lat": "51.2391206",
		"number": "1",
		"street": "Siemensstraße",
		"city": "Schwalmtal",
		"district": "Schwalmtal",
		"postcode": "41366"
	},
	{
		"lon": "6.2656854",
		"lat": "51.2412728",
		"number": "22",
		"street": "End",
		"city": "Schwalmtal",
		"district": "Schwalmtal",
		"postcode": "41366"
	},
	{
		"lon": "6.2623508",
		"lat": "51.2478447",
		"number": "2 d",
		"street": "Genend",
		"city": "Schwalmtal",
		"district": "Schwalmtal",
		"postcode": "41366"
	},
	{
		"lon": "6.2677215",
		"lat": "51.2417256",
		"number": "26",
		"street": "End",
		"city": "Schwalmtal",
		"district": "Schwalmtal",
		"postcode": "41366"
	},
	{
		"lon": "6.2607631",
		"lat": "51.2492613",
		"number": "25",
		"street": "Boisheimer Straße",
		"city": "Schwalmtal",
		"district": "Schwalmtal",
		"postcode": "41366"
	},
	{
		"lon": "6.2634966",
		"lat": "51.2509082",
		"number": "10",
		"street": "Nordstraße",
		"city": "Schwalmtal",
		"district": "Schwalmtal",
		"postcode": "41366"
	},
	{
		"lon": "6.2626108",
		"lat": "51.2522935",
		"number": "60",
		"street": "Boisheimer Straße",
		"city": "Schwalmtal",
		"district": "Schwalmtal",
		"postcode": "41366"
	},
	{
		"lon": "6.2732476",
		"lat": "51.2509135",
		"number": "11 c",
		"street": "Felderseite",
		"city": "Schwalmtal",
		"district": "Schwalmtal",
		"postcode": "41366"
	},
	{
		"lon": "6.2802849",
		"lat": "51.2617902",
		"number": "28",
		"street": "Nettetaler Straße",
		"city": "Viersen",
		"district": "Boisheim",
		"postcode": "41751"
	},
	{
		"lon": "6.2161921",
		"lat": "51.2761931",
		"number": "20",
		"street": "Boerholz",
		"city": "Brüggen",
		"district": "Brüggen",
		"postcode": "41379"
	},
	{
		"lon": "6.2222884",
		"lat": "51.2768109",
		"number": "53",
		"street": "Boerholz",
		"city": "Brüggen",
		"district": "Brüggen",
		"postcode": "41379"
	},
	{
		"lon": "6.2386251",
		"lat": "51.2714663",
		"number": "106 a",
		"street": "Kindt",
		"city": "Nettetal",
		"district": "Schaag",
		"postcode": "41334"
	},
	{
		"lon": "6.2349369",
		"lat": "51.2756913",
		"number": "35",
		"street": "Rieth",
		"city": "Nettetal",
		"district": "Schaag",
		"postcode": "41334"
	},
	{
		"lon": "6.2395309",
		"lat": "51.2728766",
		"number": "25",
		"street": "Kindt",
		"city": "Nettetal",
		"district": "Schaag",
		"postcode": "41334"
	},
	{
		"lon": "6.2226513",
		"lat": "51.27834",
		"number": "52 b",
		"street": "Boerholz",
		"city": "Brüggen",
		"district": "Brüggen",
		"postcode": "41379"
	},
	{
		"lon": "6.2317221",
		"lat": "51.2804149",
		"number": "15",
		"street": "Bruckrath",
		"city": "Nettetal",
		"district": "Schaag",
		"postcode": "41334"
	},
	{
		"lon": "6.2368996",
		"lat": "51.2810173",
		"number": "33",
		"street": "Brachter Straße",
		"city": "Nettetal",
		"district": "Schaag",
		"postcode": "41334"
	},
	{
		"lon": "6.2415925",
		"lat": "51.279578",
		"number": "5 a",
		"street": "Kindter Straße",
		"city": "Nettetal",
		"district": "Schaag",
		"postcode": "41334"
	},
	{
		"lon": "6.2403512",
		"lat": "51.2813644",
		"number": "13",
		"street": "Brachter Straße",
		"city": "Nettetal",
		"district": "Schaag",
		"postcode": "41334"
	},
	{
		"lon": "6.2436796",
		"lat": "51.2791107",
		"number": "9",
		"street": "Versteylstraße",
		"city": "Nettetal",
		"district": "Schaag",
		"postcode": "41334"
	},
	{
		"lon": "6.2457208",
		"lat": "51.2802948",
		"number": "15",
		"street": "Boisheimer Straße",
		"city": "Nettetal",
		"district": "Schaag",
		"postcode": "41334"
	},
	{
		"lon": "6.2430938",
		"lat": "51.2824233",
		"number": "7",
		"street": "Hans-Herbert-Rösges-Straß",
		"city": "Nettetal",
		"district": "Schaag",
		"postcode": "41334"
	},
	{
		"lon": "6.2427128",
		"lat": "51.2830183",
		"number": "24",
		"street": "Hans-Herbert-Rösges-Straß",
		"city": "Nettetal",
		"district": "Schaag",
		"postcode": "41334"
	},
	{
		"lon": "6.24444",
		"lat": "51.2838425",
		"number": "43 a",
		"street": "Annastraße",
		"city": "Nettetal",
		"district": "Schaag",
		"postcode": "41334"
	},
	{
		"lon": "6.2464324",
		"lat": "51.2846562",
		"number": "55",
		"street": "Speck",
		"city": "Nettetal",
		"district": "Schaag",
		"postcode": "41334"
	},
	{
		"lon": "6.2379793",
		"lat": "51.2889316",
		"number": "68 e",
		"street": "Vorbruch",
		"city": "Nettetal",
		"district": "Breyell",
		"postcode": "41334"
	},
	{
		"lon": "6.2384357",
		"lat": "51.2887617",
		"number": "72 b",
		"street": "Vorbruch",
		"city": "Nettetal",
		"district": "Breyell",
		"postcode": "41334"
	},
	{
		"lon": "6.2432467",
		"lat": "51.2889015",
		"number": "34",
		"street": "Metgesheide",
		"city": "Nettetal",
		"district": "Breyell",
		"postcode": "41334"
	},
	{
		"lon": "6.2405867",
		"lat": "51.2918655",
		"number": "22",
		"street": "Vorbruch",
		"city": "Nettetal",
		"district": "Breyell",
		"postcode": "41334"
	},
	{
		"lon": "6.241151",
		"lat": "51.2934778",
		"number": "2 a",
		"street": "Christian-Rötzel-Allee",
		"city": "Nettetal",
		"district": "Breyell",
		"postcode": "41334"
	},
	{
		"lon": "6.2441419",
		"lat": "51.2924954",
		"number": "8",
		"street": "Fongern",
		"city": "Nettetal",
		"district": "Breyell",
		"postcode": "41334"
	},
	{
		"lon": "6.2501222",
		"lat": "51.2699737",
		"number": "88",
		"street": "Am Kreuzgarten",
		"city": "Nettetal",
		"district": "Schaag",
		"postcode": "41334"
	},
	{
		"lon": "6.2516155",
		"lat": "51.2757995",
		"number": "16",
		"street": "Rahe",
		"city": "Nettetal",
		"district": "Schaag",
		"postcode": "41334"
	},
	{
		"lon": "6.2517269",
		"lat": "51.2767745",
		"number": "9 a",
		"street": "Rahe",
		"city": "Nettetal",
		"district": "Schaag",
		"postcode": "41334"
	},
	{
		"lon": "6.2529643",
		"lat": "51.2782055",
		"number": "10",
		"street": "Blumenstraße",
		"city": "Nettetal",
		"district": "Schaag",
		"postcode": "41334"
	},
	{
		"lon": "6.2560374",
		"lat": "51.2772359",
		"number": "16",
		"street": "Mommer Straße",
		"city": "Nettetal",
		"district": "Schaag",
		"postcode": "41334"
	},
	{
		"lon": "6.2710811",
		"lat": "51.2689805",
		"number": "95",
		"street": "Nettetaler Straße",
		"city": "Viersen",
		"district": "Boisheim",
		"postcode": "41751"
	},
	{
		"lon": "6.271091",
		"lat": "51.2701777",
		"number": "2",
		"street": "An St. Peter",
		"city": "Viersen",
		"district": "Boisheim",
		"postcode": "41751"
	},
	{
		"lon": "6.2717679",
		"lat": "51.2712484",
		"number": "140",
		"street": "Nettetaler Straße",
		"city": "Viersen",
		"district": "Boisheim",
		"postcode": "41751"
	},
	{
		"lon": "6.2753588",
		"lat": "51.2685938",
		"number": "31",
		"street": "Dorfer Feld",
		"city": "Viersen",
		"district": "Boisheim",
		"postcode": "41751"
	},
	{
		"lon": "6.2747606",
		"lat": "51.269913",
		"number": "13",
		"street": "Luzienweg",
		"city": "Viersen",
		"district": "Boisheim",
		"postcode": "41751"
	},
	{
		"lon": "6.2765523",
		"lat": "51.2714368",
		"number": "5",
		"street": "Pommernweg",
		"city": "Viersen",
		"district": "Boisheim",
		"postcode": "41751"
	},
	{
		"lon": "6.2720124",
		"lat": "51.2718834",
		"number": "153",
		"street": "Nettetaler Straße",
		"city": "Viersen",
		"district": "Boisheim",
		"postcode": "41751"
	},
	{
		"lon": "6.2692795",
		"lat": "51.2748459",
		"number": "1",
		"street": "Im Bruch",
		"city": "Viersen",
		"district": "Boisheim",
		"postcode": "41751"
	},
	{
		"lon": "6.2744069",
		"lat": "51.273324",
		"number": "8",
		"street": "Konenpfad",
		"city": "Viersen",
		"district": "Boisheim",
		"postcode": "41751"
	},
	{
		"lon": "6.2735245",
		"lat": "51.2743561",
		"number": "15",
		"street": "Raiffeisenstraße",
		"city": "Viersen",
		"district": "Boisheim",
		"postcode": "41751"
	},
	{
		"lon": "6.2732546",
		"lat": "51.2771844",
		"number": "1",
		"street": "Linder Straße",
		"city": "Viersen",
		"district": "Boisheim",
		"postcode": "41751"
	},
	{
		"lon": "6.274906",
		"lat": "51.2782285",
		"number": "5 b",
		"street": "Bonesender Straße",
		"city": "Viersen",
		"district": "Boisheim",
		"postcode": "41751"
	},
	{
		"lon": "6.2485134",
		"lat": "51.2793431",
		"number": "37",
		"street": "Boisheimer Straße",
		"city": "Nettetal",
		"district": "Schaag",
		"postcode": "41334"
	},
	{
		"lon": "6.2507879",
		"lat": "51.2793617",
		"number": "43",
		"street": "Hubertusstraße",
		"city": "Nettetal",
		"district": "Schaag",
		"postcode": "41334"
	},
	{
		"lon": "6.2480621",
		"lat": "51.2862446",
		"number": "89",
		"street": "Speck",
		"city": "Nettetal",
		"district": "Schaag",
		"postcode": "41334"
	},
	{
		"lon": "6.2586348",
		"lat": "51.2862314",
		"number": "64 d",
		"street": "Lötscher Weg",
		"city": "Nettetal",
		"district": "Breyell",
		"postcode": "41334"
	},
	{
		"lon": "6.2487569",
		"lat": "51.286964",
		"number": "99 a",
		"street": "Speck",
		"city": "Nettetal",
		"district": "Schaag",
		"postcode": "41334"
	},
	{
		"lon": "6.2532619",
		"lat": "51.2902777",
		"number": "50",
		"street": "Paul-Therstappen-Straße",
		"city": "Nettetal",
		"district": "Breyell",
		"postcode": "41334"
	},
	{
		"lon": "6.253817",
		"lat": "51.2908353",
		"number": "28",
		"street": "Paul-Therstappen-Straße",
		"city": "Nettetal",
		"district": "Breyell",
		"postcode": "41334"
	},
	{
		"lon": "6.2517811",
		"lat": "51.2937124",
		"number": "1",
		"street": "Am Hang",
		"city": "Nettetal",
		"district": "Breyell",
		"postcode": "41334"
	},
	{
		"lon": "6.2545154",
		"lat": "51.293506",
		"number": "24",
		"street": "Brassertweg",
		"city": "Nettetal",
		"district": "Breyell",
		"postcode": "41334"
	},
	{
		"lon": "6.2557627",
		"lat": "51.2909199",
		"number": "22",
		"street": "Berger Feld",
		"city": "Nettetal",
		"district": "Breyell",
		"postcode": "41334"
	},
	{
		"lon": "6.2643902",
		"lat": "51.2838365",
		"number": "46 b",
		"street": "Lötsch",
		"city": "Nettetal",
		"district": "Breyell",
		"postcode": "41334"
	},
	{
		"lon": "6.2653205",
		"lat": "51.2885272",
		"number": "5",
		"street": "Lötsch",
		"city": "Nettetal",
		"district": "Breyell",
		"postcode": "41334"
	},
	{
		"lon": "6.2857519",
		"lat": "51.2410482",
		"number": "35 a",
		"street": "Renneperstraße",
		"city": "Schwalmtal",
		"district": "Schwalmtal",
		"postcode": "41366"
	},
	{
		"lon": "6.3097245",
		"lat": "51.234366",
		"number": "88",
		"street": "Waldnieler Straße",
		"city": "Viersen",
		"district": "Dülken",
		"postcode": "41751"
	},
	{
		"lon": "6.2965191",
		"lat": "51.2564429",
		"number": "164 a",
		"street": "Boisheimer Straße",
		"city": "Viersen",
		"district": "Dülken",
		"postcode": "41751"
	},
	{
		"lon": "6.3026877",
		"lat": "51.251433",
		"number": "112",
		"street": "Nette",
		"city": "Viersen",
		"district": "Viersen",
		"postcode": "41751"
	},
	{
		"lon": "6.3025035",
		"lat": "51.2541543",
		"number": "127",
		"street": "Boisheimer Straße",
		"city": "Viersen",
		"district": "Dülken",
		"postcode": "41751"
	},
	{
		"lon": "6.3117797",
		"lat": "51.2520203",
		"number": "101",
		"street": "Röhlenend",
		"city": "Viersen",
		"district": "Viersen",
		"postcode": "41751"
	},
	{
		"lon": "6.3145916",
		"lat": "51.2520596",
		"number": "77",
		"street": "Röhlenend",
		"city": "Viersen",
		"district": "Viersen",
		"postcode": "41751"
	},
	{
		"lon": "6.3203866",
		"lat": "51.2351479",
		"number": "24",
		"street": "Metallstraße",
		"city": "Viersen",
		"district": "Dülken",
		"postcode": "41751"
	},
	{
		"lon": "6.3316513",
		"lat": "51.2380045",
		"number": "70",
		"street": "Fasanenstraße",
		"city": "Viersen",
		"district": "Dülken",
		"postcode": "41751"
	},
	{
		"lon": "6.3322187",
		"lat": "51.239842",
		"number": "30",
		"street": "Fasanenstraße",
		"city": "Viersen",
		"district": "Dülken",
		"postcode": "41751"
	},
	{
		"lon": "6.3231414",
		"lat": "51.2473945",
		"number": "33",
		"street": "Breslauer Straße",
		"city": "Viersen",
		"district": "Dülken",
		"postcode": "41751"
	},
	{
		"lon": "6.3245608",
		"lat": "51.2478256",
		"number": "14",
		"street": "Breslauer Straße",
		"city": "Viersen",
		"district": "Dülken",
		"postcode": "41751"
	},
	{
		"lon": "6.3335409",
		"lat": "51.2436123",
		"number": "28",
		"street": "Holbeinstraße",
		"city": "Viersen",
		"district": "Dülken",
		"postcode": "41751"
	},
	{
		"lon": "6.3321429",
		"lat": "51.2446377",
		"number": "232",
		"street": "Bodelschwinghstraße",
		"city": "Viersen",
		"district": "Dülken",
		"postcode": "41751"
	},
	{
		"lon": "6.3260795",
		"lat": "51.2460767",
		"number": "3",
		"street": "Danziger Straße",
		"city": "Viersen",
		"district": "Dülken",
		"postcode": "41751"
	},
	{
		"lon": "6.3282051",
		"lat": "51.24814",
		"number": "51",
		"street": "Amerner Weg",
		"city": "Viersen",
		"district": "Viersen",
		"postcode": "41751"
	},
	{
		"lon": "6.3335012",
		"lat": "51.2461295",
		"number": "11",
		"street": "Rheindahlener Straße",
		"city": "Viersen",
		"district": "Dülken",
		"postcode": "41751"
	},
	{
		"lon": "6.330605",
		"lat": "51.2494644",
		"number": "2",
		"street": "Am Alten Rathaus",
		"city": "Viersen",
		"district": "Viersen",
		"postcode": "41751"
	},
	{
		"lon": "6.332982",
		"lat": "51.2489993",
		"number": "113 a",
		"street": "Lange Straße",
		"city": "Viersen",
		"district": "Dülken",
		"postcode": "41751"
	},
	{
		"lon": "6.3358755",
		"lat": "51.2417491",
		"number": "15",
		"street": "An St. Ulrich",
		"city": "Viersen",
		"district": "Viersen",
		"postcode": "41751"
	},
	{
		"lon": "6.3340494",
		"lat": "51.2436114",
		"number": "32",
		"street": "Ernst-König-Straße",
		"city": "Viersen",
		"district": "Dülken",
		"postcode": "41751"
	},
	{
		"lon": "6.3362524",
		"lat": "51.2427824",
		"number": "96",
		"street": "Rheindahlener Straße",
		"city": "Viersen",
		"district": "Dülken",
		"postcode": "41751"
	},
	{
		"lon": "6.3338473",
		"lat": "51.2458589",
		"number": "15",
		"street": "Rheindahlener Straße",
		"city": "Viersen",
		"district": "Dülken",
		"postcode": "41751"
	},
	{
		"lon": "6.3412737",
		"lat": "51.2432414",
		"number": "42",
		"street": "Emil-Flecken-Straße",
		"city": "Viersen",
		"district": "Dülken",
		"postcode": "41751"
	},
	{
		"lon": "6.3388809",
		"lat": "51.2458191",
		"number": "46",
		"street": "Franz-Hellner-Straße",
		"city": "Viersen",
		"district": "Dülken",
		"postcode": "41751"
	},
	{
		"lon": "6.3417486",
		"lat": "51.2457255",
		"number": "58",
		"street": "Jupp-Rübsam-Straße",
		"city": "Viersen",
		"district": "Dülken",
		"postcode": "41751"
	},
	{
		"lon": "6.3367026",
		"lat": "51.2465985",
		"number": "190",
		"street": "Bodelschwinghstraße",
		"city": "Viersen",
		"district": "Dülken",
		"postcode": "41751"
	},
	{
		"lon": "6.3341552",
		"lat": "51.2482427",
		"number": "9",
		"street": "Eintrachtstraße",
		"city": "Viersen",
		"district": "Dülken",
		"postcode": "41751"
	},
	{
		"lon": "6.3355216",
		"lat": "51.2496338",
		"number": "58 a",
		"street": "Ostgraben",
		"city": "Viersen",
		"district": "Viersen",
		"postcode": "41751"
	},
	{
		"lon": "6.3374627",
		"lat": "51.2490871",
		"number": "6",
		"street": "Rennstraße",
		"city": "Viersen",
		"district": "Dülken",
		"postcode": "41751"
	},
	{
		"lon": "6.3381639",
		"lat": "51.2486275",
		"number": "147",
		"street": "Bodelschwinghstraße",
		"city": "Viersen",
		"district": "Dülken",
		"postcode": "41751"
	},
	{
		"lon": "6.3411593",
		"lat": "51.2498844",
		"number": "3",
		"street": "Heesstraße",
		"city": "Viersen",
		"district": "Dülken",
		"postcode": "41751"
	},
	{
		"lon": "6.3473278",
		"lat": "51.2437305",
		"number": "2",
		"street": "Ransberg",
		"city": "Viersen",
		"district": "Viersen",
		"postcode": "41751"
	},
	{
		"lon": "6.3439981",
		"lat": "51.2479714",
		"number": "17",
		"street": "Daniel-P.-Norman-Ring",
		"city": "Viersen",
		"district": "Dülken",
		"postcode": "41751"
	},
	{
		"lon": "6.3425839",
		"lat": "51.2498101",
		"number": "15",
		"street": "Heesstraße",
		"city": "Viersen",
		"district": "Dülken",
		"postcode": "41751"
	},
	{
		"lon": "6.3459757",
		"lat": "51.249644",
		"number": "45",
		"street": "Kettelerstraße",
		"city": "Viersen",
		"district": "Dülken",
		"postcode": "41751"
	},
	{
		"lon": "6.3246935",
		"lat": "51.2504005",
		"number": "8",
		"street": "Chemnitzer Straße",
		"city": "Viersen",
		"district": "Dülken",
		"postcode": "41751"
	},
	{
		"lon": "6.3167927",
		"lat": "51.2534739",
		"number": "48",
		"street": "Boisheimer Straße",
		"city": "Viersen",
		"district": "Dülken",
		"postcode": "41751"
	},
	{
		"lon": "6.3229786",
		"lat": "51.2536053",
		"number": "6",
		"street": "Boisheimer Straße",
		"city": "Viersen",
		"district": "Dülken",
		"postcode": "41751"
	},
	{
		"lon": "6.3218824",
		"lat": "51.2561953",
		"number": "6",
		"street": "Monschauer Straße",
		"city": "Viersen",
		"district": "Dülken",
		"postcode": "41751"
	},
	{
		"lon": "6.3230335",
		"lat": "51.2569346",
		"number": "1",
		"street": "Malmedystraße",
		"city": "Viersen",
		"district": "Dülken",
		"postcode": "41751"
	},
	{
		"lon": "6.3274668",
		"lat": "51.249849",
		"number": "18",
		"street": "Doergensstraße",
		"city": "Viersen",
		"district": "Dülken",
		"postcode": "41751"
	},
	{
		"lon": "6.3264869",
		"lat": "51.2528539",
		"number": "77",
		"street": "Venloer Straße",
		"city": "Viersen",
		"district": "Dülken",
		"postcode": "41751"
	},
	{
		"lon": "6.3287828",
		"lat": "51.253634",
		"number": "1",
		"street": "Bücklersstraße",
		"city": "Viersen",
		"district": "Dülken",
		"postcode": "41751"
	},
	{
		"lon": "6.3333045",
		"lat": "51.2500366",
		"number": "15",
		"street": "Schöffengasse",
		"city": "Viersen",
		"district": "Viersen",
		"postcode": "41751"
	},
	{
		"lon": "6.3327869",
		"lat": "51.2515401",
		"number": "48",
		"street": "Lange Straße",
		"city": "Viersen",
		"district": "Dülken",
		"postcode": "41751"
	},
	{
		"lon": "6.332608",
		"lat": "51.2521692",
		"number": "20",
		"street": "Börsenstraße",
		"city": "Viersen",
		"district": "Dülken",
		"postcode": "41751"
	},
	{
		"lon": "6.3267159",
		"lat": "51.2540461",
		"number": "13",
		"street": "Otto-Hahn-Straße",
		"city": "Viersen",
		"district": "Dülken",
		"postcode": "41751"
	},
	{
		"lon": "6.3288724",
		"lat": "51.2541651",
		"number": "9",
		"street": "Bücklersstraße",
		"city": "Viersen",
		"district": "Dülken",
		"postcode": "41751"
	},
	{
		"lon": "6.3252105",
		"lat": "51.2568746",
		"number": "12",
		"street": "Eupener Straße",
		"city": "Viersen",
		"district": "Dülken",
		"postcode": "41751"
	},
	{
		"lon": "6.3297318",
		"lat": "51.2541392",
		"number": "2",
		"street": "Bücklersstraße",
		"city": "Viersen",
		"district": "Dülken",
		"postcode": "41751"
	},
	{
		"lon": "6.3304309",
		"lat": "51.255944",
		"number": "29",
		"street": "Bücklersstraße",
		"city": "Viersen",
		"district": "Dülken",
		"postcode": "41751"
	},
	{
		"lon": "6.3239445",
		"lat": "51.2646244",
		"number": "4",
		"street": "Am Röttchen",
		"city": "Viersen",
		"district": "Viersen",
		"postcode": "41751"
	},
	{
		"lon": "6.3305352",
		"lat": "51.2598645",
		"number": "6",
		"street": "Markusstraße",
		"city": "Viersen",
		"district": "Dülken",
		"postcode": "41751"
	},
	{
		"lon": "6.3311021",
		"lat": "51.2612031",
		"number": "38",
		"street": "Arnoldstraße",
		"city": "Viersen",
		"district": "Dülken",
		"postcode": "41751"
	},
	{
		"lon": "6.3320608",
		"lat": "51.2618349",
		"number": "1",
		"street": "Elisabethstraße",
		"city": "Viersen",
		"district": "Dülken",
		"postcode": "41751"
	},
	{
		"lon": "6.3343199",
		"lat": "51.2500175",
		"number": "35",
		"street": "Kreuzherrenstraße",
		"city": "Viersen",
		"district": "Dülken",
		"postcode": "41751"
	},
	{
		"lon": "6.3341235",
		"lat": "51.2515785",
		"number": "4",
		"street": "Börsenstraße",
		"city": "Viersen",
		"district": "Dülken",
		"postcode": "41751"
	},
	{
		"lon": "6.3363188",
		"lat": "51.2507335",
		"number": "34",
		"street": "Ostgraben",
		"city": "Viersen",
		"district": "Viersen",
		"postcode": "41751"
	},
	{
		"lon": "6.3364021",
		"lat": "51.2517481",
		"number": "9",
		"street": "Cap Horn",
		"city": "Viersen",
		"district": "Viersen",
		"postcode": "41751"
	},
	{
		"lon": "6.3341278",
		"lat": "51.2519713",
		"number": "7",
		"street": "Blauensteinstraße",
		"city": "Viersen",
		"district": "Dülken",
		"postcode": "41751"
	},
	{
		"lon": "6.333903",
		"lat": "51.2533625",
		"number": "8",
		"street": "Lange Straße",
		"city": "Viersen",
		"district": "Dülken",
		"postcode": "41751"
	},
	{
		"lon": "6.3370759",
		"lat": "51.2524203",
		"number": "9",
		"street": "Marktstraße",
		"city": "Viersen",
		"district": "Dülken",
		"postcode": "41751"
	},
	{
		"lon": "6.3395188",
		"lat": "51.25038",
		"number": "125",
		"street": "Bodelschwinghstraße",
		"city": "Viersen",
		"district": "Dülken",
		"postcode": "41751"
	},
	{
		"lon": "6.3401225",
		"lat": "51.2510641",
		"number": "105",
		"street": "Bodelschwinghstraße",
		"city": "Viersen",
		"district": "Dülken",
		"postcode": "41751"
	},
	{
		"lon": "6.3387555",
		"lat": "51.2525377",
		"number": "5",
		"street": "Felix-Tonnar-Straße",
		"city": "Viersen",
		"district": "Dülken",
		"postcode": "41751"
	},
	{
		"lon": "6.33869",
		"lat": "51.2535536",
		"number": "51",
		"street": "Viersener Straße",
		"city": "Viersen",
		"district": "Dülken",
		"postcode": "41751"
	},
	{
		"lon": "6.33347",
		"lat": "51.2552764",
		"number": "12",
		"street": "Mühlenberg",
		"city": "Viersen",
		"district": "Viersen",
		"postcode": "41751"
	},
	{
		"lon": "6.336858",
		"lat": "51.2551211",
		"number": "6",
		"street": "Heinz-Luhnen-Straße",
		"city": "Viersen",
		"district": "Dülken",
		"postcode": "41751"
	},
	{
		"lon": "6.3380286",
		"lat": "51.2545757",
		"number": "13",
		"street": "Martin-Luther-Straße",
		"city": "Viersen",
		"district": "Dülken",
		"postcode": "41751"
	},
	{
		"lon": "6.3381299",
		"lat": "51.2560702",
		"number": "25",
		"street": "Friedrichstraße",
		"city": "Viersen",
		"district": "Dülken",
		"postcode": "41751"
	},
	{
		"lon": "6.3434675",
		"lat": "51.250941",
		"number": "24",
		"street": "Kolpingstraße",
		"city": "Viersen",
		"district": "Dülken",
		"postcode": "41751"
	},
	{
		"lon": "6.3448219",
		"lat": "51.2508903",
		"number": "22",
		"street": "Kettelerstraße",
		"city": "Viersen",
		"district": "Dülken",
		"postcode": "41751"
	},
	{
		"lon": "6.3430224",
		"lat": "51.2525261",
		"number": "88",
		"street": "Bodelschwinghstraße",
		"city": "Viersen",
		"district": "Dülken",
		"postcode": "41751"
	},
	{
		"lon": "6.3439967",
		"lat": "51.2525592",
		"number": "41",
		"street": "Sternstraße",
		"city": "Viersen",
		"district": "Dülken",
		"postcode": "41751"
	},
	{
		"lon": "6.3458872",
		"lat": "51.2536736",
		"number": "21",
		"street": "Bodelschwinghstraße",
		"city": "Viersen",
		"district": "Dülken",
		"postcode": "41751"
	},
	{
		"lon": "6.346494",
		"lat": "51.2524565",
		"number": "54",
		"street": "Zeppelinstraße",
		"city": "Viersen",
		"district": "Dülken",
		"postcode": "41751"
	},
	{
		"lon": "6.3435335",
		"lat": "51.2542001",
		"number": "93",
		"street": "Viersener Straße",
		"city": "Viersen",
		"district": "Dülken",
		"postcode": "41751"
	},
	{
		"lon": "6.3457605",
		"lat": "51.2560533",
		"number": "27",
		"street": "Ulmenstraße",
		"city": "Viersen",
		"district": "Dülken",
		"postcode": "41751"
	},
	{
		"lon": "6.3468232",
		"lat": "51.2548906",
		"number": "5",
		"street": "Bürgermeister-Voß-Allee",
		"city": "Viersen",
		"district": "Viersen",
		"postcode": "41751"
	},
	{
		"lon": "6.3465132",
		"lat": "51.2578478",
		"number": "7",
		"street": "Buchenweg",
		"city": "Viersen",
		"district": "Viersen",
		"postcode": "41751"
	},
	{
		"lon": "6.335916",
		"lat": "51.2612414",
		"number": "92",
		"street": "Brabanter Straße",
		"city": "Viersen",
		"district": "Dülken",
		"postcode": "41751"
	},
	{
		"lon": "6.3378004",
		"lat": "51.2603317",
		"number": "12",
		"street": "Heidestraße",
		"city": "Viersen",
		"district": "Dülken",
		"postcode": "41751"
	},
	{
		"lon": "6.3331546",
		"lat": "51.2619226",
		"number": "8",
		"street": "Marienstraße",
		"city": "Viersen",
		"district": "Dülken",
		"postcode": "41751"
	},
	{
		"lon": "6.3345634",
		"lat": "51.2633956",
		"number": "22",
		"street": "Straelener Weg",
		"city": "Viersen",
		"district": "Viersen",
		"postcode": "41751"
	},
	{
		"lon": "6.3356502",
		"lat": "51.2634957",
		"number": "9",
		"street": "Hartmutstraße",
		"city": "Viersen",
		"district": "Dülken",
		"postcode": "41751"
	},
	{
		"lon": "6.3384129",
		"lat": "51.2631523",
		"number": "111 a",
		"street": "Brabanter Straße",
		"city": "Viersen",
		"district": "Dülken",
		"postcode": "41751"
	},
	{
		"lon": "6.3370123",
		"lat": "51.2642235",
		"number": "12",
		"street": "Dorotheenstraße",
		"city": "Viersen",
		"district": "Dülken",
		"postcode": "41751"
	},
	{
		"lon": "6.3403243",
		"lat": "51.2645491",
		"number": "133",
		"street": "Brabanter Straße",
		"city": "Viersen",
		"district": "Dülken",
		"postcode": "41751"
	},
	{
		"lon": "6.3417546",
		"lat": "51.2615309",
		"number": "1",
		"street": "Sanddornweg",
		"city": "Viersen",
		"district": "Viersen",
		"postcode": "41751"
	},
	{
		"lon": "6.3467953",
		"lat": "51.2580151",
		"number": "4",
		"street": "Buchenweg",
		"city": "Viersen",
		"district": "Viersen",
		"postcode": "41751"
	},
	{
		"lon": "6.349135",
		"lat": "51.2591991",
		"number": "83",
		"street": "Lindenallee",
		"city": "Viersen",
		"district": "Viersen",
		"postcode": "41751"
	},
	{
		"lon": "6.3432335",
		"lat": "51.2625486",
		"number": "22",
		"street": "Fliederweg",
		"city": "Viersen",
		"district": "Viersen",
		"postcode": "41751"
	},
	{
		"lon": "6.3451504",
		"lat": "51.2629259",
		"number": "46",
		"street": "Rohrbuschweg",
		"city": "Viersen",
		"district": "Viersen",
		"postcode": "41751"
	},
	{
		"lon": "6.343614",
		"lat": "51.2639659",
		"number": "29 a",
		"street": "Wacholderweg",
		"city": "Viersen",
		"district": "Viersen",
		"postcode": "41751"
	},
	{
		"lon": "6.3448686",
		"lat": "51.2647073",
		"number": "73",
		"street": "Rohrbuschweg",
		"city": "Viersen",
		"district": "Viersen",
		"postcode": "41751"
	},
	{
		"lon": "6.2912559",
		"lat": "51.2769538",
		"number": "6 a",
		"street": "Pütterhöfe",
		"city": "Viersen",
		"district": "Boisheim",
		"postcode": "41751"
	},
	{
		"lon": "6.2854828",
		"lat": "51.285182",
		"number": "42",
		"street": "Dyck",
		"city": "Nettetal",
		"district": "Lobberich",
		"postcode": "41334"
	},
	{
		"lon": "6.2967004",
		"lat": "51.2860994",
		"number": "150",
		"street": "Dyck",
		"city": "Nettetal",
		"district": "Lobberich",
		"postcode": "41334"
	},
	{
		"lon": "6.3121355",
		"lat": "51.2848844",
		"number": "8",
		"street": "Rennekoven",
		"city": "Nettetal",
		"district": "Lobberich",
		"postcode": "41334"
	},
	{
		"lon": "6.3421158",
		"lat": "51.2657806",
		"number": "157 b",
		"street": "Brabanter Straße",
		"city": "Viersen",
		"district": "Dülken",
		"postcode": "41751"
	},
	{
		"lon": "6.3443674",
		"lat": "51.2685758",
		"number": "1 c",
		"street": "Bistard",
		"city": "Viersen",
		"district": "Viersen",
		"postcode": "41751"
	},
	{
		"lon": "6.3462911",
		"lat": "51.2679175",
		"number": "8 a",
		"street": "Schirick",
		"city": "Viersen",
		"district": "Viersen",
		"postcode": "41751"
	},
	{
		"lon": "6.3420592",
		"lat": "51.2712774",
		"number": "24",
		"street": "Bistard",
		"city": "Viersen",
		"district": "Viersen",
		"postcode": "41751"
	},
	{
		"lon": "6.334704",
		"lat": "51.2764259",
		"number": "78",
		"street": "Bistard",
		"city": "Viersen",
		"district": "Viersen",
		"postcode": "41751"
	},
	{
		"lon": "6.322878",
		"lat": "51.2856508",
		"number": "37",
		"street": "Feldchen",
		"city": "Viersen",
		"district": "Viersen",
		"postcode": "41749"
	},
	{
		"lon": "6.3223588",
		"lat": "51.2935874",
		"number": "2",
		"street": "Dorfstraße",
		"city": "Viersen",
		"district": "Süchteln",
		"postcode": "41749"
	},
	{
		"lon": "6.3241609",
		"lat": "51.2952121",
		"number": "21",
		"street": "Auf der Heide",
		"city": "Viersen",
		"district": "Viersen",
		"postcode": "41749"
	},
	{
		"lon": "6.1807096",
		"lat": "51.2933012",
		"number": "51 a",
		"street": "Heidhausen",
		"city": "Brüggen",
		"district": "Brüggen",
		"postcode": "41379"
	},
	{
		"lon": "6.1970994",
		"lat": "51.293999",
		"number": "18",
		"street": "Hülst",
		"city": "Brüggen",
		"district": "Brüggen",
		"postcode": "41379"
	},
	{
		"lon": "6.204903",
		"lat": "51.3017922",
		"number": "12 a",
		"street": "Hülst",
		"city": "Nettetal",
		"district": "Kaldenkirchen",
		"postcode": "41334"
	},
	{
		"lon": "6.1831116",
		"lat": "51.3102335",
		"number": "30",
		"street": "Ginsterheide",
		"city": "Nettetal",
		"district": "Kaldenkirchen",
		"postcode": "41334"
	},
	{
		"lon": "6.181773",
		"lat": "51.3140737",
		"number": "13",
		"street": "Lessingstraße",
		"city": "Nettetal",
		"district": "Kaldenkirchen",
		"postcode": "41334"
	},
	{
		"lon": "6.182078",
		"lat": "51.3138416",
		"number": "5",
		"street": "Lessingstraße",
		"city": "Nettetal",
		"district": "Kaldenkirchen",
		"postcode": "41334"
	},
	{
		"lon": "6.1840072",
		"lat": "51.3136217",
		"number": "56",
		"street": "Buschstraße",
		"city": "Nettetal",
		"district": "Kaldenkirchen",
		"postcode": "41334"
	},
	{
		"lon": "6.1822989",
		"lat": "51.3150464",
		"number": "14",
		"street": "Nikolaus-Ehlen-Straße",
		"city": "Nettetal",
		"district": "Kaldenkirchen",
		"postcode": "41334"
	},
	{
		"lon": "6.1872207",
		"lat": "51.3131007",
		"number": "9",
		"street": "Eichendonk",
		"city": "Nettetal",
		"district": "Kaldenkirchen",
		"postcode": "41334"
	},
	{
		"lon": "6.1886779",
		"lat": "51.3148538",
		"number": "22",
		"street": "Arnold-Janssen-Straße",
		"city": "Nettetal",
		"district": "Kaldenkirchen",
		"postcode": "41334"
	},
	{
		"lon": "6.1928783",
		"lat": "51.3139921",
		"number": "14",
		"street": "An der Quelle",
		"city": "Nettetal",
		"district": "Kaldenkirchen",
		"postcode": "41334"
	},
	{
		"lon": "6.1932034",
		"lat": "51.3142154",
		"number": "20",
		"street": "An der Quelle",
		"city": "Nettetal",
		"district": "Kaldenkirchen",
		"postcode": "41334"
	},
	{
		"lon": "6.1796647",
		"lat": "51.3159286",
		"number": "3",
		"street": "Schlangenweg",
		"city": "Nettetal",
		"district": "Kaldenkirchen",
		"postcode": "41334"
	},
	{
		"lon": "6.182905",
		"lat": "51.3159614",
		"number": "9",
		"street": "Erikaplatz",
		"city": "Nettetal",
		"district": "Kaldenkirchen",
		"postcode": "41334"
	},
	{
		"lon": "6.1856751",
		"lat": "51.3171372",
		"number": "33",
		"street": "Blumenallee",
		"city": "Nettetal",
		"district": "Kaldenkirchen",
		"postcode": "41334"
	},
	{
		"lon": "6.1866422",
		"lat": "51.3165235",
		"number": "7",
		"street": "Fliederplatz",
		"city": "Nettetal",
		"district": "Kaldenkirchen",
		"postcode": "41334"
	},
	{
		"lon": "6.1871307",
		"lat": "51.318467",
		"number": "4",
		"street": "Blumenallee",
		"city": "Nettetal",
		"district": "Kaldenkirchen",
		"postcode": "41334"
	},
	{
		"lon": "6.1917589",
		"lat": "51.3173044",
		"number": "27 a",
		"street": "Ringstraße",
		"city": "Nettetal",
		"district": "Kaldenkirchen",
		"postcode": "41334"
	},
	{
		"lon": "6.1923028",
		"lat": "51.3177332",
		"number": "47",
		"street": "Gartenstraße",
		"city": "Nettetal",
		"district": "Kaldenkirchen",
		"postcode": "41334"
	},
	{
		"lon": "6.1912722",
		"lat": "51.3189169",
		"number": "16",
		"street": "Lambert-Maaßen-Straße",
		"city": "Nettetal",
		"district": "Kaldenkirchen",
		"postcode": "41334"
	},
	{
		"lon": "6.1866967",
		"lat": "51.3200316",
		"number": "23 f",
		"street": "Schindackersweg",
		"city": "Nettetal",
		"district": "Kaldenkirchen",
		"postcode": "41334"
	},
	{
		"lon": "6.185934",
		"lat": "51.3219124",
		"number": "28",
		"street": "Wasserstraße",
		"city": "Nettetal",
		"district": "Kaldenkirchen",
		"postcode": "41334"
	},
	{
		"lon": "6.189617",
		"lat": "51.3224089",
		"number": "68",
		"street": "Steyler Straße",
		"city": "Nettetal",
		"district": "Kaldenkirchen",
		"postcode": "41334"
	},
	{
		"lon": "6.194075",
		"lat": "51.3202443",
		"number": "26",
		"street": "Vennstraße",
		"city": "Nettetal",
		"district": "Kaldenkirchen",
		"postcode": "41334"
	},
	{
		"lon": "6.1978434",
		"lat": "51.3099605",
		"number": "37",
		"street": "Bruch",
		"city": "Nettetal",
		"district": "Kaldenkirchen",
		"postcode": "41334"
	},
	{
		"lon": "6.1952788",
		"lat": "51.3125661",
		"number": "60",
		"street": "Gerberstraße",
		"city": "Nettetal",
		"district": "Kaldenkirchen",
		"postcode": "41334"
	},
	{
		"lon": "6.1982098",
		"lat": "51.3130969",
		"number": "21",
		"street": "Zum Krang",
		"city": "Nettetal",
		"district": "Kaldenkirchen",
		"postcode": "41334"
	},
	{
		"lon": "6.1961408",
		"lat": "51.3149629",
		"number": "67 a",
		"street": "Ringstraße",
		"city": "Nettetal",
		"district": "Kaldenkirchen",
		"postcode": "41334"
	},
	{
		"lon": "6.1966008",
		"lat": "51.3155314",
		"number": "31",
		"street": "Schützenstraße",
		"city": "Nettetal",
		"district": "Kaldenkirchen",
		"postcode": "41334"
	},
	{
		"lon": "6.2003367",
		"lat": "51.3137494",
		"number": "96 a",
		"street": "Ringstraße",
		"city": "Nettetal",
		"district": "Kaldenkirchen",
		"postcode": "41334"
	},
	{
		"lon": "6.1993334",
		"lat": "51.3145574",
		"number": "19",
		"street": "Gerberstraße",
		"city": "Nettetal",
		"district": "Kaldenkirchen",
		"postcode": "41334"
	},
	{
		"lon": "6.2013315",
		"lat": "51.3158861",
		"number": "20",
		"street": "Kölner Straße",
		"city": "Nettetal",
		"district": "Kaldenkirchen",
		"postcode": "41334"
	},
	{
		"lon": "6.203018",
		"lat": "51.3132307",
		"number": "48",
		"street": "Kölner Straße",
		"city": "Nettetal",
		"district": "Kaldenkirchen",
		"postcode": "41334"
	},
	{
		"lon": "6.2039002",
		"lat": "51.3152102",
		"number": "2",
		"street": "Johann-Melchior-Straße",
		"city": "Nettetal",
		"district": "Kaldenkirchen",
		"postcode": "41334"
	},
	{
		"lon": "6.2053774",
		"lat": "51.3155386",
		"number": "7 a",
		"street": "Joe-Alex-Straße",
		"city": "Nettetal",
		"district": "Kaldenkirchen",
		"postcode": "41334"
	},
	{
		"lon": "6.2076007",
		"lat": "51.3158526",
		"number": "65",
		"street": "Spitalstraße",
		"city": "Nettetal",
		"district": "Kaldenkirchen",
		"postcode": "41334"
	},
	{
		"lon": "6.1955179",
		"lat": "51.3178492",
		"number": "10",
		"street": "Frankstraße",
		"city": "Nettetal",
		"district": "Kaldenkirchen",
		"postcode": "41334"
	},
	{
		"lon": "6.1958106",
		"lat": "51.3188932",
		"number": "24 a",
		"street": "Jahnstraße",
		"city": "Nettetal",
		"district": "Kaldenkirchen",
		"postcode": "41334"
	},
	{
		"lon": "6.1969808",
		"lat": "51.3194889",
		"number": "5",
		"street": "Jahnstraße",
		"city": "Nettetal",
		"district": "Kaldenkirchen",
		"postcode": "41334"
	},
	{
		"lon": "6.1999927",
		"lat": "51.3176122",
		"number": "13",
		"street": "Severusstraße",
		"city": "Nettetal",
		"district": "Kaldenkirchen",
		"postcode": "41334"
	},
	{
		"lon": "6.1994302",
		"lat": "51.3190075",
		"number": "41 a",
		"street": "Kehrstraße",
		"city": "Nettetal",
		"district": "Kaldenkirchen",
		"postcode": "41334"
	},
	{
		"lon": "6.2012574",
		"lat": "51.3186008",
		"number": "6",
		"street": "Friedrichstraße",
		"city": "Nettetal",
		"district": "Kaldenkirchen",
		"postcode": "41334"
	},
	{
		"lon": "6.1953893",
		"lat": "51.3206637",
		"number": "14",
		"street": "Vennstraße",
		"city": "Nettetal",
		"district": "Kaldenkirchen",
		"postcode": "41334"
	},
	{
		"lon": "6.1970705",
		"lat": "51.3207242",
		"number": "70",
		"street": "Kehrstraße",
		"city": "Nettetal",
		"district": "Kaldenkirchen",
		"postcode": "41334"
	},
	{
		"lon": "6.1979478",
		"lat": "51.3211879",
		"number": "3",
		"street": "Hockstraße",
		"city": "Nettetal",
		"district": "Kaldenkirchen",
		"postcode": "41334"
	},
	{
		"lon": "6.1972836",
		"lat": "51.3225229",
		"number": "29",
		"street": "Venloer Straße",
		"city": "Nettetal",
		"district": "Kaldenkirchen",
		"postcode": "41334"
	},
	{
		"lon": "6.1983947",
		"lat": "51.3213804",
		"number": "52",
		"street": "Bahnhofstraße",
		"city": "Nettetal",
		"district": "Kaldenkirchen",
		"postcode": "41334"
	},
	{
		"lon": "6.2012004",
		"lat": "51.3211916",
		"number": "7 a",
		"street": "Königspfad",
		"city": "Nettetal",
		"district": "Kaldenkirchen",
		"postcode": "41334"
	},
	{
		"lon": "6.1984983",
		"lat": "51.3234179",
		"number": "8",
		"street": "Karlstraße",
		"city": "Nettetal",
		"district": "Kaldenkirchen",
		"postcode": "41334"
	},
	{
		"lon": "6.2041416",
		"lat": "51.3165751",
		"number": "22",
		"street": "Spitalstraße",
		"city": "Nettetal",
		"district": "Kaldenkirchen",
		"postcode": "41334"
	},
	{
		"lon": "6.2046881",
		"lat": "51.3185229",
		"number": "15",
		"street": "Bachstraße",
		"city": "Nettetal",
		"district": "Kaldenkirchen",
		"postcode": "41334"
	},
	{
		"lon": "6.203463",
		"lat": "51.3204441",
		"number": "25",
		"street": "Königspfad",
		"city": "Nettetal",
		"district": "Kaldenkirchen",
		"postcode": "41334"
	},
	{
		"lon": "6.2076662",
		"lat": "51.3239781",
		"number": "13",
		"street": "Am Ringofen",
		"city": "Nettetal",
		"district": "Kaldenkirchen",
		"postcode": "41334"
	},
	{
		"lon": "6.1793093",
		"lat": "51.3259181",
		"number": "167",
		"street": "Steyler Straße",
		"city": "Nettetal",
		"district": "Kaldenkirchen",
		"postcode": "41334"
	},
	{
		"lon": "6.1865188",
		"lat": "51.3242736",
		"number": "21",
		"street": "Breslauer Straße",
		"city": "Nettetal",
		"district": "Kaldenkirchen",
		"postcode": "41334"
	},
	{
		"lon": "6.1960174",
		"lat": "51.3246463",
		"number": "41",
		"street": "Stappstraße",
		"city": "Nettetal",
		"district": "Kaldenkirchen",
		"postcode": "41334"
	},
	{
		"lon": "6.2013905",
		"lat": "51.3253907",
		"number": "4",
		"street": "Im Dahl",
		"city": "Nettetal",
		"district": "Kaldenkirchen",
		"postcode": "41334"
	},
	{
		"lon": "6.2058803",
		"lat": "51.3262446",
		"number": "10",
		"street": "Leuther Straße",
		"city": "Nettetal",
		"district": "Kaldenkirchen",
		"postcode": "41334"
	},
	{
		"lon": "6.1943664",
		"lat": "51.3351111",
		"number": "1",
		"street": "Schwanenhaus",
		"city": "Nettetal",
		"district": "Kaldenkirchen",
		"postcode": "41334"
	},
	{
		"lon": "6.2053783",
		"lat": "51.3381094",
		"number": "74",
		"street": "Deller Weg",
		"city": "Nettetal",
		"district": "Leuth",
		"postcode": "41334"
	},
	{
		"lon": "6.2207608",
		"lat": "51.2956142",
		"number": "30",
		"street": "Natt",
		"city": "Nettetal",
		"district": "Breyell",
		"postcode": "41334"
	},
	{
		"lon": "6.226087",
		"lat": "51.2961973",
		"number": "2",
		"street": "Natt",
		"city": "Nettetal",
		"district": "Breyell",
		"postcode": "41334"
	},
	{
		"lon": "6.2305481",
		"lat": "51.2972123",
		"number": "6",
		"street": "Gier",
		"city": "Nettetal",
		"district": "Breyell",
		"postcode": "41334"
	},
	{
		"lon": "6.2375682",
		"lat": "51.2953727",
		"number": "4 c",
		"street": "Brückenhausstraße",
		"city": "Nettetal",
		"district": "Breyell",
		"postcode": "41334"
	},
	{
		"lon": "6.2376274",
		"lat": "51.2959982",
		"number": "38",
		"street": "Christian-Rötzel-Allee",
		"city": "Nettetal",
		"district": "Breyell",
		"postcode": "41334"
	},
	{
		"lon": "6.238613",
		"lat": "51.2945171",
		"number": "17",
		"street": "Nordhoffstraße",
		"city": "Nettetal",
		"district": "Breyell",
		"postcode": "41334"
	},
	{
		"lon": "6.2458941",
		"lat": "51.2946885",
		"number": "24 a",
		"street": "Felderend",
		"city": "Nettetal",
		"district": "Breyell",
		"postcode": "41334"
	},
	{
		"lon": "6.2462158",
		"lat": "51.2969089",
		"number": "29",
		"street": "Josefstraße",
		"city": "Nettetal",
		"district": "Breyell",
		"postcode": "41334"
	},
	{
		"lon": "6.2409978",
		"lat": "51.299255",
		"number": "26",
		"street": "Schmaxbruch",
		"city": "Nettetal",
		"district": "Breyell",
		"postcode": "41334"
	},
	{
		"lon": "6.2459987",
		"lat": "51.2991924",
		"number": "12 a",
		"street": "Dohrstraße",
		"city": "Nettetal",
		"district": "Breyell",
		"postcode": "41334"
	},
	{
		"lon": "6.2458737",
		"lat": "51.3012906",
		"number": "47",
		"street": "Dohrstraße",
		"city": "Nettetal",
		"district": "Breyell",
		"postcode": "41334"
	},
	{
		"lon": "6.2394789",
		"lat": "51.3084947",
		"number": "62",
		"street": "Ritzbruch",
		"city": "Nettetal",
		"district": "Breyell",
		"postcode": "41334"
	},
	{
		"lon": "6.2348057",
		"lat": "51.3094327",
		"number": "18",
		"street": "Am Heydevelthof",
		"city": "Nettetal",
		"district": "Breyell",
		"postcode": "41334"
	},
	{
		"lon": "6.237028",
		"lat": "51.3109823",
		"number": "31",
		"street": "Weberstraße",
		"city": "Nettetal",
		"district": "Breyell",
		"postcode": "41334"
	},
	{
		"lon": "6.2471993",
		"lat": "51.2961113",
		"number": "9",
		"street": "Lotzstraße",
		"city": "Nettetal",
		"district": "Breyell",
		"postcode": "41334"
	},
	{
		"lon": "6.2476306",
		"lat": "51.2966048",
		"number": "18",
		"street": "Lotzstraße",
		"city": "Nettetal",
		"district": "Breyell",
		"postcode": "41334"
	},
	{
		"lon": "6.2477038",
		"lat": "51.2975732",
		"number": "5 d",
		"street": "Lambertimarkt",
		"city": "Nettetal",
		"district": "Breyell",
		"postcode": "41334"
	},
	{
		"lon": "6.2500114",
		"lat": "51.2975043",
		"number": "5",
		"street": "Haagstraße",
		"city": "Nettetal",
		"district": "Breyell",
		"postcode": "41334"
	},
	{
		"lon": "6.2509069",
		"lat": "51.296124",
		"number": "1",
		"street": "Berg",
		"city": "Nettetal",
		"district": "Breyell",
		"postcode": "41334"
	},
	{
		"lon": "6.2511955",
		"lat": "51.2964722",
		"number": "31",
		"street": "Lobbericher Straße",
		"city": "Nettetal",
		"district": "Breyell",
		"postcode": "41334"
	},
	{
		"lon": "6.2527923",
		"lat": "51.2974511",
		"number": "28",
		"street": "Wiesenstraße",
		"city": "Nettetal",
		"district": "Breyell",
		"postcode": "41334"
	},
	{
		"lon": "6.2495179",
		"lat": "51.2990727",
		"number": "10",
		"street": "Loirfeld",
		"city": "Nettetal",
		"district": "Breyell",
		"postcode": "41334"
	},
	{
		"lon": "6.2518126",
		"lat": "51.2991881",
		"number": "4",
		"street": "Am Alten Pastorat",
		"city": "Nettetal",
		"district": "Breyell",
		"postcode": "41334"
	},
	{
		"lon": "6.2556169",
		"lat": "51.2987618",
		"number": "10",
		"street": "Romdöppen",
		"city": "Nettetal",
		"district": "Nettetal",
		"postcode": "41334"
	},
	{
		"lon": "6.2580374",
		"lat": "51.3018585",
		"number": "16",
		"street": "Unteronnert",
		"city": "Nettetal",
		"district": "Breyell",
		"postcode": "41334"
	},
	{
		"lon": "6.2465983",
		"lat": "51.3056664",
		"number": "21",
		"street": "Ritzbruch",
		"city": "Nettetal",
		"district": "Breyell",
		"postcode": "41334"
	},
	{
		"lon": "6.2486845",
		"lat": "51.3061411",
		"number": "13",
		"street": "Erlenbruch",
		"city": "Nettetal",
		"district": "Breyell",
		"postcode": "41334"
	},
	{
		"lon": "6.259303",
		"lat": "51.3025325",
		"number": "26",
		"street": "Onnert",
		"city": "Nettetal",
		"district": "Breyell",
		"postcode": "41334"
	},
	{
		"lon": "6.2609465",
		"lat": "51.3061099",
		"number": "21",
		"street": "Oberonnert",
		"city": "Nettetal",
		"district": "Breyell",
		"postcode": "41334"
	},
	{
		"lon": "6.2621712",
		"lat": "51.3091039",
		"number": "9",
		"street": "Zur Neumühle",
		"city": "Nettetal",
		"district": "Lobberich",
		"postcode": "41334"
	},
	{
		"lon": "6.2710342",
		"lat": "51.2987279",
		"number": "25",
		"street": "Reiherstraße",
		"city": "Nettetal",
		"district": "Lobberich",
		"postcode": "41334"
	},
	{
		"lon": "6.2683748",
		"lat": "51.3016958",
		"number": "5",
		"street": "Fischerweg",
		"city": "Nettetal",
		"district": "Lobberich",
		"postcode": "41334"
	},
	{
		"lon": "6.2709333",
		"lat": "51.3020207",
		"number": "39",
		"street": "Mühlenstraße",
		"city": "Nettetal",
		"district": "Lobberich",
		"postcode": "41334"
	},
	{
		"lon": "6.2734881",
		"lat": "51.2971573",
		"number": "28",
		"street": "Nachtigallenweg",
		"city": "Nettetal",
		"district": "Lobberich",
		"postcode": "41334"
	},
	{
		"lon": "6.273916",
		"lat": "51.2975113",
		"number": "5",
		"street": "Sperberstraße",
		"city": "Nettetal",
		"district": "Lobberich",
		"postcode": "41334"
	},
	{
		"lon": "6.2727489",
		"lat": "51.2999113",
		"number": "49",
		"street": "Caudebec-Ring",
		"city": "Nettetal",
		"district": "Lobberich",
		"postcode": "41334"
	},
	{
		"lon": "6.2758637",
		"lat": "51.2988011",
		"number": "117",
		"street": "Düsseldorfer Straße",
		"city": "Nettetal",
		"district": "Lobberich",
		"postcode": "41334"
	},
	{
		"lon": "6.2687162",
		"lat": "51.3029498",
		"number": "13",
		"street": "Kampstraße",
		"city": "Nettetal",
		"district": "Lobberich",
		"postcode": "41334"
	},
	{
		"lon": "6.2697932",
		"lat": "51.3036933",
		"number": "79",
		"street": "Breyeller Straße",
		"city": "Nettetal",
		"district": "Lobberich",
		"postcode": "41334"
	},
	{
		"lon": "6.2710146",
		"lat": "51.3048572",
		"number": "40",
		"street": "Bleichstraße",
		"city": "Nettetal",
		"district": "Lobberich",
		"postcode": "41334"
	},
	{
		"lon": "6.2663284",
		"lat": "51.3078776",
		"number": "2 a",
		"street": "Eichendorffstraße",
		"city": "Nettetal",
		"district": "Lobberich",
		"postcode": "41334"
	},
	{
		"lon": "6.2644229",
		"lat": "51.3093337",
		"number": "11",
		"street": "Weimarer Straße",
		"city": "Nettetal",
		"district": "Lobberich",
		"postcode": "41334"
	},
	{
		"lon": "6.2687316",
		"lat": "51.3065604",
		"number": "140",
		"street": "Mühlenstraße",
		"city": "Nettetal",
		"district": "Lobberich",
		"postcode": "41334"
	},
	{
		"lon": "6.2708944",
		"lat": "51.3068709",
		"number": "17",
		"street": "Am Ludbach",
		"city": "Nettetal",
		"district": "Lobberich",
		"postcode": "41334"
	},
	{
		"lon": "6.2681947",
		"lat": "51.3096376",
		"number": "24",
		"street": "Ostdeutscher Weg",
		"city": "Nettetal",
		"district": "Lobberich",
		"postcode": "41334"
	},
	{
		"lon": "6.2727323",
		"lat": "51.3028901",
		"number": "12",
		"street": "Eremitenstraße",
		"city": "Nettetal",
		"district": "Lobberich",
		"postcode": "41334"
	},
	{
		"lon": "6.2741518",
		"lat": "51.3033686",
		"number": "34",
		"street": "Friedhofstraße",
		"city": "Nettetal",
		"district": "Lobberich",
		"postcode": "41334"
	},
	{
		"lon": "6.2737851",
		"lat": "51.3048785",
		"number": "13",
		"street": "Johannes-Cleven-Straße",
		"city": "Nettetal",
		"district": "Lobberich",
		"postcode": "41334"
	},