[
	{
		"lon": "16.5904422",
		"lat": "54.5323233",
		"number": "10",
		"street": "Ulica Słoneczna",
		"city": "Jezierzany",
		"district": "\"sławieński",
		"postcode": "zachodniopomorskie"
	},
	{
		"lon": "16.5854639",
		"lat": "54.5312406",
		"number": "21",
		"street": "Ulica Zbożowa",
		"city": "Jezierzany",
		"district": "\"sławieński",
		"postcode": "zachodniopomorskie"
	},
	{
		"lon": "16.5359455",
		"lat": "54.5410807",
		"number": "40",
		"street": "Ulica Nadmorska",
		"city": "Jarosławiec",
		"district": "\"sławieński",
		"postcode": "zachodniopomorskie"
	},
	{
		"lon": "16.5617013",
		"lat": "54.5391691",
		"number": "32 25",
		"street": "Ulica Nadmorska",
		"city": "Jezierzany",
		"district": "\"sławieński",
		"postcode": "zachodniopomorskie"
	},
	{
		"lon": "16.5276251",
		"lat": "54.5382203",
		"number": "2",
		"street": "Ulica Leśna",
		"city": "Jarosławiec",
		"district": "\"sławieński",
		"postcode": "zachodniopomorskie"
	},
	{
		"lon": "16.5440733",
		"lat": "54.5387322",
		"number": "7",
		"street": "Ulica Różana",
		"city": "Jarosławiec",
		"district": "\"sławieński",
		"postcode": "zachodniopomorskie"
	},
	{
		"lon": "16.5437795",
		"lat": "54.537015",
		"number": "4",
		"street": "Ulica Konwaliowa",
		"city": "Jarosławiec",
		"district": "\"sławieński",
		"postcode": "zachodniopomorskie"
	},
	{
		"lon": "16.5272054",
		"lat": "54.5265216",
		"number": "5",
		"street": "Ulica Kasztanowa",
		"city": "Jarosławiec",
		"district": "\"sławieński",
		"postcode": "zachodniopomorskie"
	},
	{
		"lon": "16.5170961",
		"lat": "54.5159554",
		"number": "8",
		"street": "Ulica Korsarzy",
		"city": "Rusinowo",
		"district": "\"sławieński",
		"postcode": "zachodniopomorskie"
	},
	{
		"lon": "16.511906",
		"lat": "54.5197793",
		"number": "5",
		"street": "Ulica Sosnowa",
		"city": "Rusinowo",
		"district": "\"sławieński",
		"postcode": "zachodniopomorskie"
	},
	{
		"lon": "16.5156912",
		"lat": "54.5173001",
		"number": "78",
		"street": "Ulica Na Wzgórzu",
		"city": "Rusinowo",
		"district": "\"sławieński",
		"postcode": "zachodniopomorskie"
	},
	{
		"lon": "16.4931366",
		"lat": "54.5123848",
		"number": "7",
		"street": "Ulica Jasia i Małgosi",
		"city": "Rusinowo",
		"district": "\"sławieński",
		"postcode": "zachodniopomorskie"
	},
	{
		"lon": "16.4713795",
		"lat": "54.5066429",
		"number": "3",
		"street": "Ulica Słoneczna",
		"city": "Wicie",
		"district": "\"sławieński",
		"postcode": "zachodniopomorskie"
	},
	{
		"lon": "16.3877222",
		"lat": "54.4407157",
		"number": "14",
		"street": "Ulica Słowiańska",
		"city": "Darłowo",
		"district": "\"sławieński",
		"postcode": "zachodniopomorskie"
	},
	{
		"lon": "16.3848439",
		"lat": "54.4396132",
		"number": "6",
		"street": "Ulica Józefa Conrada",
		"city": "Darłowo",
		"district": "\"sławieński",
		"postcode": "zachodniopomorskie"
	},
	{
		"lon": "16.4168509",
		"lat": "54.4205677",
		"number": "7",
		"street": "Ulica Henryka Wieniawskiego",
		"city": "Darłowo",
		"district": "\"sławieński",
		"postcode": "zachodniopomorskie"
	},
	{
		"lon": "16.4134952",
		"lat": "54.422398",
		"number": "42",
		"street": "Ulica Młyńska",
		"city": "Darłowo",
		"district": "\"sławieński",
		"postcode": "zachodniopomorskie"
	},
	{
		"lon": "16.4137588",
		"lat": "54.4206304",
		"number": "15",
		"street": "Ulica Marii Curie-Skłodowskiej",
		"city": "Darłowo",
		"district": "\"sławieński",
		"postcode": "zachodniopomorskie"
	},
	{
		"lon": "16.4125147",
		"lat": "54.4246043",
		"number": "9",
		"street": "Ulica Wojsk Ochrony Pogranicza",
		"city": "Darłowo",
		"district": "\"sławieński",
		"postcode": "zachodniopomorskie"
	},
	{
		"lon": "16.3871583",
		"lat": "54.4379071",
		"number": "39",
		"street": "Ulica Józefa Conrada",
		"city": "Darłowo",
		"district": "\"sławieński",
		"postcode": "zachodniopomorskie"
	},
	{
		"lon": "16.4022036",
		"lat": "54.4264569",
		"number": "37",
		"street": "Ulica Sportowa",
		"city": "Darłowo",
		"district": "\"sławieński",
		"postcode": "zachodniopomorskie"
	},
	{
		"lon": "16.3801722",
		"lat": "54.437073",
		"number": "4",
		"street": "Ulica Wilków Morskich",
		"city": "Darłowo",
		"district": "\"sławieński",
		"postcode": "zachodniopomorskie"
	},
	{
		"lon": "16.3784588",
		"lat": "54.4357553",
		"number": "29c",
		"street": "Ulica Władysława IV",
		"city": "Darłowo",
		"district": "\"sławieński",
		"postcode": "zachodniopomorskie"
	},
	{
		"lon": "16.378354",
		"lat": "54.4364243",
		"number": "21",
		"street": "Ulica Władysława IV",
		"city": "Darłowo",
		"district": "\"sławieński",
		"postcode": "zachodniopomorskie"
	},
	{
		"lon": "16.3786912",
		"lat": "54.4373915",
		"number": "18",
		"street": "Ulica Władysława IV",
		"city": "Darłowo",
		"district": "\"sławieński",
		"postcode": "zachodniopomorskie"
	},
	{
		"lon": "16.3751202",
		"lat": "54.4355708",
		"number": "7",
		"street": "Ulica Plażowa",
		"city": "Darłowo",
		"district": "\"sławieński",
		"postcode": "zachodniopomorskie"
	},
	{
		"lon": "16.6873992",
		"lat": "54.3736846",
		"number": "27",
		"street": "Ulica Morelowa",
		"city": "Sławno",
		"district": "\"sławieński",
		"postcode": "zachodniopomorskie"
	},
	{
		"lon": "16.424094",
		"lat": "54.4287139",
		"number": "27",
		"street": "Ulica Kazimierza Pułaskiego",
		"city": "Darłowo",
		"district": "\"sławieński",
		"postcode": "zachodniopomorskie"
	},
	{
		"lon": "16.4192109",
		"lat": "54.4277519",
		"number": "40a",
		"street": "Ulica Ojca Damiana Tynieckiego",
		"city": "Darłowo",
		"district": "\"sławieński",
		"postcode": "zachodniopomorskie"
	},
	{
		"lon": "16.4267391",
		"lat": "54.4271481",
		"number": "53",
		"street": "Ulica Emilii Plater",
		"city": "Darłowo",
		"district": "\"sławieński",
		"postcode": "zachodniopomorskie"
	},
	{
		"lon": "16.4183016",
		"lat": "54.4263154",
		"number": "2",
		"street": "Ulica Emilii Plater",
		"city": "Darłowo",
		"district": "\"sławieński",
		"postcode": "zachodniopomorskie"
	},
	{
		"lon": "16.4175969",
		"lat": "54.4202771",
		"number": "4",
		"street": "Ulica Mikołaja Kopernika",
		"city": "Darłowo",
		"district": "\"sławieński",
		"postcode": "zachodniopomorskie"
	},
	{
		"lon": "16.4227196",
		"lat": "54.4154226",
		"number": "23",
		"street": "Ulica Mieczysława Karłowicza",
		"city": "Darłowo",
		"district": "\"sławieński",
		"postcode": "zachodniopomorskie"
	},
	{
		"lon": "16.6721194",
		"lat": "54.3661614",
		"number": "10",
		"street": "Ulica Zielona",
		"city": "Sławno",
		"district": "\"sławieński",
		"postcode": "zachodniopomorskie"
	},
	{
		"lon": "16.6747235",
		"lat": "54.3653569",
		"number": "16",
		"street": "Ulica aleja Wojska Polskiego",
		"city": "Sławno",
		"district": "\"sławieński",
		"postcode": "zachodniopomorskie"
	},
	{
		"lon": "16.6540005",
		"lat": "54.3704683",
		"number": "10a",
		"street": "Ulica Morska",
		"city": "Sławno",
		"district": "\"sławieński",
		"postcode": "zachodniopomorskie"
	},
	{
		"lon": "16.6963579",
		"lat": "54.3700792",
		"number": "7A",
		"street": "Ulica Mariana Buczka",
		"city": "Sławno",
		"district": "\"sławieński",
		"postcode": "zachodniopomorskie"
	},
	{
		"lon": "16.687797",
		"lat": "54.3637699",
		"number": "12d",
		"street": "Ulica Augusta Cieszkowskiego",
		"city": "Sławno",
		"district": "\"sławieński",
		"postcode": "zachodniopomorskie"
	},
	{
		"lon": "16.6847411",
		"lat": "54.3652673",
		"number": "31",
		"street": "Ulica Gdańska",
		"city": "Sławno",
		"district": "\"sławieński",
		"postcode": "zachodniopomorskie"
	},
	{
		"lon": "16.6801173",
		"lat": "54.3709145",
		"number": "46",
		"street": "Ulica I Pułku Ułanów",
		"city": "Sławno",
		"district": "\"sławieński",
		"postcode": "zachodniopomorskie"
	},
	{
		"lon": "16.6819793",
		"lat": "54.3714836",
		"number": "6",
		"street": "Ulica Wincentego Witosa",
		"city": "Sławno",
		"district": "\"sławieński",
		"postcode": "zachodniopomorskie"
	},
	{
		"lon": "16.678783",
		"lat": "54.3609944",
		"number": "5",
		"street": "Ulica Jedności Narodowej",
		"city": "Sławno",
		"district": "\"sławieński",
		"postcode": "zachodniopomorskie"
	},
	{
		"lon": "16.6793153",
		"lat": "54.3657079",
		"number": "1",
		"street": "Ulica I Pułku Ułanów",
		"city": "Sławno",
		"district": "\"sławieński",
		"postcode": "zachodniopomorskie"
	},
	{
		"lon": "16.6809031",
		"lat": "54.363445",
		"number": "9",
		"street": "Ulica Mariana Rapackiego",
		"city": "Sławno",
		"district": "\"sławieński",
		"postcode": "zachodniopomorskie"
	},
	{
		"lon": "16.6767238",
		"lat": "54.3711214",
		"number": "9",
		"street": "Ulica Stefanii Sempołowskiej",
		"city": "Sławno",
		"district": "\"sławieński",
		"postcode": "zachodniopomorskie"
	},
	{
		"lon": "16.6782035",
		"lat": "54.3680467",
		"number": "19",
		"street": "Ulica Władysława Jagiełły",
		"city": "Sławno",
		"district": "\"sławieński",
		"postcode": "zachodniopomorskie"
	},
	{
		"lon": "16.6761128",
		"lat": "54.3659959",
		"number": "13",
		"street": "Ulica Fryderyka Szopena",
		"city": "Sławno",
		"district": "\"sławieński",
		"postcode": "zachodniopomorskie"
	},
	{
		"lon": "16.6769696",
		"lat": "54.3619634",
		"number": "19",
		"street": "Ulica Basztowa",
		"city": "Sławno",
		"district": "\"sławieński",
		"postcode": "zachodniopomorskie"
	},
	{
		"lon": "16.6753931",
		"lat": "54.3593988",
		"number": "6",
		"street": "Plac plac Wolności",
		"city": "Sławno",
		"district": "\"sławieński",
		"postcode": "zachodniopomorskie"
	},
	{
		"lon": "16.6788642",
		"lat": "54.3594847",
		"number": "19b",
		"street": "Ulica Jedności Narodowej",
		"city": "Sławno",
		"district": "\"sławieński",
		"postcode": "zachodniopomorskie"
	},
	{
		"lon": "16.676652",
		"lat": "54.3572814",
		"number": "10",
		"street": "Ulica Koszalińska",
		"city": "Sławno",
		"district": "\"sławieński",
		"postcode": "zachodniopomorskie"
	},
	{
		"lon": "16.6718189",
		"lat": "54.3542806",
		"number": "8",
		"street": "Ulica Zofii Nałkowskiej",
		"city": "Sławno",
		"district": "\"sławieński",
		"postcode": "zachodniopomorskie"
	},
	{
		"lon": "16.672765",
		"lat": "54.3545643",
		"number": "15",
		"street": "Ulica Zofii Nałkowskiej",
		"city": "Sławno",
		"district": "\"sławieński",
		"postcode": "zachodniopomorskie"
	},
	{
		"lon": "16.6742943",
		"lat": "54.3500785",
		"number": "4",
		"street": "Ulica Józefa Mireckiego",
		"city": "Sławno",
		"district": "\"sławieński",
		"postcode": "zachodniopomorskie"
	},
	{
		"lon": "16.6800432",
		"lat": "54.349774",
		"number": "1B",
		"street": "Ulica Juliusza Kossaka",
		"city": "Sławno",
		"district": "\"sławieński",
		"postcode": "zachodniopomorskie"
	},
	{
		"lon": "16.6793104",
		"lat": "54.3477491",
		"number": "2",
		"street": "Ulica Tadeusza Rejtana",
		"city": "Sławno",
		"district": "\"sławieński",
		"postcode": "zachodniopomorskie"
	},
	{
		"lon": "16.669936",
		"lat": "54.3470944",
		"number": "4",
		"street": "Ulica Czesława Miłosza",
		"city": "Sławno",
		"district": "\"sławieński",
		"postcode": "zachodniopomorskie"
	},
	{
		"lon": "16.6777268",
		"lat": "54.3464953",
		"number": "2",
		"street": "Ulica Elizy Orzeszkowej",
		"city": "Sławno",
		"district": "\"sławieński",
		"postcode": "zachodniopomorskie"
	},
	{
		"lon": "16.6789216",
		"lat": "54.3456569",
		"number": "10a",
		"street": "Ulica Grunwaldzka",
		"city": "Sławno",
		"district": "\"sławieński",
		"postcode": "zachodniopomorskie"
	},
	{
		"lon": "16.6760643",
		"lat": "54.3442718",
		"number": "44",
		"street": "Plac plac Aleksandra Gierymskiego",
		"city": "Sławno",
		"district": "\"sławieński",
		"postcode": "zachodniopomorskie"
	},
	{
		"lon": "16.6777368",
		"lat": "54.3435599",
		"number": "24",
		"street": "Ulica Juliana Tuwima",
		"city": "Sławno",
		"district": "\"sławieński",
		"postcode": "zachodniopomorskie"
	},
	{
		"lon": "16.6771305",
		"lat": "54.344507",
		"number": "36",
		"street": "Ulica Aleksandra Gierymskiego",
		"city": "Sławno",
		"district": "\"sławieński",
		"postcode": "zachodniopomorskie"
	},
	{
		"lon": "16.6744344",
		"lat": "54.3427152",
		"number": "12",
		"street": "Ulica Juliusza Słowackiego",
		"city": "Sławno",
		"district": "\"sławieński",
		"postcode": "zachodniopomorskie"
	},
	{
		"lon": "16.6881846",
		"lat": "54.3410983",
		"number": "66a",
		"street": "Ulica Polanowska",
		"city": "Sławno",
		"district": "\"sławieński",
		"postcode": "zachodniopomorskie"
	},
	{
		"lon": "16.4275801",
		"lat": "54.4282854",
		"number": "33",
		"street": "Ulica Majora Hubala",
		"city": "Darłowo",
		"district": "\"sławieński",
		"postcode": "zachodniopomorskie"
	},
	{
		"lon": "16.4235844",
		"lat": "54.4286762",
		"number": "21",
		"street": "Ulica Kazimierza Pułaskiego",
		"city": "Darłowo",
		"district": "\"sławieński",
		"postcode": "zachodniopomorskie"
	},
	{
		"lon": "16.4197125",
		"lat": "54.4287523",
		"number": "43",
		"street": "Ulica Ojca Damiana Tynieckiego",
		"city": "Darłowo",
		"district": "\"sławieński",
		"postcode": "zachodniopomorskie"
	},
	{
		"lon": "16.4201366",
		"lat": "54.4281683",
		"number": "2",
		"street": "Ulica Kazimierza Pułaskiego",
		"city": "Darłowo",
		"district": "\"sławieński",
		"postcode": "zachodniopomorskie"
	},
	{
		"lon": "16.4126625",
		"lat": "54.4152364",
		"number": "2",
		"street": "Ulica Cicha",
		"city": "Darłowo",
		"district": "\"sławieński",
		"postcode": "zachodniopomorskie"
	},
	{
		"lon": "16.4096033",
		"lat": "54.4174332",
		"number": "4a",
		"street": "Ulica Stefana Żeromskiego",
		"city": "Darłowo",
		"district": "\"sławieński",
		"postcode": "zachodniopomorskie"
	},
	{
		"lon": "16.4095382",
		"lat": "54.4199962",
		"number": "26",
		"street": "Ulica Powstańców Warszawskich",
		"city": "Darłowo",
		"district": "\"sławieński",
		"postcode": "zachodniopomorskie"
	},
	{
		"lon": "16.4072579",
		"lat": "54.4218354",
		"number": "16",
		"street": "Ulica Rzemieślnicza",
		"city": "Darłowo",
		"district": "\"sławieński",
		"postcode": "zachodniopomorskie"
	},
	{
		"lon": "16.407444",
		"lat": "54.4185685",
		"number": "12",
		"street": "Ulica Bogusława X",
		"city": "Darłowo",
		"district": "\"sławieński",
		"postcode": "zachodniopomorskie"
	},
	{
		"lon": "16.4072573",
		"lat": "54.420487",
		"number": "41",
		"street": "Ulica Wenedów",
		"city": "Darłowo",
		"district": "\"sławieński",
		"postcode": "zachodniopomorskie"
	},
	{
		"lon": "16.3962743",
		"lat": "54.4154791",
		"number": "14",
		"street": "Ulica Władysława Stanisława Reymonta",
		"city": "Darłowo",
		"district": "\"sławieński",
		"postcode": "zachodniopomorskie"
	},
	{
		"lon": "16.4225532",
		"lat": "54.4170474",
		"number": "5A",
		"street": "Ulica Michała Kleofasa Ogińskiego",
		"city": "Darłowo",
		"district": "\"sławieński",
		"postcode": "zachodniopomorskie"
	},
	{
		"lon": "16.4171801",
		"lat": "54.4159132",
		"number": "9",
		"street": "Ulica Witolda Lutosławskiego",
		"city": "Darłowo",
		"district": "\"sławieński",
		"postcode": "zachodniopomorskie"
	},
	{
		"lon": "16.4119799",
		"lat": "54.4121466",
		"number": "1",
		"street": "Ulica Jana Henryka Dąbrowskiego",
		"city": "Darłowo",
		"district": "\"sławieński",
		"postcode": "zachodniopomorskie"
	},
	{
		"lon": "16.2432812",
		"lat": "54.1901733",
		"number": "11",
		"street": "Ulica Grabowa",
		"city": "Koszalin",
		"district": "\"Koszalin",
		"postcode": "zachodniopomorskie"
	},
	{
		"lon": "16.2420348",
		"lat": "54.190032",
		"number": "21",
		"street": "Ulica Wiśniowa",
		"city": "Koszalin",
		"district": "\"Koszalin",
		"postcode": "zachodniopomorskie"
	},
	{
		"lon": "16.239245",
		"lat": "54.1873215",
		"number": "341",
		"street": "Ulica Zwycięstwa",
		"city": "Koszalin",
		"district": "\"Koszalin",
		"postcode": "zachodniopomorskie"
	},
	{
		"lon": "16.2387622",
		"lat": "54.1899318",
		"number": "6",
		"street": "Ulica Wiśniowa",
		"city": "Koszalin",
		"district": "\"Koszalin",
		"postcode": "zachodniopomorskie"
	},
	{
		"lon": "16.2361008",
		"lat": "54.1881895",
		"number": "327",
		"street": "Ulica Zwycięstwa",
		"city": "Koszalin",
		"district": "\"Koszalin",
		"postcode": "zachodniopomorskie"
	},
	{
		"lon": "16.234179",
		"lat": "54.1921923",
		"number": "33",
		"street": "Ulica Westerplatte",
		"city": "Koszalin",
		"district": "\"Koszalin",
		"postcode": "zachodniopomorskie"
	},
	{
		"lon": "16.2332903",
		"lat": "54.1920305",
		"number": "25",
		"street": "Ulica Westerplatte",
		"city": "Koszalin",
		"district": "\"Koszalin",
		"postcode": "zachodniopomorskie"
	},
	{
		"lon": "16.210134",
		"lat": "54.2125549",
		"number": "22",
		"street": "Ulica Rodła",
		"city": "Koszalin",
		"district": "\"Koszalin",
		"postcode": "zachodniopomorskie"
	},
	{
		"lon": "16.2081263",
		"lat": "54.2137011",
		"number": "10",
		"street": "Ulica Izydora Maćkowicza",
		"city": "Koszalin",
		"district": "\"Koszalin",
		"postcode": "zachodniopomorskie"
	},
	{
		"lon": "16.2073864",
		"lat": "54.2145016",
		"number": "16",
		"street": "Ulica Władysława Turowskiego",
		"city": "Koszalin",
		"district": "\"Koszalin",
		"postcode": "zachodniopomorskie"
	},
	{
		"lon": "16.2041065",
		"lat": "54.2162616",
		"number": "12",
		"street": "Ulica Mazowiecka",
		"city": "Koszalin",
		"district": "\"Koszalin",
		"postcode": "zachodniopomorskie"
	},
	{
		"lon": "16.2039793",
		"lat": "54.2152623",
		"number": "5",
		"street": "Ulica Weteranów",
		"city": "Koszalin",
		"district": "\"Koszalin",
		"postcode": "zachodniopomorskie"
	},
	{
		"lon": "16.2059505",
		"lat": "54.2146892",
		"number": "42",
		"street": "Ulica Księdza Maksymiliana Grochowskiego",
		"city": "Koszalin",
		"district": "\"Koszalin",
		"postcode": "zachodniopomorskie"
	},
	{
		"lon": "16.2068813",
		"lat": "54.2140389",
		"number": "34",
		"street": "Ulica Księdza Maksymiliana Grochowskiego",
		"city": "Koszalin",
		"district": "\"Koszalin",
		"postcode": "zachodniopomorskie"
	},
	{
		"lon": "16.2048627",
		"lat": "54.212415",
		"number": "9",
		"street": "Ulica Marii Magdaleny Gąszczak",
		"city": "Koszalin",
		"district": "\"Koszalin",
		"postcode": "zachodniopomorskie"
	},
	{
		"lon": "16.2091969",
		"lat": "54.2132108",
		"number": "8",
		"street": "Ulica Arkadiusza Bożka",
		"city": "Koszalin",
		"district": "\"Koszalin",
		"postcode": "zachodniopomorskie"
	},
	{
		"lon": "16.2107908",
		"lat": "54.2110949",
		"number": "42",
		"street": "Ulica Rodła",
		"city": "Koszalin",
		"district": "\"Koszalin",
		"postcode": "zachodniopomorskie"
	},
	{
		"lon": "16.2070457",
		"lat": "54.2104589",
		"number": "1",
		"street": "Ulica Tradycji",
		"city": "Koszalin",
		"district": "\"Koszalin",
		"postcode": "zachodniopomorskie"
	},
	{
		"lon": "16.2313731",
		"lat": "54.1833435",
		"number": "33",
		"street": "Ulica Orzechowa",
		"city": "Koszalin",
		"district": "\"Koszalin",
		"postcode": "zachodniopomorskie"
	},
	{
		"lon": "16.2315244",
		"lat": "54.1813948",
		"number": "16",
		"street": "Ulica Mahoniowa",
		"city": "Koszalin",
		"district": "\"Koszalin",
		"postcode": "zachodniopomorskie"
	},
	{
		"lon": "16.2311627",
		"lat": "54.1836325",
		"number": "26",
		"street": "Ulica Orzechowa",
		"city": "Koszalin",
		"district": "\"Koszalin",
		"postcode": "zachodniopomorskie"
	},
	{
		"lon": "16.2267891",
		"lat": "54.1909854",
		"number": "18",
		"street": "Ulica Artylerzystów",
		"city": "Koszalin",
		"district": "\"Koszalin",
		"postcode": "zachodniopomorskie"
	},
	{
		"lon": "16.2275609",
		"lat": "54.1894048",
		"number": "8",
		"street": "Ulica Obrońców Tobruku",
		"city": "Koszalin",
		"district": "\"Koszalin",
		"postcode": "zachodniopomorskie"
	},
	{
		"lon": "16.2266562",
		"lat": "54.1855765",
		"number": "23",
		"street": "Ulica Jarzębinowa",
		"city": "Koszalin",
		"district": "\"Koszalin",
		"postcode": "zachodniopomorskie"
	},
	{
		"lon": "16.2281136",
		"lat": "54.1775041",
		"number": "108",
		"street": "Ulica Dzierżęcińska",
		"city": "Koszalin",
		"district": "\"Koszalin",
		"postcode": "zachodniopomorskie"
	},
	{
		"lon": "16.2255235",
		"lat": "54.1850942",
		"number": "28",
		"street": "Ulica Jarzębinowa",
		"city": "Koszalin",
		"district": "\"Koszalin",
		"postcode": "zachodniopomorskie"
	},
	{
		"lon": "16.2239857",
		"lat": "54.1885325",
		"number": "13",
		"street": "Ulica Brzoskwiniowa",
		"city": "Koszalin",
		"district": "\"Koszalin",
		"postcode": "zachodniopomorskie"
	},
	{
		"lon": "16.2239435",
		"lat": "54.1858528",
		"number": "6",
		"street": "Ulica Jarzębinowa",
		"city": "Koszalin",
		"district": "\"Koszalin",
		"postcode": "zachodniopomorskie"
	},
	{
		"lon": "16.2198191",
		"lat": "54.1846625",
		"number": "9",
		"street": "Ulica Tulipanów",
		"city": "Koszalin",
		"district": "\"Koszalin",
		"postcode": "zachodniopomorskie"
	},
	{
		"lon": "16.2191848",
		"lat": "54.1835719",
		"number": "6",
		"street": "Ulica Zalesie",
		"city": "Koszalin",
		"district": "\"Koszalin",
		"postcode": "zachodniopomorskie"
	},
	{
		"lon": "16.2186844",
		"lat": "54.1850131",
		"number": "29",
		"street": "Ulica Polnych Kwiatów",
		"city": "Koszalin",
		"district": "\"Koszalin",
		"postcode": "zachodniopomorskie"
	},
	{
		"lon": "16.215414",
		"lat": "54.1893137",
		"number": "14",
		"street": "Ulica Generała Józefa Bema",
		"city": "Koszalin",
		"district": "\"Koszalin",
		"postcode": "zachodniopomorskie"
	},
	{
		"lon": "16.2143083",
		"lat": "54.1857328",
		"number": "26",
		"street": "Ulica Sadowa",
		"city": "Koszalin",
		"district": "\"Koszalin",
		"postcode": "zachodniopomorskie"
	},
	{
		"lon": "16.2023953",
		"lat": "54.1859977",
		"number": "6",
		"street": "Ulica Jana Kasprowicza",
		"city": "Koszalin",
		"district": "\"Koszalin",
		"postcode": "zachodniopomorskie"
	},
	{
		"lon": "16.2078444",
		"lat": "54.2092303",
		"number": "20",
		"street": "Ulica Michała Żebrowskiego",
		"city": "Koszalin",
		"district": "\"Koszalin",
		"postcode": "zachodniopomorskie"
	},
	{
		"lon": "16.2002366",
		"lat": "54.2077839",
		"number": "11a",
		"street": "Ulica Śniadeckich",
		"city": "Koszalin",
		"district": "\"Koszalin",
		"postcode": "zachodniopomorskie"
	},
	{
		"lon": "16.2070537",
		"lat": "54.1987327",
		"number": "1c",
		"street": "Ulica Franciszka Zubrzyckiego",
		"city": "Koszalin",
		"district": "\"Koszalin",
		"postcode": "zachodniopomorskie"
	},
	{
		"lon": "16.2055383",
		"lat": "54.1975821",
		"number": "6b",
		"street": "Ulica Hanki Sawickiej",
		"city": "Koszalin",
		"district": "\"Koszalin",
		"postcode": "zachodniopomorskie"
	},
	{
		"lon": "16.2005311",
		"lat": "54.1968971",
		"number": "7a",
		"street": "Ulica Tadeusza Rejtana",
		"city": "Koszalin",
		"district": "\"Koszalin",
		"postcode": "zachodniopomorskie"
	},
	{
		"lon": "16.2080418",
		"lat": "54.1965943",
		"number": "21",
		"street": "Ulica Tadeusza Sygietyńskiego",
		"city": "Koszalin",
		"district": "\"Koszalin",
		"postcode": "zachodniopomorskie"
	},
	{
		"lon": "16.2046023",
		"lat": "54.1957364",
		"number": "68",
		"street": "Ulica Marszałka Józefa Piłsudskiego",
		"city": "Koszalin",
		"district": "\"Koszalin",
		"postcode": "zachodniopomorskie"
	},
	{
		"lon": "16.2080449",
		"lat": "54.1951913",
		"number": "40",
		"street": "Ulica Karola Szymanowskiego",
		"city": "Koszalin",
		"district": "\"Koszalin",
		"postcode": "zachodniopomorskie"
	},
	{
		"lon": "16.2212475",
		"lat": "54.1942027",
		"number": "6",
		"street": "Ulica Księżycowa",
		"city": "Koszalin",
		"district": "\"Koszalin",
		"postcode": "zachodniopomorskie"
	},
	{
		"lon": "16.2147931",
		"lat": "54.1941361",
		"number": "5",
		"street": "Ulica Mieczysława Karłowicza",
		"city": "Koszalin",
		"district": "\"Koszalin",
		"postcode": "zachodniopomorskie"
	},
	{
		"lon": "16.2038056",
		"lat": "54.1927871",
		"number": "18b",
		"street": "Ulica Karola Szymanowskiego",
		"city": "Koszalin",
		"district": "\"Koszalin",
		"postcode": "zachodniopomorskie"
	},
	{
		"lon": "16.2036033",
		"lat": "54.1922407",
		"number": "6d",
		"street": "Ulica Stanisława Moniuszki",
		"city": "Koszalin",
		"district": "\"Koszalin",
		"postcode": "zachodniopomorskie"
	},
	{
		"lon": "16.207958",
		"lat": "54.1927957",
		"number": "3",
		"street": "Ulica Zgoda",
		"city": "Koszalin",
		"district": "\"Koszalin",
		"postcode": "zachodniopomorskie"
	},
	{
		"lon": "16.2222498",
		"lat": "54.1933252",
		"number": "15",
		"street": "Ulica Zorzy",
		"city": "Koszalin",
		"district": "\"Koszalin",
		"postcode": "zachodniopomorskie"
	},
	{
		"lon": "16.2210926",
		"lat": "54.1909468",
		"number": "11",
		"street": "Ulica Ferdynanda Ruszczyca",
		"city": "Koszalin",
		"district": "\"Koszalin",
		"postcode": "zachodniopomorskie"
	},
	{
		"lon": "16.2136408",
		"lat": "54.2930201",
		"number": "13",
		"street": "Ulica Piaskowa",
		"city": "Osieki",
		"district": "\"koszaliński",
		"postcode": "zachodniopomorskie"
	},
	{
		"lon": "16.1890752",
		"lat": "54.3047626",
		"number": "8",
		"street": "Ulica Wczasowa",
		"city": "Łazy",
		"district": "\"koszaliński",
		"postcode": "zachodniopomorskie"
	},
	{
		"lon": "16.2025103",
		"lat": "54.1921801",
		"number": "12b",
		"street": "Ulica Hołdu Pruskiego",
		"city": "Koszalin",
		"district": "\"Koszalin",
		"postcode": "zachodniopomorskie"
	},
	{
		"lon": "16.2067905",
		"lat": "54.1896882",
		"number": "32",
		"street": "Ulica Kazimierza Tetmajera",
		"city": "Koszalin",
		"district": "\"Koszalin",
		"postcode": "zachodniopomorskie"
	},
	{
		"lon": "16.2061232",
		"lat": "54.1892356",
		"number": "30",
		"street": "Ulica Stefana Żeromskiego",
		"city": "Koszalin",
		"district": "\"Koszalin",
		"postcode": "zachodniopomorskie"
	},
	{
		"lon": "16.2057819",
		"lat": "54.1879712",
		"number": "22",
		"street": "Ulica Władysława Reymonta",
		"city": "Koszalin",
		"district": "\"Koszalin",
		"postcode": "zachodniopomorskie"
	},
	{
		"lon": "16.2053966",
		"lat": "54.1873988",
		"number": "14",
		"street": "Ulica Władysława Reymonta",
		"city": "Koszalin",
		"district": "\"Koszalin",
		"postcode": "zachodniopomorskie"
	},
	{
		"lon": "16.2046439",
		"lat": "54.185479",
		"number": "62a",
		"street": "Ulica Wojska Polskiego",
		"city": "Koszalin",
		"district": "\"Koszalin",
		"postcode": "zachodniopomorskie"
	},
	{
		"lon": "16.1904545",
		"lat": "54.1835686",
		"number": "15a",
		"street": "Ulica Orla",
		"city": "Koszalin",
		"district": "\"Koszalin",
		"postcode": "zachodniopomorskie"
	},
	{
		"lon": "16.1995175",
		"lat": "54.1798177",
		"number": "4",
		"street": "Ulica Kubusia Puchatka",
		"city": "Koszalin",
		"district": "\"Koszalin",
		"postcode": "zachodniopomorskie"
	},
	{
		"lon": "16.1989721",
		"lat": "54.1792312",
		"number": "5",
		"street": "Ulica Bajkowa",
		"city": "Koszalin",
		"district": "\"Koszalin",
		"postcode": "zachodniopomorskie"
	},
	{
		"lon": "16.1974758",
		"lat": "54.1796147",
		"number": "34",
		"street": "Ulica 4 Marca",
		"city": "Koszalin",
		"district": "\"Koszalin",
		"postcode": "zachodniopomorskie"
	},
	{
		"lon": "16.1943169",
		"lat": "54.1770919",
		"number": "32d",
		"street": "Ulica Gnieźnieńska",
		"city": "Koszalin",
		"district": "\"Koszalin",
		"postcode": "zachodniopomorskie"
	},
	{
		"lon": "16.2066206",
		"lat": "54.1650918",
		"number": "27a",
		"street": "Ulica Skowronków",
		"city": "Koszalin",
		"district": "\"Koszalin",
		"postcode": "zachodniopomorskie"
	},
	{
		"lon": "16.2026289",
		"lat": "54.1643086",
		"number": "11",
		"street": "Ulica Słowików",
		"city": "Koszalin",
		"district": "\"Koszalin",
		"postcode": "zachodniopomorskie"
	},
	{
		"lon": "16.2272081",
		"lat": "54.193106",
		"number": "18",
		"street": "Ulica Saperów",
		"city": "Koszalin",
		"district": "\"Koszalin",
		"postcode": "zachodniopomorskie"
	},
	{
		"lon": "16.2326946",
		"lat": "54.193099",
		"number": "19",
		"street": "Ulica Sianowska",
		"city": "Koszalin",
		"district": "\"Koszalin",
		"postcode": "zachodniopomorskie"
	},
	{
		"lon": "16.230859",
		"lat": "54.1927325",
		"number": "7",
		"street": "Ulica Lotników",
		"city": "Koszalin",
		"district": "\"Koszalin",
		"postcode": "zachodniopomorskie"
	},
	{
		"lon": "16.2161052",
		"lat": "54.192247",
		"number": "9",
		"street": "Ulica Cypriana Norwida",
		"city": "Koszalin",
		"district": "\"Koszalin",
		"postcode": "zachodniopomorskie"
	},
	{
		"lon": "16.2285613",
		"lat": "54.191122",
		"number": "3",
		"street": "Ulica Parkowa",
		"city": "Koszalin",
		"district": "\"Koszalin",
		"postcode": "zachodniopomorskie"
	},
	{
		"lon": "16.2121327",
		"lat": "54.191902",
		"number": "2b",
		"street": "Ulica Feliksa Nowowiejskiego",
		"city": "Koszalin",
		"district": "\"Koszalin",
		"postcode": "zachodniopomorskie"
	},
	{
		"lon": "16.2303928",
		"lat": "54.1897182",
		"number": "20",
		"street": "Ulica Czwartaków",
		"city": "Koszalin",
		"district": "\"Koszalin",
		"postcode": "zachodniopomorskie"
	},
	{
		"lon": "16.2285045",
		"lat": "54.18811",
		"number": "260",
		"street": "Ulica Zwycięstwa",
		"city": "Koszalin",
		"district": "\"Koszalin",
		"postcode": "zachodniopomorskie"
	},
	{
		"lon": "16.2294725",
		"lat": "54.1869151",
		"number": "3",
		"street": "Ulica Akacjowa",
		"city": "Koszalin",
		"district": "\"Koszalin",
		"postcode": "zachodniopomorskie"
	},
	{
		"lon": "16.2327012",
		"lat": "54.1855136",
		"number": "22",
		"street": "Ulica Topolowa",
		"city": "Koszalin",
		"district": "\"Koszalin",
		"postcode": "zachodniopomorskie"
	},
	{
		"lon": "16.2422607",
		"lat": "54.1830901",
		"number": "25",
		"street": "Ulica Światowida",
		"city": "Koszalin",
		"district": "\"Koszalin",
		"postcode": "zachodniopomorskie"
	},
	{
		"lon": "16.2027382",
		"lat": "54.1736438",
		"number": "61",
		"street": "Ulica Gnieźnieńska",
		"city": "Koszalin",
		"district": "\"Koszalin",
		"postcode": "zachodniopomorskie"
	},
	{
		"lon": "16.1866515",
		"lat": "54.1970604",
		"number": "73",
		"street": "Ulica Młyńska",
		"city": "Koszalin",
		"district": "\"Koszalin",
		"postcode": "zachodniopomorskie"
	},
	{
		"lon": "16.1836612",
		"lat": "54.1968782",
		"number": "26",
		"street": "Ulica Podgórna",
		"city": "Koszalin",
		"district": "\"Koszalin",
		"postcode": "zachodniopomorskie"
	},
	{
		"lon": "16.1897825",
		"lat": "54.1983371",
		"number": "7",
		"street": "Ulica Konstantego Ildefonsa Gałczyńskiego",
		"city": "Koszalin",
		"district": "\"Koszalin",
		"postcode": "zachodniopomorskie"
	},
	{
		"lon": "16.1978538",
		"lat": "54.1951817",
		"number": "19",
		"street": "Ulica Krucza",
		"city": "Koszalin",
		"district": "\"Koszalin",
		"postcode": "zachodniopomorskie"
	},
	{
		"lon": "16.182275",
		"lat": "54.1944659",
		"number": "18",
		"street": "Ulica Batalionów Chłopskich",
		"city": "Koszalin",
		"district": "\"Koszalin",
		"postcode": "zachodniopomorskie"
	},
	{
		"lon": "16.2018068",
		"lat": "54.193535",
		"number": "41",
		"street": "Ulica Jana Matejki",
		"city": "Koszalin",
		"district": "\"Koszalin",
		"postcode": "zachodniopomorskie"
	},
	{
		"lon": "16.1954006",
		"lat": "54.1933292",
		"number": "10",
		"street": "Ulica Tadeusza Kościuszki",
		"city": "Koszalin",
		"district": "\"Koszalin",
		"postcode": "zachodniopomorskie"
	},
	{
		"lon": "16.185277",
		"lat": "54.1930857",
		"number": "3",
		"street": "Ulica Piastowska",
		"city": "Koszalin",
		"district": "\"Koszalin",
		"postcode": "zachodniopomorskie"
	},
	{
		"lon": "16.193574",
		"lat": "54.1905125",
		"number": "2",
		"street": "Ulica Marszałka Józefa Piłsudskiego",
		"city": "Koszalin",
		"district": "\"Koszalin",
		"postcode": "zachodniopomorskie"
	},
	{
		"lon": "16.1973934",
		"lat": "54.1902337",
		"number": "140",
		"street": "Ulica Zwycięstwa",
		"city": "Koszalin",
		"district": "\"Koszalin",
		"postcode": "zachodniopomorskie"
	},
	{
		"lon": "16.182797",
		"lat": "54.1888598",
		"number": "7a",
		"street": "Ulica 1 Maja",
		"city": "Koszalin",
		"district": "\"Koszalin",
		"postcode": "zachodniopomorskie"
	},
	{
		"lon": "16.18539",
		"lat": "54.1865853",
		"number": "19",
		"street": "Ulica Heleny Modrzejewskiej",
		"city": "Koszalin",
		"district": "\"Koszalin",
		"postcode": "zachodniopomorskie"
	},
	{
		"lon": "16.2033844",
		"lat": "54.2136597",
		"number": "28",
		"street": "Ulica Malownicza",
		"city": "Koszalin",
		"district": "\"Koszalin",
		"postcode": "zachodniopomorskie"
	},
	{
		"lon": "16.2032007",
		"lat": "54.2167903",
		"number": "22",
		"street": "Ulica Pomorska",
		"city": "Koszalin",
		"district": "\"Koszalin",
		"postcode": "zachodniopomorskie"
	},
	{
		"lon": "16.2039502",
		"lat": "54.2117293",
		"number": "2",
		"street": "Ulica Księdza Bolesława Domańskiego",
		"city": "Koszalin",
		"district": "\"Koszalin",
		"postcode": "zachodniopomorskie"
	},
	{
		"lon": "16.200365",
		"lat": "54.2086719",
		"number": "15d",
		"street": "Ulica Joachima Lelewela",
		"city": "Koszalin",
		"district": "\"Koszalin",
		"postcode": "zachodniopomorskie"
	},
	{
		"lon": "16.1984394",
		"lat": "54.2130511",
		"number": "6",
		"street": "Ulica Boczna",
		"city": "Koszalin",
		"district": "\"Koszalin",
		"postcode": "zachodniopomorskie"
	},
	{
		"lon": "16.2015185",
		"lat": "54.2115657",
		"number": "3",
		"street": "Ulica Stanisława Staszica",
		"city": "Koszalin",
		"district": "\"Koszalin",
		"postcode": "zachodniopomorskie"
	},
	{
		"lon": "16.1974364",
		"lat": "54.2138294",
		"number": "40",
		"street": "Ulica Boczna",
		"city": "Koszalin",
		"district": "\"Koszalin",
		"postcode": "zachodniopomorskie"
	},
	{
		"lon": "16.1992105",
		"lat": "54.2147112",
		"number": "2",
		"street": "Ulica Księdza Jerzego Popiełuszki",
		"city": "Koszalin",
		"district": "\"Koszalin",
		"postcode": "zachodniopomorskie"
	},
	{
		"lon": "16.1900313",
		"lat": "54.2115182",
		"number": "37",
		"street": "Ulica Juliana Krzyżanowskiego",
		"city": "Koszalin",
		"district": "\"Koszalin",
		"postcode": "zachodniopomorskie"
	},
	{
		"lon": "16.1882445",
		"lat": "54.2105299",
		"number": "22",
		"street": "Ulica Juliana Krzyżanowskiego",
		"city": "Koszalin",
		"district": "\"Koszalin",
		"postcode": "zachodniopomorskie"
	},
	{
		"lon": "16.1868598",
		"lat": "54.2106063",
		"number": "6",
		"street": "Ulica Kazimierza Wyki",
		"city": "Koszalin",
		"district": "\"Koszalin",
		"postcode": "zachodniopomorskie"
	},
	{
		"lon": "16.1766452",
		"lat": "54.216034",
		"number": "58",
		"street": "Ulica Holenderska",
		"city": "Koszalin",
		"district": "\"Koszalin",
		"postcode": "zachodniopomorskie"
	},
	{
		"lon": "16.1926451",
		"lat": "54.207219",
		"number": "1c",
		"street": "Ulica Władysława Spasowskiego",
		"city": "Koszalin",
		"district": "\"Koszalin",
		"postcode": "zachodniopomorskie"
	},
	{
		"lon": "16.1940181",
		"lat": "54.2065653",
		"number": "2d",
		"street": "Ulica Władysława Spasowskiego",
		"city": "Koszalin",
		"district": "\"Koszalin",
		"postcode": "zachodniopomorskie"
	},
	{
		"lon": "16.1952905",
		"lat": "54.2008282",
		"number": "15",
		"street": "Ulica Juliana Fałata",
		"city": "Koszalin",
		"district": "\"Koszalin",
		"postcode": "zachodniopomorskie"
	},
	{
		"lon": "16.1908201",
		"lat": "54.2083737",
		"number": "1a",
		"street": "Ulica Wacława Sierpińskiego",
		"city": "Koszalin",
		"district": "\"Koszalin",
		"postcode": "zachodniopomorskie"
	},
	{
		"lon": "16.1874104",
		"lat": "54.2001301",
		"number": "20",
		"street": "Ulica Juliana Tuwima",
		"city": "Koszalin",
		"district": "\"Koszalin",
		"postcode": "zachodniopomorskie"
	},
	{
		"lon": "16.1872683",
		"lat": "54.2024718",
		"number": "3a",
		"street": "Ulica Melchiora Wańkowicza",
		"city": "Koszalin",
		"district": "\"Koszalin",
		"postcode": "zachodniopomorskie"
	},
	{
		"lon": "16.1860634",
		"lat": "54.2008613",
		"number": "34",
		"street": "Ulica Władysława IV",
		"city": "Koszalin",
		"district": "\"Koszalin",
		"postcode": "zachodniopomorskie"
	},
	{
		"lon": "16.1865711",
		"lat": "54.1997643",
		"number": "22b",
		"street": "Ulica Władysława IV",
		"city": "Koszalin",
		"district": "\"Koszalin",
		"postcode": "zachodniopomorskie"
	},
	{
		"lon": "16.1804801",
		"lat": "54.2035186",
		"number": "9",
		"street": "Ulica Stanisława Dąbka",
		"city": "Koszalin",
		"district": "\"Koszalin",
		"postcode": "zachodniopomorskie"
	},
	{
		"lon": "16.1794171",
		"lat": "54.2007346",
		"number": "3",
		"street": "Ulica Emilii Gierczak",
		"city": "Koszalin",
		"district": "\"Koszalin",
		"postcode": "zachodniopomorskie"
	},
	{
		"lon": "16.1768055",
		"lat": "54.2001347",
		"number": "18",
		"street": "Ulica Kościuszkowców",
		"city": "Koszalin",
		"district": "\"Koszalin",
		"postcode": "zachodniopomorskie"
	},
	{
		"lon": "16.1771144",
		"lat": "54.2052569",
		"number": "6a",
		"street": "Ulica Eugeniusza Kwiatkowskiego",
		"city": "Koszalin",
		"district": "\"Koszalin",
		"postcode": "zachodniopomorskie"
	},
	{
		"lon": "16.1730782",
		"lat": "54.2215491",
		"number": "54",
		"street": "Ulica Fińska",
		"city": "Koszalin",
		"district": "\"Koszalin",
		"postcode": "zachodniopomorskie"
	},
	{
		"lon": "16.1666738",
		"lat": "54.2214424",
		"number": "39c",
		"street": "Ulica Austriacka",
		"city": "Koszalin",
		"district": "\"Koszalin",
		"postcode": "zachodniopomorskie"
	},
	{
		"lon": "16.1746089",
		"lat": "54.2211426",
		"number": "27a",
		"street": "Ulica Fińska",
		"city": "Koszalin",
		"district": "\"Koszalin",
		"postcode": "zachodniopomorskie"
	},
	{
		"lon": "16.170516",
		"lat": "54.2207527",
		"number": "43b",
		"street": "Ulica Fińska",
		"city": "Koszalin",
		"district": "\"Koszalin",
		"postcode": "zachodniopomorskie"
	},
	{
		"lon": "16.1674506",
		"lat": "54.2198247",
		"number": "55b",
		"street": "Ulica Fińska",
		"city": "Koszalin",
		"district": "\"Koszalin",
		"postcode": "zachodniopomorskie"
	},
	{
		"lon": "16.1701153",
		"lat": "54.217129",
		"number": "10",
		"street": "Ulica Maltańska",
		"city": "Koszalin",
		"district": "\"Koszalin",
		"postcode": "zachodniopomorskie"
	},
	{
		"lon": "16.181424",
		"lat": "54.2096516",
		"number": "15",
		"street": "Ulica Adolfa Warskiego",
		"city": "Koszalin",
		"district": "\"Koszalin",
		"postcode": "zachodniopomorskie"
	},
	{
		"lon": "16.1802159",
		"lat": "54.2093693",
		"number": "44",
		"street": "Ulica Romana Dmowskiego",
		"city": "Koszalin",
		"district": "\"Koszalin",
		"postcode": "zachodniopomorskie"
	},
	{
		"lon": "16.1814898",
		"lat": "54.2095546",
		"number": "11",
		"street": "Ulica Adolfa Warskiego",
		"city": "Koszalin",
		"district": "\"Koszalin",
		"postcode": "zachodniopomorskie"
	},
	{
		"lon": "16.1807251",
		"lat": "54.2080353",
		"number": "1",
		"street": "Ulica Bolesława Limanowskiego",
		"city": "Koszalin",
		"district": "\"Koszalin",
		"postcode": "zachodniopomorskie"
	},
	{
		"lon": "16.1817498",
		"lat": "54.2063784",
		"number": "11g",
		"street": "Ulica Generała Władysława Sikorskiego",
		"city": "Koszalin",
		"district": "\"Koszalin",
		"postcode": "zachodniopomorskie"
	},
	{
		"lon": "16.1810831",
		"lat": "54.2061682",
		"number": "9b",
		"street": "Ulica Generała Władysława Sikorskiego",
		"city": "Koszalin",
		"district": "\"Koszalin",
		"postcode": "zachodniopomorskie"
	},
	{
		"lon": "16.2176985",
		"lat": "54.2855585",
		"number": "3",
		"street": "Ulica Sosnowa",
		"city": "Osieki",
		"district": "\"koszaliński",
		"postcode": "zachodniopomorskie"
	},
	{
		"lon": "16.2108271",
		"lat": "54.284993",
		"number": "2",
		"street": "Ulica Długa",
		"city": "Osieki",
		"district": "\"koszaliński",
		"postcode": "zachodniopomorskie"
	},
	{
		"lon": "16.2736929",
		"lat": "54.2570364",
		"number": "43",
		"street": "Ulica Koszalińska",
		"city": "Sucha Koszalińska",
		"district": "\"koszaliński",
		"postcode": "zachodniopomorskie"
	},
	{
		"lon": "16.2667931",
		"lat": "54.2577883",
		"number": "12",
		"street": "Ulica Lipowa",
		"city": "Sucha Koszalińska",
		"district": "\"koszaliński",
		"postcode": "zachodniopomorskie"
	},
	{
		"lon": "16.1634461",
		"lat": "54.2394533",
		"number": "51",
		"street": "Ulica Jamneńska",
		"city": "Koszalin",
		"district": "\"Koszalin",
		"postcode": "zachodniopomorskie"
	},
	{
		"lon": "16.2042454",
		"lat": "54.2184954",
		"number": "41",
		"street": "Ulica Pomorska",
		"city": "Koszalin",
		"district": "\"Koszalin",
		"postcode": "zachodniopomorskie"
	},
	{
		"lon": "16.1577172",
		"lat": "54.2098798",
		"number": "143",
		"street": "Ulica Franciszkańska",
		"city": "Koszalin",
		"district": "\"Koszalin",
		"postcode": "zachodniopomorskie"
	},
	{
		"lon": "16.1603052",
		"lat": "54.208757",
		"number": "130d",
		"street": "Ulica Franciszkańska",
		"city": "Koszalin",
		"district": "\"Koszalin",
		"postcode": "zachodniopomorskie"
	},
	{
		"lon": "16.155348",
		"lat": "54.2083376",
		"number": "14",
		"street": "Ulica Jachtowa",
		"city": "Koszalin",
		"district": "\"Koszalin",
		"postcode": "zachodniopomorskie"
	},
	{
		"lon": "16.1644749",
		"lat": "54.2089477",
		"number": "33c",
		"street": "Ulica Bosmańska",
		"city": "Koszalin",
		"district": "\"Koszalin",
		"postcode": "zachodniopomorskie"
	},
	{
		"lon": "16.1657854",
		"lat": "54.207984",
		"number": "23a",
		"street": "Ulica Bosmańska",
		"city": "Koszalin",
		"district": "\"Koszalin",
		"postcode": "zachodniopomorskie"
	},
	{
		"lon": "16.1615363",
		"lat": "54.206761",
		"number": "79",
		"street": "Ulica Spokojna",
		"city": "Koszalin",
		"district": "\"Koszalin",
		"postcode": "zachodniopomorskie"
	},
	{
		"lon": "16.1547819",
		"lat": "54.2069454",
		"number": "111",
		"street": "Ulica Morska",
		"city": "Koszalin",
		"district": "\"Koszalin",
		"postcode": "zachodniopomorskie"
	},
	{
		"lon": "16.1616852",
		"lat": "54.2059274",
		"number": "47",
		"street": "Ulica Kosynierów",
		"city": "Koszalin",
		"district": "\"Koszalin",
		"postcode": "zachodniopomorskie"
	},
	{
		"lon": "16.1614238",
		"lat": "54.2046769",
		"number": "38",
		"street": "Ulica Rybacka",
		"city": "Koszalin",
		"district": "\"Koszalin",
		"postcode": "zachodniopomorskie"
	},
	{
		"lon": "16.1666537",
		"lat": "54.2044509",
		"number": "27",
		"street": "Ulica Jantarowa",
		"city": "Koszalin",
		"district": "\"Koszalin",
		"postcode": "zachodniopomorskie"
	},
	{
		"lon": "16.1639024",
		"lat": "54.2036272",
		"number": "18",
		"street": "Ulica Kosynierów",
		"city": "Koszalin",
		"district": "\"Koszalin",
		"postcode": "zachodniopomorskie"
	},
	{
		"lon": "16.159445",
		"lat": "54.2034978",
		"number": "76",
		"street": "Ulica Morska",
		"city": "Koszalin",
		"district": "\"Koszalin",
		"postcode": "zachodniopomorskie"
	},
	{
		"lon": "16.1653521",
		"lat": "54.2036023",
		"number": "57",
		"street": "Ulica Franciszkańska",
		"city": "Koszalin",
		"district": "\"Koszalin",
		"postcode": "zachodniopomorskie"
	},
	{
		"lon": "16.1832398",
		"lat": "54.1875004",
		"number": "3",
		"street": "Plac Plac Gwiaździsty",
		"city": "Koszalin",
		"district": "\"Koszalin",
		"postcode": "zachodniopomorskie"
	},
	{
		"lon": "16.1813589",
		"lat": "54.1881467",
		"number": "3",
		"street": "Ulica Bolesława Krzywoustego",
		"city": "Koszalin",
		"district": "\"Koszalin",
		"postcode": "zachodniopomorskie"
	},
	{
		"lon": "16.1800385",
		"lat": "54.1913497",
		"number": "22",
		"street": "Ulica Bogusława II",
		"city": "Koszalin",
		"district": "\"Koszalin",
		"postcode": "zachodniopomorskie"
	},
	{
		"lon": "16.1777748",
		"lat": "54.1866034",
		"number": "17",
		"street": "Ulica Walerego Wróblewskiego",
		"city": "Koszalin",
		"district": "\"Koszalin",
		"postcode": "zachodniopomorskie"
	},
	{
		"lon": "16.1777077",
		"lat": "54.1892432",
		"number": "2",
		"street": "Ulica Połtawska",
		"city": "Koszalin",
		"district": "\"Koszalin",
		"postcode": "zachodniopomorskie"
	},
	{
		"lon": "16.1759661",
		"lat": "54.1875715",
		"number": "20a",
		"street": "Ulica Kaszubska",
		"city": "Koszalin",
		"district": "\"Koszalin",
		"postcode": "zachodniopomorskie"
	},
	{
		"lon": "16.1753531",
		"lat": "54.1903508",
		"number": "6",
		"street": "Ulica Jana z Kolna",
		"city": "Koszalin",
		"district": "\"Koszalin",
		"postcode": "zachodniopomorskie"
	},
	{
		"lon": "16.1712764",
		"lat": "54.1872943",
		"number": "4",
		"street": "Ulica Powstańców Wielkopolskich",
		"city": "Koszalin",
		"district": "\"Koszalin",
		"postcode": "zachodniopomorskie"
	},
	{
		"lon": "16.1664097",
		"lat": "54.1860528",
		"number": "6",
		"street": "Ulica Jasna",
		"city": "Koszalin",
		"district": "\"Koszalin",
		"postcode": "zachodniopomorskie"
	},
	{
		"lon": "16.1566714",
		"lat": "54.183589",
		"number": "37",
		"street": "Ulica Szczecińska",
		"city": "Koszalin",
		"district": "\"Koszalin",
		"postcode": "zachodniopomorskie"
	},
	{
		"lon": "16.1819295",
		"lat": "54.1921722",
		"number": "25",
		"street": "Ulica Młyńska",
		"city": "Koszalin",
		"district": "\"Koszalin",
		"postcode": "zachodniopomorskie"
	},
	{
		"lon": "16.1802369",
		"lat": "54.195869",
		"number": "39",
		"street": "Ulica Batalionów Chłopskich",
		"city": "Koszalin",
		"district": "\"Koszalin",
		"postcode": "zachodniopomorskie"
	},
	{
		"lon": "16.1755415",
		"lat": "54.2012316",
		"number": "15a",
		"street": "Ulica Emilii Gierczak",
		"city": "Koszalin",
		"district": "\"Koszalin",
		"postcode": "zachodniopomorskie"
	},
	{
		"lon": "16.1745432",
		"lat": "54.1954452",
		"number": "45",
		"street": "Ulica Niepodległości",
		"city": "Koszalin",
		"district": "\"Koszalin",
		"postcode": "zachodniopomorskie"
	},
	{
		"lon": "16.1742179",
		"lat": "54.1989739",
		"number": "12",
		"street": "Ulica Papiernicza",
		"city": "Koszalin",
		"district": "\"Koszalin",
		"postcode": "zachodniopomorskie"
	},
	{
		"lon": "16.1728766",
		"lat": "54.1935102",
		"number": "10g",
		"street": "Ulica Rzemieślnicza",
		"city": "Koszalin",
		"district": "\"Koszalin",
		"postcode": "zachodniopomorskie"
	},
	{
		"lon": "16.1687466",
		"lat": "54.1954588",
		"number": "6",
		"street": "Ulica Morska",
		"city": "Koszalin",
		"district": "\"Koszalin",
		"postcode": "zachodniopomorskie"
	},
	{
		"lon": "16.1664305",
		"lat": "54.2022232",
		"number": "5",
		"street": "Ulica Stoczniowców",
		"city": "Koszalin",
		"district": "\"Koszalin",
		"postcode": "zachodniopomorskie"
	},
	{
		"lon": "16.1650338",
		"lat": "54.2000996",
		"number": "5",
		"street": "Ulica Marynarzy",
		"city": "Koszalin",
		"district": "\"Koszalin",
		"postcode": "zachodniopomorskie"
	},
	{
		"lon": "16.1657696",
		"lat": "54.1956636",
		"number": "19h",
		"street": "Ulica Morska",
		"city": "Koszalin",
		"district": "\"Koszalin",
		"postcode": "zachodniopomorskie"
	},
	{
		"lon": "16.1566966",
		"lat": "54.1916241",
		"number": "23",
		"street": "Ulica Mieszka I",
		"city": "Koszalin",
		"district": "\"Koszalin",
		"postcode": "zachodniopomorskie"
	},
	{
		"lon": "16.1595687",
		"lat": "54.1977107",
		"number": "9d",
		"street": "Ulica Lniana",
		"city": "Koszalin",
		"district": "\"Koszalin",
		"postcode": "zachodniopomorskie"
	},
	{
		"lon": "16.1596012",
		"lat": "54.1979325",
		"number": "9b",
		"street": "Ulica Lniana",
		"city": "Koszalin",
		"district": "\"Koszalin",
		"postcode": "zachodniopomorskie"
	},
	{
		"lon": "16.1012747",
		"lat": "54.2184782",
		"number": "52 2",
		"street": "Ulica Koszalińska",
		"city": "Mścice",
		"district": "\"koszaliński",
		"postcode": "zachodniopomorskie"
	},
	{
		"lon": "16.1067162",
		"lat": "54.2163356",
		"number": "1",
		"street": "Ulica Zalesie",
		"city": "Mścice",
		"district": "\"koszaliński",
		"postcode": "zachodniopomorskie"
	},
	{
		"lon": "16.1528339",
		"lat": "54.1907914",
		"number": "42",
		"street": "Ulica Zacisze",
		"city": "Koszalin",
		"district": "\"Koszalin",
		"postcode": "zachodniopomorskie"
	},
	{
		"lon": "16.1514188",
		"lat": "54.1822424",
		"number": "45e",
		"street": "Ulica Szczecińska",
		"city": "Koszalin",
		"district": "\"Koszalin",
		"postcode": "zachodniopomorskie"
	},
	{
		"lon": "16.1469076",
		"lat": "54.1804988",
		"number": "49",
		"street": "Ulica Szczecińska",
		"city": "Koszalin",
		"district": "\"Koszalin",
		"postcode": "zachodniopomorskie"
	},
	{
		"lon": "16.2160985",
		"lat": "54.2838277",
		"number": "5",
		"street": "Ulica Jeziorna",
		"city": "Osieki",
		"district": "\"koszaliński",
		"postcode": "zachodniopomorskie"
	},
	{
		"lon": "16.219283",
		"lat": "54.2829927",
		"number": "1",
		"street": "Ulica Darłowska",
		"city": "Osieki",
		"district": "\"koszaliński",
		"postcode": "zachodniopomorskie"
	},
	{
		"lon": "16.2047757",
		"lat": "54.2184198",
		"number": "40a",
		"street": "Ulica Pomorska",
		"city": "Koszalin",
		"district": "\"Koszalin",
		"postcode": "zachodniopomorskie"
	},
	{
		"lon": "16.1785117",
		"lat": "54.2426798",
		"number": "15",
		"street": "Ulica Kwiatowa",
		"city": "Koszalin",
		"district": "\"Koszalin",
		"postcode": "zachodniopomorskie"
	},
	{
		"lon": "16.1750788",
		"lat": "54.2381",
		"number": "44",
		"street": "Ulica Lechicka",
		"city": "Koszalin",
		"district": "\"Koszalin",
		"postcode": "zachodniopomorskie"
	},
	{
		"lon": "16.1747919",
		"lat": "54.2452297",
		"number": "7",
		"street": "Ulica Złota",
		"city": "Koszalin",
		"district": "\"Koszalin",
		"postcode": "zachodniopomorskie"
	},
	{
		"lon": "16.1665064",
		"lat": "54.2462863",
		"number": "19",
		"street": "Ulica Sołecka",
		"city": "Koszalin",
		"district": "\"Koszalin",
		"postcode": "zachodniopomorskie"
	},
	{
		"lon": "16.1651479",
		"lat": "54.2435345",
		"number": "34",
		"street": "Ulica Jamneńska",
		"city": "Koszalin",
		"district": "\"Koszalin",
		"postcode": "zachodniopomorskie"
	},
	{
		"lon": "16.1605437",
		"lat": "54.2394571",
		"number": "3",
		"street": "Ulica Deszczowa",
		"city": "Koszalin",
		"district": "\"Koszalin",
		"postcode": "zachodniopomorskie"
	},
	{
		"lon": "16.1644031",
		"lat": "54.2420484",
		"number": "44",
		"street": "Ulica Jamneńska",
		"city": "Koszalin",
		"district": "\"Koszalin",
		"postcode": "zachodniopomorskie"
	},
	{
		"lon": "16.1805834",
		"lat": "54.273105",
		"number": "92",
		"street": "Ulica Starowiejska",
		"city": "Koszalin",
		"district": "\"Koszalin",
		"postcode": "zachodniopomorskie"
	},
	{
		"lon": "16.1047805",
		"lat": "54.2238343",
		"number": "3",
		"street": "Ulica Brzozowa",
		"city": "Mścice",
		"district": "\"koszaliński",
		"postcode": "zachodniopomorskie"
	},
	{
		"lon": "16.1023494",
		"lat": "54.2220451",
		"number": "18",
		"street": "Ulica Klonowa",
		"city": "Mścice",
		"district": "\"koszaliński",
		"postcode": "zachodniopomorskie"
	},
	{
		"lon": "16.0905761",
		"lat": "54.2682753",
		"number": "3",
		"street": "Ulica Porucznika Włodzimierza Suriana",
		"city": "Unieście",
		"district": "\"koszaliński",
		"postcode": "zachodniopomorskie"
	},
	{
		"lon": "16.0844441",
		"lat": "54.2675957",
		"number": "2",
		"street": "Ulica Bałtycka",
		"city": "Unieście",
		"district": "\"koszaliński",
		"postcode": "zachodniopomorskie"
	},
	{
		"lon": "16.0838148",
		"lat": "54.2670229",
		"number": "37",
		"street": "Ulica 6 Marca",
		"city": "Unieście",
		"district": "\"koszaliński",
		"postcode": "zachodniopomorskie"
	},
	{
		"lon": "16.083717",
		"lat": "54.266239",
		"number": "1",
		"street": "Ulica Róży Wiatrów",
		"city": "Unieście",
		"district": "\"koszaliński",
		"postcode": "zachodniopomorskie"
	},
	{
		"lon": "16.0752222",
		"lat": "54.2642324",
		"number": "3",
		"street": "Ulica Pogodna",
		"city": "Unieście",
		"district": "\"koszaliński",
		"postcode": "zachodniopomorskie"
	},
	{
		"lon": "16.0146926",
		"lat": "54.2501562",
		"number": "14a",
		"street": "Ulica Brzozowa",
		"city": "Mielenko",
		"district": "\"koszaliński",
		"postcode": "zachodniopomorskie"
	},
	{
		"lon": "16.0180436",
		"lat": "54.2489598",
		"number": "19",
		"street": "Ulica Lipowa",
		"city": "Mielenko",
		"district": "\"koszaliński",
		"postcode": "zachodniopomorskie"
	},
	{
		"lon": "16.0789135",
		"lat": "54.2217018",
		"number": "9",
		"street": "Ulica Bałtycka",
		"city": "Mścice",
		"district": "\"koszaliński",
		"postcode": "zachodniopomorskie"
	},
	{
		"lon": "15.990605",
		"lat": "54.2516657",
		"number": "8",
		"street": "Ulica Jachtowa",
		"city": "Chłopy",
		"district": "\"koszaliński",
		"postcode": "zachodniopomorskie"
	},
	{
		"lon": "15.9829376",
		"lat": "54.2509564",
		"number": "26",
		"street": "Ulica Kapitańska",
		"city": "Chłopy",
		"district": "\"koszaliński",
		"postcode": "zachodniopomorskie"
	},
	{
		"lon": "15.9799335",
		"lat": "54.2508106",
		"number": "1",
		"street": "Ulica Morska",
		"city": "Chłopy",
		"district": "\"koszaliński",
		"postcode": "zachodniopomorskie"
	},
	{
		"lon": "15.9698268",
		"lat": "54.2447616",
		"number": "3",
		"street": "Ulica Bałtycka",
		"city": "Sarbinowo",
		"district": "\"koszaliński",
		"postcode": "zachodniopomorskie"
	},
	{
		"lon": "15.9574715",
		"lat": "54.2474417",
		"number": "1",
		"street": "Ulica Poprzeczna",
		"city": "Sarbinowo",
		"district": "\"koszaliński",
		"postcode": "zachodniopomorskie"
	},
	{
		"lon": "15.9557447",
		"lat": "54.2467418",
		"number": "16",
		"street": "Ulica Młyńska",
		"city": "Sarbinowo",
		"district": "\"koszaliński",
		"postcode": "zachodniopomorskie"
	},
	{
		"lon": "15.950341",
		"lat": "54.2486677",
		"number": "90",
		"street": "Ulica Nadmorska",
		"city": "Sarbinowo",
		"district": "\"koszaliński",
		"postcode": "zachodniopomorskie"
	},
	{
		"lon": "15.9376023",
		"lat": "54.2461753",
		"number": "10",
		"street": "Ulica Piaskowa",
		"city": "Sarbinowo",
		"district": "\"koszaliński",
		"postcode": "zachodniopomorskie"
	},
	{
		"lon": "15.8939799",
		"lat": "54.242682",
		"number": "25",
		"street": "Ulica Nadbrzeżna",
		"city": "Gąski",
		"district": "\"koszaliński",
		"postcode": "zachodniopomorskie"
	},
	{
		"lon": "15.8830338",
		"lat": "54.2420989",
		"number": "61",
		"street": "Ulica Nadbrzeżna",
		"city": "Gąski",
		"district": "\"koszaliński",
		"postcode": "zachodniopomorskie"
	},
	{
		"lon": "15.771638",
		"lat": "54.2176141",
		"number": "2B",
		"street": "Ulica Graniczna",
		"city": "Ustronie Morskie",
		"district": "\"kołobrzeski",
		"postcode": "zachodniopomorskie"
	},
	{
		"lon": "15.7643333",
		"lat": "54.2172248",
		"number": "72A",
		"street": "Ulica Bolesława Chrobrego",
		"city": "Ustronie Morskie",
		"district": "\"kołobrzeski",
		"postcode": "zachodniopomorskie"
	},
	{
		"lon": "15.765335",
		"lat": "54.2027361",
		"number": "7A",
		"street": "Ulica Koszalińska",
		"city": "Ustronie Morskie",
		"district": "\"kołobrzeski",
		"postcode": "zachodniopomorskie"
	},
	{
		"lon": "15.7605134",
		"lat": "54.2170754",
		"number": "53d",
		"street": "Ulica Bolesława Chrobrego",
		"city": "Ustronie Morskie",
		"district": "\"kołobrzeski",
		"postcode": "zachodniopomorskie"
	},
	{
		"lon": "15.7620416",
		"lat": "54.2131514",
		"number": "29A",
		"street": "Ulica Górna",
		"city": "Ustronie Morskie",
		"district": "\"kołobrzeski",
		"postcode": "zachodniopomorskie"
	},
	{
		"lon": "15.759442",
		"lat": "54.2158784",
		"number": "15B",
		"street": "Ulica Wojska Polskiego",
		"city": "Ustronie Morskie",
		"district": "\"kołobrzeski",
		"postcode": "zachodniopomorskie"
	},
	{
		"lon": "15.7570941",
		"lat": "54.1963657",
		"number": "1F",
		"street": "Ulica Ku Słońcu",
		"city": "Ustronie Morskie",
		"district": "\"kołobrzeski",
		"postcode": "zachodniopomorskie"
	},
	{
		"lon": "15.7517872",
		"lat": "54.2138654",
		"number": "1",
		"street": "Ulica Osiedlowa",
		"city": "Ustronie Morskie",
		"district": "\"kołobrzeski",
		"postcode": "zachodniopomorskie"
	},
	{
		"lon": "15.7497734",
		"lat": "54.2111899",
		"number": "21",
		"street": "Ulica Wiejska",
		"city": "Ustronie Morskie",
		"district": "\"kołobrzeski",
		"postcode": "zachodniopomorskie"
	},
	{
		"lon": "15.7507068",
		"lat": "54.2091643",
		"number": "39",
		"street": "Ulica Wiejska",
		"city": "Ustronie Morskie",
		"district": "\"kołobrzeski",
		"postcode": "zachodniopomorskie"
	},
	{
		"lon": "15.7505898",
		"lat": "54.2125184",
		"number": "4A",
		"street": "Ulica Osiedlowa",
		"city": "Ustronie Morskie",
		"district": "\"kołobrzeski",
		"postcode": "zachodniopomorskie"
	},
	{
		"lon": "15.744057",
		"lat": "54.2103161",
		"number": "1",
		"street": "Ulica Rolna",
		"city": "Ustronie Morskie",
		"district": "\"kołobrzeski",
		"postcode": "zachodniopomorskie"
	},
	{
		"lon": "15.7419014",
		"lat": "54.2083767",
		"number": "13",
		"street": "Ulica Rolna",
		"city": "Ustronie Morskie",
		"district": "\"kołobrzeski",
		"postcode": "zachodniopomorskie"
	},
	{
		"lon": "15.7336443",
		"lat": "54.2004083",
		"number": "2B",
		"street": "Ulica Kołobrzeska",
		"city": "Sianożęty",
		"district": "\"kołobrzeski",
		"postcode": "zachodniopomorskie"
	},
	{
		"lon": "15.7369859",
		"lat": "54.2052351",
		"number": "1",
		"street": "Ulica Olszyna",
		"city": "Sianożęty",
		"district": "\"kołobrzeski",
		"postcode": "zachodniopomorskie"
	},
	{
		"lon": "15.7283548",
		"lat": "54.2099043",
		"number": "2",
		"street": "Ulica Środkowa",
		"city": "Sianożęty",
		"district": "\"kołobrzeski",
		"postcode": "zachodniopomorskie"
	},
	{
		"lon": "15.7235411",
		"lat": "54.2076432",
		"number": "15",
		"street": "Ulica Lotnicza",
		"city": "Sianożęty",
		"district": "\"kołobrzeski",
		"postcode": "zachodniopomorskie"
	},
	{
		"lon": "15.7196784",
		"lat": "54.2055098",
		"number": "23",
		"street": "Ulica Wczasowa",
		"city": "Sianożęty",
		"district": "\"kołobrzeski",
		"postcode": "zachodniopomorskie"
	},
	{
		"lon": "15.7158299",
		"lat": "54.2051224",
		"number": "50",
		"street": "Ulica Wczasowa",
		"city": "Sianożęty",
		"district": "\"kołobrzeski",
		"postcode": "zachodniopomorskie"
	},
	{
		"lon": "15.7390755",
		"lat": "54.198538",
		"number": "15B",
		"street": "Ulica Kołobrzeska",
		"city": "Ustronie Morskie",
		"district": "\"kołobrzeski",
		"postcode": "zachodniopomorskie"
	},
	{
		"lon": "16.173876",
		"lat": "54.185183",
		"number": "18",
		"street": "Ulica Powstańców Wielkopolskich",
		"city": "Koszalin",
		"district": "\"Koszalin",
		"postcode": "zachodniopomorskie"
	},
	{
		"lon": "16.1808266",
		"lat": "54.185193",
		"number": "5",
		"street": "Ulica Zakole",
		"city": "Koszalin",
		"district": "\"Koszalin",
		"postcode": "zachodniopomorskie"
	},
	{
		"lon": "16.171243",
		"lat": "54.186097",
		"number": "7",
		"street": "Ulica Franciszka Ratajczaka",
		"city": "Koszalin",
		"district": "\"Koszalin",
		"postcode": "zachodniopomorskie"
	},
	{
		"lon": "16.1706876",
		"lat": "54.183301",
		"number": "47",
		"street": "Ulica Kolejowa",
		"city": "Koszalin",
		"district": "\"Koszalin",
		"postcode": "zachodniopomorskie"
	},
	{
		"lon": "16.1589739",
		"lat": "54.1846351",
		"number": "31a",
		"street": "Ulica Szczecińska",
		"city": "Koszalin",
		"district": "\"Koszalin",
		"postcode": "zachodniopomorskie"
	},
	{
		"lon": "16.1801403",
		"lat": "54.1826165",
		"number": "27c",
		"street": "Ulica Lutyków",
		"city": "Koszalin",
		"district": "\"Koszalin",
		"postcode": "zachodniopomorskie"
	},
	{
		"lon": "16.1777356",
		"lat": "54.181196",
		"number": "12",
		"street": "Ulica Poprzeczna",
		"city": "Koszalin",
		"district": "\"Koszalin",
		"postcode": "zachodniopomorskie"
	},
	{
		"lon": "16.1729552",
		"lat": "54.1823541",
		"number": "24",
		"street": "Ulica Lechicka",
		"city": "Koszalin",
		"district": "\"Koszalin",
		"postcode": "zachodniopomorskie"
	},
	{
		"lon": "16.177492",
		"lat": "54.1805769",
		"number": "9c",
		"street": "Ulica Poprzeczna",
		"city": "Koszalin",
		"district": "\"Koszalin",
		"postcode": "zachodniopomorskie"
	},
	{
		"lon": "16.1745377",
		"lat": "54.180716",
		"number": "26c",
		"street": "Ulica Poprzeczna",
		"city": "Koszalin",
		"district": "\"Koszalin",
		"postcode": "zachodniopomorskie"
	},
	{
		"lon": "16.180822",
		"lat": "54.1779664",
		"number": "8a",
		"street": "Ulica Wenedów",
		"city": "Koszalin",
		"district": "\"Koszalin",
		"postcode": "zachodniopomorskie"
	},
	{
		"lon": "16.1810388",
		"lat": "54.1747518",
		"number": "1",
		"street": "Ulica Lubuszan",
		"city": "Koszalin",
		"district": "\"Koszalin",
		"postcode": "zachodniopomorskie"
	},
	{
		"lon": "16.1791482",
		"lat": "54.164942",
		"number": "24j",
		"street": "Ulica Żytnia",
		"city": "Koszalin",
		"district": "\"Koszalin",
		"postcode": "zachodniopomorskie"
	},
	{
		"lon": "15.7311031",
		"lat": "54.1410171",
		"number": "33",
		"street": "Ulica Kolejowa",
		"city": "Dygowo",
		"district": "\"kołobrzeski",
		"postcode": "zachodniopomorskie"
	},
	{
		"lon": "15.7253629",
		"lat": "54.1335571",
		"number": "6",
		"street": "Ulica Wiosenna",
		"city": "Dygowo",
		"district": "\"kołobrzeski",
		"postcode": "zachodniopomorskie"
	},
	{
		"lon": "15.7246376",
		"lat": "54.1330913",
		"number": "3a",
		"street": "Ulica Kolejowa",
		"city": "Dygowo",
		"district": "\"kołobrzeski",
		"postcode": "zachodniopomorskie"
	},
	{
		"lon": "15.7190046",
		"lat": "54.1324455",
		"number": "19",
		"street": "Ulica Ogrodowa",
		"city": "Dygowo",
		"district": "\"kołobrzeski",
		"postcode": "zachodniopomorskie"
	},
	{
		"lon": "15.71315",
		"lat": "54.1343158",
		"number": "19",
		"street": "Ulica Kołobrzeska",
		"city": "Dygowo",
		"district": "\"kołobrzeski",
		"postcode": "zachodniopomorskie"
	},
	{
		"lon": "16.2566995",
		"lat": "54.17475",
		"number": "103",
		"street": "Ulica Lubiatowska",
		"city": "Koszalin",
		"district": "\"Koszalin",
		"postcode": "zachodniopomorskie"
	},
	{
		"lon": "16.2520662",
		"lat": "54.1733424",
		"number": "23",
		"street": "Ulica Łąkowa",
		"city": "Koszalin",
		"district": "\"Koszalin",
		"postcode": "zachodniopomorskie"
	},
	{
		"lon": "16.2473275",
		"lat": "54.1835396",
		"number": "13",
		"street": "Ulica Kupiecka",
		"city": "Koszalin",
		"district": "\"Koszalin",
		"postcode": "zachodniopomorskie"
	},
	{
		"lon": "16.2431987",
		"lat": "54.1850593",
		"number": "12",
		"street": "Ulica Lubiatowska",
		"city": "Koszalin",
		"district": "\"Koszalin",
		"postcode": "zachodniopomorskie"
	},
	{
		"lon": "16.2326677",
		"lat": "54.1872764",
		"number": "21",
		"street": "Ulica Topolowa",
		"city": "Koszalin",
		"district": "\"Koszalin",
		"postcode": "zachodniopomorskie"
	},
	{
		"lon": "16.2172487",
		"lat": "54.1623391",
		"number": "18",
		"street": "Ulica Kretomińska",
		"city": "Kretomino",
		"district": "\"koszaliński",
		"postcode": "zachodniopomorskie"
	},
	{
		"lon": "16.1787956",
		"lat": "54.1647064",
		"number": "30d",
		"street": "Ulica Żytnia",
		"city": "Koszalin",
		"district": "\"Koszalin",
		"postcode": "zachodniopomorskie"
	},
	{
		"lon": "16.2161162",
		"lat": "54.1601296",
		"number": "27",
		"street": "Ulica Kretomińska",
		"city": "Kretomino",
		"district": "\"koszaliński",
		"postcode": "zachodniopomorskie"
	},
	{
		"lon": "16.2145313",
		"lat": "54.1560665",
		"number": "9",
		"street": "Ulica Aroniowa",
		"city": "Kretomino",
		"district": "\"koszaliński",
		"postcode": "zachodniopomorskie"
	},
	{
		"lon": "16.195957",
		"lat": "54.1634392",
		"number": "4",
		"street": "Ulica Seminaryjna",
		"city": "Koszalin",
		"district": "\"Koszalin",
		"postcode": "zachodniopomorskie"
	},
	{
		"lon": "16.2112842",
		"lat": "54.1558555",
		"number": "78",
		"street": "Ulica Paproci",
		"city": "Koszalin",
		"district": "\"Koszalin",
		"postcode": "zachodniopomorskie"
	},
	{
		"lon": "16.2117939",
		"lat": "54.1545629",
		"number": "11",
		"street": "Ulica Stokrotek",
		"city": "Koszalin",
		"district": "\"Koszalin",
		"postcode": "zachodniopomorskie"
	},
	{
		"lon": "16.1977406",
		"lat": "54.1529005",
		"number": "21",
		"street": "Ulica Paproci",
		"city": "Koszalin",
		"district": "\"Koszalin",
		"postcode": "zachodniopomorskie"
	},
	{
		"lon": "16.2061301",
		"lat": "54.153673",
		"number": "8",
		"street": "Ulica Róż",
		"city": "Koszalin",
		"district": "\"Koszalin",
		"postcode": "zachodniopomorskie"
	},
	{
		"lon": "16.2091087",
		"lat": "54.1528363",
		"number": "16",
		"street": "Ulica Konwalii",
		"city": "Koszalin",
		"district": "\"Koszalin",
		"postcode": "zachodniopomorskie"
	},
	{
		"lon": "16.2099167",
		"lat": "54.1515084",
		"number": "2",
		"street": "Ulica Irysów",
		"city": "Koszalin",
		"district": "\"Koszalin",
		"postcode": "zachodniopomorskie"
	},
	{
		"lon": "16.1983314",
		"lat": "54.1487375",
		"number": "27",
		"street": "Ulica Maków",
		"city": "Koszalin",
		"district": "\"Koszalin",
		"postcode": "zachodniopomorskie"
	},
	{
		"lon": "16.0870083",
		"lat": "54.2207519",
		"number": "38",
		"street": "Ulica Północna",
		"city": "Mścice",
		"district": "\"koszaliński",
		"postcode": "zachodniopomorskie"
	},
	{
		"lon": "16.105139",
		"lat": "54.2186209",
		"number": "42",
		"street": "Ulica Koszalińska",
		"city": "Mścice",
		"district": "\"koszaliński",
		"postcode": "zachodniopomorskie"
	},
	{
		"lon": "16.0773329",
		"lat": "54.2173105",
		"number": "21A",
		"street": "Ulica Dworcowa",
		"city": "Mścice",
		"district": "\"koszaliński",
		"postcode": "zachodniopomorskie"
	},
	{
		"lon": "15.8750528",
		"lat": "54.0443252",
		"number": "48f",
		"street": "Ulica Kościuszki",
		"city": "Karlino",
		"district": "\"białogardzki",
		"postcode": "zachodniopomorskie"
	},
	{
		"lon": "15.8750148",
		"lat": "54.0432677",
		"number": "48o",
		"street": "Ulica Kościuszki",
		"city": "Karlino",
		"district": "\"białogardzki",
		"postcode": "zachodniopomorskie"
	},
	{
		"lon": "15.726936",
		"lat": "54.1265411",
		"number": "52",
		"street": "Ulica Kołobrzeska",
		"city": "Dygowo",
		"district": "\"kołobrzeski",
		"postcode": "zachodniopomorskie"
	},
	{
		"lon": "15.7184777",
		"lat": "54.1295377",
		"number": "19",
		"street": "Ulica Diamentowa",
		"city": "Dygowo",
		"district": "\"kołobrzeski",
		"postcode": "zachodniopomorskie"
	},
	{
		"lon": "16.0095492",
		"lat": "54.0083877",
		"number": "7",
		"street": "Ulica Jerzego",
		"city": "Białogard",
		"district": "\"białogardzki",
		"postcode": "zachodniopomorskie"
	},
	{
		"lon": "16.0087184",
		"lat": "54.0082742",
		"number": "10",
		"street": "Ulica Jana Kiepury",
		"city": "Białogard",
		"district": "\"białogardzki",
		"postcode": "zachodniopomorskie"
	},
	{
		"lon": "16.0050951",
		"lat": "54.0087117",
		"number": "17",
		"street": "Ulica Piastów",
		"city": "Białogard",
		"district": "\"białogardzki",
		"postcode": "zachodniopomorskie"
	},
	{
		"lon": "16.0031513",
		"lat": "54.0078215",
		"number": "2",
		"street": "Ulica Szymanowskiego",
		"city": "Białogard",
		"district": "\"białogardzki",
		"postcode": "zachodniopomorskie"
	},
	{
		"lon": "16.0030363",
		"lat": "54.0117417",
		"number": "42",
		"street": "Ulica Zwycięstwa",
		"city": "Białogard",
		"district": "\"białogardzki",
		"postcode": "zachodniopomorskie"
	},
	{
		"lon": "15.9969424",
		"lat": "54.0128814",
		"number": "37",
		"street": "Ulica <Null> Bolesława Śmiałego",
		"city": "Białogard",
		"district": "\"białogardzki",
		"postcode": "zachodniopomorskie"
	},
	{
		"lon": "15.9928858",
		"lat": "54.0139338",
		"number": "22",
		"street": "Ulica <Null> Bolesława Śmiałego",
		"city": "Białogard",
		"district": "\"białogardzki",
		"postcode": "zachodniopomorskie"
	},
	{
		"lon": "15.9917272",
		"lat": "54.0166947",
		"number": "11",
		"street": "Ulica Mestwina",
		"city": "Białogard",
		"district": "\"białogardzki",
		"postcode": "zachodniopomorskie"
	},
	{
		"lon": "15.9916345",
		"lat": "54.0128048",
		"number": "13a",
		"street": "Ulica Wiślana",
		"city": "Białogard",
		"district": "\"białogardzki",
		"postcode": "zachodniopomorskie"
	},
	{
		"lon": "15.987191",
		"lat": "54.010046",
		"number": "12",
		"street": "Ulica Słowackiego",
		"city": "Białogard",
		"district": "\"białogardzki",
		"postcode": "zachodniopomorskie"
	},
	{
		"lon": "15.9895022",
		"lat": "54.0134049",
		"number": "41",
		"street": "Ulica Dąbrowszczaków",
		"city": "Białogard",
		"district": "\"białogardzki",
		"postcode": "zachodniopomorskie"
	},
	{
		"lon": "15.983766",
		"lat": "54.0135019",
		"number": "6",
		"street": "Ulica Bolesława Prusa",
		"city": "Białogard",
		"district": "\"białogardzki",
		"postcode": "zachodniopomorskie"
	},
	{
		"lon": "16.0025834",
		"lat": "54.0064398",
		"number": "7",
		"street": "Ulica Moniuszki",
		"city": "Białogard",
		"district": "\"białogardzki",
		"postcode": "zachodniopomorskie"
	},
	{
		"lon": "15.9901217",
		"lat": "54.0058136",
		"number": "16",
		"street": "Ulica Lindego",
		"city": "Białogard",
		"district": "\"białogardzki",
		"postcode": "zachodniopomorskie"
	},
	{
		"lon": "15.994425",
		"lat": "54.004816",
		"number": "61",
		"street": "Ulica Józefa Piłsudskiego",
		"city": "Białogard",
		"district": "\"białogardzki",
		"postcode": "zachodniopomorskie"
	},
	{
		"lon": "16.0041943",
		"lat": "54.0057236",
		"number": "15",
		"street": "Ulica Moniuszki",
		"city": "Białogard",
		"district": "\"białogardzki",
		"postcode": "zachodniopomorskie"
	},
	{
		"lon": "15.9853587",
		"lat": "54.0051709",
		"number": "2",
		"street": "Ulica Zaułek Drzewny",
		"city": "Białogard",
		"district": "\"białogardzki",
		"postcode": "zachodniopomorskie"
	},
	{
		"lon": "15.9930953",
		"lat": "54.0034073",
		"number": "46",
		"street": "Ulica Józefa Piłsudskiego",
		"city": "Białogard",
		"district": "\"białogardzki",
		"postcode": "zachodniopomorskie"
	},
	{
		"lon": "16.0029983",
		"lat": "54.0026916",
		"number": "2",
		"street": "Ulica Mieszka I",
		"city": "Białogard",
		"district": "\"białogardzki",
		"postcode": "zachodniopomorskie"
	},
	{
		"lon": "15.9943112",
		"lat": "53.9996439",
		"number": "12",
		"street": "Ulica Połczyńska",
		"city": "Białogard",
		"district": "\"białogardzki",
		"postcode": "zachodniopomorskie"
	},
	{
		"lon": "15.9989305",
		"lat": "53.9988557",
		"number": "9",
		"street": "Ulica Wiejska",
		"city": "Białogard",
		"district": "\"białogardzki",
		"postcode": "zachodniopomorskie"
	},
	{
		"lon": "16.0051854",
		"lat": "53.9995284",
		"number": "4",
		"street": "Ulica Wadowicka",
		"city": "Białogard",
		"district": "\"białogardzki",
		"postcode": "zachodniopomorskie"
	},
	{
		"lon": "15.9991581",
		"lat": "53.9979885",
		"number": "3",
		"street": "Ulica Wawelska",
		"city": "Białogard",
		"district": "\"białogardzki",
		"postcode": "zachodniopomorskie"
	},
	{
		"lon": "16.0009121",
		"lat": "53.9971509",
		"number": "26",
		"street": "Ulica Leśna",
		"city": "Białogard",
		"district": "\"białogardzki",
		"postcode": "zachodniopomorskie"
	},
	{
		"lon": "15.9868578",
		"lat": "54.0059153",
		"number": "4",
		"street": "Ulica Wojska Polskiego",
		"city": "Białogard",
		"district": "\"białogardzki",
		"postcode": "zachodniopomorskie"
	},
	{
		"lon": "15.9860085",
		"lat": "54.0104434",
		"number": "12",
		"street": "Ulica Zamoyskiego",
		"city": "Białogard",
		"district": "\"białogardzki",
		"postcode": "zachodniopomorskie"
	},
	{
		"lon": "15.9828632",
		"lat": "54.0116639",
		"number": "6",
		"street": "Ulica Juliana Tuwima",
		"city": "Białogard",
		"district": "\"białogardzki",
		"postcode": "zachodniopomorskie"
	},
	{
		"lon": "15.9834846",
		"lat": "54.0130619",
		"number": "6",
		"street": "Ulica Norwida",
		"city": "Białogard",
		"district": "\"białogardzki",
		"postcode": "zachodniopomorskie"
	},
	{
		"lon": "15.9809378",
		"lat": "54.0082107",
		"number": "25",
		"street": "Ulica Lipowa",
		"city": "Białogard",
		"district": "\"białogardzki",
		"postcode": "zachodniopomorskie"
	},
	{
		"lon": "15.9798082",
		"lat": "54.0059669",
		"number": "48",
		"street": "Ulica Wojska Polskiego",
		"city": "Białogard",
		"district": "\"białogardzki",
		"postcode": "zachodniopomorskie"
	},
	{
		"lon": "15.9789222",
		"lat": "54.0098617",
		"number": "2",
		"street": "Ulica Marcina Borzymowskiego",
		"city": "Białogard",
		"district": "\"białogardzki",
		"postcode": "zachodniopomorskie"
	},
	{
		"lon": "15.9804198",
		"lat": "54.0001606",
		"number": "1",
		"street": "Ulica Cicha",
		"city": "Białogard",
		"district": "\"białogardzki",
		"postcode": "zachodniopomorskie"
	},
	{
		"lon": "15.9727885",
		"lat": "54.0060797",
		"number": "5A",
		"street": "Ulica Szpitalna",
		"city": "Białogard",
		"district": "\"białogardzki",
		"postcode": "zachodniopomorskie"
	},
	{
		"lon": "15.966368",
		"lat": "54.01054",
		"number": "35b",
		"street": "Ulica Kołobrzeska",
		"city": "Białogard",
		"district": "\"białogardzki",
		"postcode": "zachodniopomorskie"
	},
	{
		"lon": "15.9570541",
		"lat": "54.012256",
		"number": "17",
		"street": "Ulica Feliksa Stamma",
		"city": "Białogard",
		"district": "\"białogardzki",
		"postcode": "zachodniopomorskie"
	},
	{
		"lon": "15.9753277",
		"lat": "53.9993521",
		"number": "1",
		"street": "Ulica Łąkowa",
		"city": "Białogard",
		"district": "\"białogardzki",
		"postcode": "zachodniopomorskie"
	},
	{
		"lon": "15.8873906",
		"lat": "54.0438335",
		"number": "4",
		"street": "Ulica Kolejowa",
		"city": "Karlino",
		"district": "\"białogardzki",
		"postcode": "zachodniopomorskie"
	},
	{
		"lon": "15.8793045",
		"lat": "54.0361649",
		"number": "62",
		"street": "Ulica Koszalińska",
		"city": "Karlino",
		"district": "\"białogardzki",
		"postcode": "zachodniopomorskie"
	},
	{
		"lon": "15.8782846",
		"lat": "54.0342426",
		"number": "18",
		"street": "Ulica Koszalińska",
		"city": "Karlino",
		"district": "\"białogardzki",
		"postcode": "zachodniopomorskie"
	},
	{
		"lon": "15.8760539",
		"lat": "54.0412255",
		"number": "10",
		"street": "Ulica Słoneczna",
		"city": "Karlino",
		"district": "\"białogardzki",
		"postcode": "zachodniopomorskie"
	},
	{
		"lon": "15.8758471",
		"lat": "54.040783",
		"number": "3",
		"street": "Ulica Słoneczna",
		"city": "Karlino",
		"district": "\"białogardzki",
		"postcode": "zachodniopomorskie"
	},
	{
		"lon": "15.8759889",
		"lat": "54.0328182",
		"number": "2",
		"street": "Ulica Spichrzowa",
		"city": "Karlino",
		"district": "\"białogardzki",
		"postcode": "zachodniopomorskie"
	},
	{
		"lon": "15.8727013",
		"lat": "54.0428854",
		"number": "2",
		"street": "Ulica Niepodległości",
		"city": "Karlino",
		"district": "\"białogardzki",
		"postcode": "zachodniopomorskie"
	},
	{
		"lon": "15.8770141",
		"lat": "54.0350019",
		"number": "9d",
		"street": "Ulica Szymanowskiego",
		"city": "Karlino",
		"district": "\"białogardzki",
		"postcode": "zachodniopomorskie"
	},
	{
		"lon": "15.8865948",
		"lat": "54.0480593",
		"number": "6b",
		"street": "Ulica Leśna",
		"city": "Karlino",
		"district": "\"białogardzki",
		"postcode": "zachodniopomorskie"
	},
	{
		"lon": "15.9885063",
		"lat": "54.0187236",
		"number": "82",
		"street": "Ulica Dąbrowszczaków",
		"city": "Białogard",
		"district": "\"białogardzki",
		"postcode": "zachodniopomorskie"
	},
	{
		"lon": "15.9869401",
		"lat": "54.0171251",
		"number": "65",
		"street": "Ulica Kochanowskiego",
		"city": "Białogard",
		"district": "\"białogardzki",
		"postcode": "zachodniopomorskie"
	},
	{
		"lon": "15.9683572",
		"lat": "54.0240883",
		"number": "80",
		"street": "Ulica 1 Maja",
		"city": "Białogard",
		"district": "\"białogardzki",
		"postcode": "zachodniopomorskie"
	},
	{
		"lon": "16.005086",
		"lat": "54.011809",
		"number": "1",
		"street": "Ulica Krzysztofa Komedy",
		"city": "Białogard",
		"district": "\"białogardzki",
		"postcode": "zachodniopomorskie"
	},
	{
		"lon": "16.2110556",
		"lat": "54.19532",
		"number": "53",
		"street": "Ulica Fryderyka Chopina",
		"city": "Koszalin",
		"district": "\"Koszalin",
		"postcode": "zachodniopomorskie"
	},
	{
		"lon": "16.2212694",
		"lat": "54.1946558",
		"number": "8",
		"street": "Ulica Leśna",
		"city": "Koszalin",
		"district": "\"Koszalin",
		"postcode": "zachodniopomorskie"
	},
	{
		"lon": "16.2180514",
		"lat": "54.1881594",
		"number": "21",
		"street": "Ulica Zielona",
		"city": "Koszalin",
		"district": "\"Koszalin",
		"postcode": "zachodniopomorskie"
	},
	{
		"lon": "16.2148898",
		"lat": "54.186072",
		"number": "46",
		"street": "Ulica Zielona",
		"city": "Koszalin",
		"district": "\"Koszalin",
		"postcode": "zachodniopomorskie"
	},
	{
		"lon": "16.2304127",
		"lat": "54.1813495",
		"number": "20d",
		"street": "Ulica Wierzbowa",
		"city": "Koszalin",
		"district": "\"Koszalin",
		"postcode": "zachodniopomorskie"
	},
	{
		"lon": "16.2473615",
		"lat": "54.1756374",
		"number": "11",
		"street": "Ulica Dzierżęcińska",
		"city": "Koszalin",
		"district": "\"Koszalin",
		"postcode": "zachodniopomorskie"
	},
	{
		"lon": "16.0013266",
		"lat": "53.9961912",
		"number": "10",
		"street": "Ulica Podlaska",
		"city": "Białogard",
		"district": "\"białogardzki",
		"postcode": "zachodniopomorskie"
	},
	{
		"lon": "15.977689",
		"lat": "53.9961065",
		"number": "35",
		"street": "Ulica Kisielice Duże",
		"city": "Białogard",
		"district": "\"białogardzki",
		"postcode": "zachodniopomorskie"
	},
	{
		"lon": "15.9952637",
		"lat": "54.0038157",
		"number": "8a",
		"street": "Ulica Klementyny Hoffmanowej",
		"city": "Białogard",
		"district": "\"białogardzki",
		"postcode": "zachodniopomorskie"
	},
	{
		"lon": "16.4066511",
		"lat": "54.424003",
		"number": "7",
		"street": "Ulica Jana Matejki",
		"city": "Darłowo",
		"district": "\"sławieński",
		"postcode": "zachodniopomorskie"
	},
	{
		"lon": "16.4048856",
		"lat": "54.424058",
		"number": "11",
		"street": "Ulica Artura Grottgera",
		"city": "Darłowo",
		"district": "\"sławieński",
		"postcode": "zachodniopomorskie"
	},
	{
		"lon": "16.4086896",
		"lat": "54.4236594",
		"number": "114",
		"street": "Ulica Wałowa",
		"city": "Darłowo",
		"district": "\"sławieński",
		"postcode": "zachodniopomorskie"
	},
	{
		"lon": "16.411201",
		"lat": "54.4224886",
		"number": "6",
		"street": "Plac Plac Tadeusza Kościuszki",
		"city": "Darłowo",
		"district": "\"sławieński",
		"postcode": "zachodniopomorskie"
	},
	{
		"lon": "16.4086405",
		"lat": "54.4201946",
		"number": "15",
		"street": "Ulica Kowalska",
		"city": "Darłowo",
		"district": "\"sławieński",
		"postcode": "zachodniopomorskie"
	},
	{
		"lon": "16.4099789",
		"lat": "54.4179468",
		"number": "59b",
		"street": "Ulica Aleje Wojska Polskiego",
		"city": "Darłowo",
		"district": "\"sławieński",
		"postcode": "zachodniopomorskie"
	},
	{
		"lon": "16.4021965",
		"lat": "54.4161502",
		"number": "7",
		"street": "Ulica Juliusza Słowackiego",
		"city": "Darłowo",
		"district": "\"sławieński",
		"postcode": "zachodniopomorskie"
	},
	{
		"lon": "16.4188429",
		"lat": "53.887428",
		"number": "7",
		"street": "Ulica Polna",
		"city": "Mieszałki",
		"district": "\"szczecinecki",
		"postcode": "zachodniopomorskie"
	},
	{
		"lon": "16.4107127",
		"lat": "54.412824",
		"number": "38A",
		"street": "Ulica Aleje Wojska Polskiego",
		"city": "Darłowo",
		"district": "\"sławieński",
		"postcode": "zachodniopomorskie"
	},
	{
		"lon": "16.4311789",
		"lat": "53.8342716",
		"number": "5",
		"street": "Ulica Kolejowa",
		"city": "Grzmiąca",
		"district": "\"szczecinecki",
		"postcode": "zachodniopomorskie"
	},
	{
		"lon": "16.4188744",
		"lat": "53.8329898",
		"number": "25",
		"street": "Ulica Kolejowa",
		"city": "Grzmiąca",
		"district": "\"szczecinecki",
		"postcode": "zachodniopomorskie"
	},
	{
		"lon": "16.2754578",
		"lat": "53.9353501",
		"number": "47",
		"street": "Ulica Bobolicka",
		"city": "Tychowo",
		"district": "\"białogardzki",
		"postcode": "zachodniopomorskie"
	},
	{
		"lon": "16.2701245",
		"lat": "53.9332993",
		"number": "30",
		"street": "Ulica Bobolicka",
		"city": "Tychowo",
		"district": "\"białogardzki",
		"postcode": "zachodniopomorskie"
	},
	{
		"lon": "16.2717993",
		"lat": "53.9290896",
		"number": "4",
		"street": "Ulica Akacjowa",
		"city": "Tychowo",
		"district": "\"białogardzki",
		"postcode": "zachodniopomorskie"
	},
	{
		"lon": "16.2576779",
		"lat": "53.9276296",
		"number": "12",
		"street": "Ulica Wolności",
		"city": "Tychowo",
		"district": "\"białogardzki",
		"postcode": "zachodniopomorskie"
	},
	{
		"lon": "16.2496355",
		"lat": "53.9163812",
		"number": "7",
		"street": "Ulica Dolna",
		"city": "Tychowo",
		"district": "\"białogardzki",
		"postcode": "zachodniopomorskie"
	},
	{
		"lon": "16.3084785",
		"lat": "53.8373276",
		"number": "9",
		"street": "Ulica Rzeczna",
		"city": "Krosino",
		"district": "\"szczecinecki",
		"postcode": "zachodniopomorskie"
	},
	{
		"lon": "16.1075087",
		"lat": "53.7748491",
		"number": "47",
		"street": "Ulica Traugutta",
		"city": "Połczyn-Zdrój",
		"district": "\"świdwiński",
		"postcode": "zachodniopomorskie"
	},
	{
		"lon": "16.1100834",
		"lat": "53.7712302",
		"number": "97",
		"street": "Ulica Polna",
		"city": "Połczyn-Zdrój",
		"district": "\"świdwiński",
		"postcode": "zachodniopomorskie"
	},
	{
		"lon": "16.1041185",
		"lat": "53.7701191",
		"number": "6",
		"street": "Ulica Polna",
		"city": "Połczyn-Zdrój",
		"district": "\"świdwiński",
		"postcode": "zachodniopomorskie"
	},
	{
		"lon": "16.0971517",
		"lat": "53.7706595",
		"number": "11",
		"street": "Ulica Reymonta",
		"city": "Połczyn-Zdrój",
		"district": "\"świdwiński",
		"postcode": "zachodniopomorskie"
	},
	{
		"lon": "16.1005196",
		"lat": "53.7691192",
		"number": "8",
		"street": "Ulica Stanisława Staszica",
		"city": "Połczyn-Zdrój",
		"district": "\"świdwiński",
		"postcode": "zachodniopomorskie"
	},
	{
		"lon": "16.0887718",
		"lat": "53.7686515",
		"number": "15",
		"street": "Ulica Kołobrzeska",
		"city": "Połczyn-Zdrój",
		"district": "\"świdwiński",
		"postcode": "zachodniopomorskie"
	},
	{
		"lon": "16.1029119",
		"lat": "53.7708633",
		"number": "4",
		"street": "Ulica Traugutta",
		"city": "Połczyn-Zdrój",
		"district": "\"świdwiński",
		"postcode": "zachodniopomorskie"
	},
	{
		"lon": "16.0948298",
		"lat": "53.7673713",
		"number": "32",
		"street": "Ulica Grunwaldzka",
		"city": "Połczyn-Zdrój",
		"district": "\"świdwiński",
		"postcode": "zachodniopomorskie"
	},
	{
		"lon": "16.0859259",
		"lat": "53.7674468",
		"number": "37",
		"street": "Ulica Kazimierza Wielkiego",
		"city": "Połczyn-Zdrój",
		"district": "\"świdwiński",
		"postcode": "zachodniopomorskie"
	},
	{
		"lon": "15.9823464",
		"lat": "54.0106541",
		"number": "29",
		"street": "Ulica 1 Maja",
		"city": "Białogard",
		"district": "\"białogardzki",
		"postcode": "zachodniopomorskie"
	},
	{
		"lon": "15.9849765",
		"lat": "54.0056181",
		"number": "74",
		"street": "Ulica Wojska Polskiego",
		"city": "Białogard",
		"district": "\"białogardzki",
		"postcode": "zachodniopomorskie"
	},
	{
		"lon": "15.9804376",
		"lat": "54.0007517",
		"number": "10",
		"street": "Ulica Kisielice Duże",
		"city": "Białogard",
		"district": "\"białogardzki",
		"postcode": "zachodniopomorskie"
	},
	{
		"lon": "15.7498513",
		"lat": "53.7672795",
		"number": "14a",
		"street": "Ulica Chełmińska",
		"city": "Świdwin",
		"district": "\"świdwiński",
		"postcode": "zachodniopomorskie"
	},
	{
		"lon": "15.7594635",
		"lat": "53.7653791",
		"number": "7",
		"street": "Ulica Toruńska",
		"city": "Świdwin",
		"district": "\"świdwiński",
		"postcode": "zachodniopomorskie"
	},
	{
		"lon": "15.775099",
		"lat": "53.7626108",
		"number": "43",
		"street": "Ulica Podmiejska",
		"city": "Świdwin",
		"district": "\"świdwiński",
		"postcode": "zachodniopomorskie"
	},
	{
		"lon": "15.7596728",
		"lat": "53.7667035",
		"number": "2",
		"street": "Ulica Bydgoska",
		"city": "Świdwin",
		"district": "\"świdwiński",
		"postcode": "zachodniopomorskie"
	},
	{
		"lon": "15.7673686",
		"lat": "53.7508795",
		"number": "72",
		"street": "Ulica Drawska",
		"city": "Świdwin",
		"district": "\"świdwiński",
		"postcode": "zachodniopomorskie"
	},
	{
		"lon": "15.7601005",
		"lat": "53.7693946",
		"number": "72",
		"street": "Ulica Szczecińska",
		"city": "Świdwin",
		"district": "\"świdwiński",
		"postcode": "zachodniopomorskie"
	},
	{
		"lon": "16.6790631",
		"lat": "53.7203149",
		"number": "88c",
		"street": "Ulica Koszalińska",
		"city": "Szczecinek",
		"district": "\"szczecinecki",
		"postcode": "zachodniopomorskie"
	},
	{
		"lon": "16.3717098",
		"lat": "53.7331027",
		"number": "52",
		"street": "Ulica 1000-lecia",
		"city": "Barwice",
		"district": "\"szczecinecki",
		"postcode": "zachodniopomorskie"
	},
	{
		"lon": "16.6157536",
		"lat": "53.7184932",
		"number": "76",
		"street": "Ulica Trzesiecka",
		"city": "Szczecinek",
		"district": "\"szczecinecki",
		"postcode": "zachodniopomorskie"
	},
	{
		"lon": "16.5243491",
		"lat": "53.5931339",
		"number": "26",
		"street": "Ulica Nadbrzeżna",
		"city": "Borne Sulinowo",
		"district": "\"szczecinecki",
		"postcode": "zachodniopomorskie"
	},
	{
		"lon": "16.5487732",
		"lat": "53.5834296",
		"number": "28",
		"street": "Ulica Bolesława Chrobrego",
		"city": "Borne Sulinowo",
		"district": "\"szczecinecki",
		"postcode": "zachodniopomorskie"
	},
	{
		"lon": "16.5353973",
		"lat": "53.580939",
		"number": "10",
		"street": "Ulica Kard. Stefana Wyszyńskiego",
		"city": "Borne Sulinowo",
		"district": "\"szczecinecki",
		"postcode": "zachodniopomorskie"
	},
	{
		"lon": "16.5469921",
		"lat": "53.5819524",
		"number": "30a",
		"street": "Ulica Bolesława Chrobrego",
		"city": "Borne Sulinowo",
		"district": "\"szczecinecki",
		"postcode": "zachodniopomorskie"
	},
	{
		"lon": "16.5370975",
		"lat": "53.575519",
		"number": "30",
		"street": "Ulica Wojska Polskiego",
		"city": "Borne Sulinowo",
		"district": "\"szczecinecki",
		"postcode": "zachodniopomorskie"
	},
	{
		"lon": "16.3958678",
		"lat": "53.5879542",
		"number": "12",
		"street": "Ulica Kościuszki",
		"city": "Łubowo",
		"district": "\"szczecinecki",
		"postcode": "zachodniopomorskie"
	},
	{
		"lon": "16.4673774",
		"lat": "53.2741962",
		"number": "8",
		"street": "Ulica Sosnowa",
		"city": "Wałcz",
		"district": "\"wałecki",
		"postcode": "zachodniopomorskie"
	},
	{
		"lon": "16.4673016",
		"lat": "53.2805387",
		"number": "4",
		"street": "Ulica Żabia",
		"city": "Wałcz",
		"district": "\"wałecki",
		"postcode": "zachodniopomorskie"
	},
	{
		"lon": "16.4677942",
		"lat": "53.2798315",
		"number": "17",
		"street": "Ulica Pożarna",
		"city": "Wałcz",
		"district": "\"wałecki",
		"postcode": "zachodniopomorskie"
	},
	{
		"lon": "16.4635555",
		"lat": "53.2740292",
		"number": "10",
		"street": "Ulica Wileńska",
		"city": "Wałcz",
		"district": "\"wałecki",
		"postcode": "zachodniopomorskie"
	},
	{
		"lon": "16.4612222",
		"lat": "53.2751062",
		"number": "4",
		"street": "Ulica Bukowa",
		"city": "Wałcz",
		"district": "\"wałecki",
		"postcode": "zachodniopomorskie"
	},
	{
		"lon": "16.4602062",
		"lat": "53.2758757",
		"number": "24",
		"street": "Ulica Chopina",
		"city": "Wałcz",
		"district": "\"wałecki",
		"postcode": "zachodniopomorskie"
	},
	{
		"lon": "16.4589277",
		"lat": "53.2762907",
		"number": "9",
		"street": "Ulica Ogrodowa",
		"city": "Wałcz",
		"district": "\"wałecki",
		"postcode": "zachodniopomorskie"
	},
	{
		"lon": "16.4554052",
		"lat": "53.2776415",
		"number": "21",
		"street": "Ulica Urocza",
		"city": "Wałcz",
		"district": "\"wałecki",
		"postcode": "zachodniopomorskie"
	},
	{
		"lon": "16.4529406",
		"lat": "53.2800617",
		"number": "20",
		"street": "Ulica Wilcza",
		"city": "Wałcz",
		"district": "\"wałecki",
		"postcode": "zachodniopomorskie"
	},
	{
		"lon": "16.4542711",
		"lat": "53.2751393",
		"number": "47",
		"street": "Ulica Chłodna",
		"city": "Wałcz",
		"district": "\"wałecki",
		"postcode": "zachodniopomorskie"
	},
	{
		"lon": "16.4877978",
		"lat": "53.2804313",
		"number": "3",
		"street": "Ulica Poznańska",
		"city": "Wałcz",
		"district": "\"wałecki",
		"postcode": "zachodniopomorskie"
	},
	{
		"lon": "16.4864801",
		"lat": "53.2802645",
		"number": "29",
		"street": "Ulica Zaułek Chełmiński",
		"city": "Wałcz",
		"district": "\"wałecki",
		"postcode": "zachodniopomorskie"
	},
	{
		"lon": "16.484177",
		"lat": "53.281506",
		"number": "12",
		"street": "Ulica Piaskowa",
		"city": "Wałcz",
		"district": "\"wałecki",
		"postcode": "zachodniopomorskie"
	},
	{
		"lon": "16.4806632",
		"lat": "53.2776499",
		"number": "46",
		"street": "Ulica 1 Maja",
		"city": "Wałcz",
		"district": "\"wałecki",
		"postcode": "zachodniopomorskie"
	},
	{
		"lon": "16.4791433",
		"lat": "53.2734132",
		"number": "3",
		"street": "Ulica Dworcowa",
		"city": "Wałcz",
		"district": "\"wałecki",
		"postcode": "zachodniopomorskie"
	},
	{
		"lon": "16.4800424",
		"lat": "53.274655",
		"number": "5",
		"street": "Ulica Aleja Tysiąclecia",
		"city": "Wałcz",
		"district": "\"wałecki",
		"postcode": "zachodniopomorskie"
	},
	{
		"lon": "16.4747158",
		"lat": "53.2740553",
		"number": "4",
		"street": "Ulica Kościuszki",
		"city": "Wałcz",
		"district": "\"wałecki",
		"postcode": "zachodniopomorskie"
	},
	{
		"lon": "16.4756685",
		"lat": "53.2785289",
		"number": "12b",
		"street": "Ulica Aleja Tysiąclecia",
		"city": "Wałcz",
		"district": "\"wałecki",
		"postcode": "zachodniopomorskie"
	},
	{
		"lon": "16.4714833",
		"lat": "53.2745953",
		"number": "11a",
		"street": "Ulica Dąbrowskiego",
		"city": "Wałcz",
		"district": "\"wałecki",
		"postcode": "zachodniopomorskie"
	},
	{
		"lon": "16.4704672",
		"lat": "53.2765603",
		"number": "16",
		"street": "Ulica 3 Maja",
		"city": "Wałcz",
		"district": "\"wałecki",
		"postcode": "zachodniopomorskie"
	},
	{
		"lon": "16.5697725",
		"lat": "53.3471514",
		"number": "11",
		"street": "Ulica Szkolna",
		"city": "Szwecja",
		"district": "\"wałecki",
		"postcode": "zachodniopomorskie"
	},
	{
		"lon": "16.5717035",
		"lat": "53.3410459",
		"number": "5",
		"street": "Ulica Górna",
		"city": "Szwecja",
		"district": "\"wałecki",
		"postcode": "zachodniopomorskie"
	},
	{
		"lon": "16.4849226",
		"lat": "53.2711435",
		"number": "55",
		"street": "Ulica Południowa",
		"city": "Wałcz",
		"district": "\"wałecki",
		"postcode": "zachodniopomorskie"
	},
	{
		"lon": "16.5728338",
		"lat": "53.3515705",
		"number": "20",
		"street": "Ulica Kościelna",
		"city": "Szwecja",
		"district": "\"wałecki",
		"postcode": "zachodniopomorskie"
	},
	{
		"lon": "16.4134748",
		"lat": "53.3019342",
		"number": "31",
		"street": "Ulica Chrząstkowo",
		"city": "Wałcz",
		"district": "\"wałecki",
		"postcode": "zachodniopomorskie"
	},
	{
		"lon": "16.7101222",
		"lat": "53.6741074",
		"number": "14",
		"street": "Ulica Miodowa",
		"city": "Szczecinek",
		"district": "\"szczecinecki",
		"postcode": "zachodniopomorskie"
	},
	{
		"lon": "15.7740169",
		"lat": "53.7785311",
		"number": "11",
		"street": "Ulica 3 Marca",
		"city": "Świdwin",
		"district": "\"świdwiński",
		"postcode": "zachodniopomorskie"
	},
	{
		"lon": "15.7738822",
		"lat": "53.7740999",
		"number": "2",
		"street": "Ulica Podwale",
		"city": "Świdwin",
		"district": "\"świdwiński",
		"postcode": "zachodniopomorskie"
	},
	{
		"lon": "15.7737958",
		"lat": "53.7771747",
		"number": "2",
		"street": "Ulica 3 Marca",
		"city": "Świdwin",
		"district": "\"świdwiński",
		"postcode": "zachodniopomorskie"
	},
	{
		"lon": "15.772686",
		"lat": "53.775274",
		"number": "28",
		"street": "Ulica 1 Maja",
		"city": "Świdwin",
		"district": "\"świdwiński",
		"postcode": "zachodniopomorskie"
	},
	{
		"lon": "15.7733687",
		"lat": "53.772978",
		"number": "3",
		"street": "Ulica Nowomiejska",
		"city": "Świdwin",
		"district": "\"świdwiński",
		"postcode": "zachodniopomorskie"
	},
	{
		"lon": "15.7689811",
		"lat": "53.7725441",
		"number": "17",
		"street": "Ulica Niedziałkowskiego",
		"city": "Świdwin",
		"district": "\"świdwiński",
		"postcode": "zachodniopomorskie"
	},
	{
		"lon": "15.7729018",
		"lat": "53.7805562",
		"number": "19",
		"street": "Plac Plac Lotników",
		"city": "Świdwin",
		"district": "\"świdwiński",
		"postcode": "zachodniopomorskie"
	},
	{
		"lon": "15.7622835",
		"lat": "53.7711839",
		"number": "2",
		"street": "Ulica Opolska",
		"city": "Świdwin",
		"district": "\"świdwiński",
		"postcode": "zachodniopomorskie"
	},
	{
		"lon": "15.7619779",
		"lat": "53.7707085",
		"number": "82",
		"street": "Ulica Szczecińska",
		"city": "Świdwin",
		"district": "\"świdwiński",
		"postcode": "zachodniopomorskie"
	},
	{
		"lon": "15.759669",
		"lat": "53.7690969",
		"number": "69",
		"street": "Ulica Szczecińska",
		"city": "Świdwin",
		"district": "\"świdwiński",
		"postcode": "zachodniopomorskie"
	},
	{
		"lon": "15.7834835",
		"lat": "53.7815388",
		"number": "3",
		"street": "Ulica Pogodna",
		"city": "Świdwin",
		"district": "\"świdwiński",
		"postcode": "zachodniopomorskie"
	},
	{
		"lon": "15.7818092",
		"lat": "53.7800848",
		"number": "7",
		"street": "Ulica Brawo",
		"city": "Świdwin",
		"district": "\"świdwiński",
		"postcode": "zachodniopomorskie"
	},
	{
		"lon": "15.7836046",
		"lat": "53.776639",
		"number": "24",
		"street": "Ulica Osiedle Chrobrego",
		"city": "Świdwin",
		"district": "\"świdwiński",
		"postcode": "zachodniopomorskie"
	},
	{
		"lon": "15.7911466",
		"lat": "53.7762023",
		"number": "36c",
		"street": "Ulica Połczyńska",
		"city": "Świdwin",
		"district": "\"świdwiński",
		"postcode": "zachodniopomorskie"
	},
	{
		"lon": "15.7838838",
		"lat": "53.7751125",
		"number": "21",
		"street": "Ulica Połczyńska",
		"city": "Świdwin",
		"district": "\"świdwiński",
		"postcode": "zachodniopomorskie"
	},
	{
		"lon": "15.7801164",
		"lat": "53.7699284",
		"number": "10",
		"street": "Ulica Cypriana Norwida",
		"city": "Świdwin",
		"district": "\"świdwiński",
		"postcode": "zachodniopomorskie"
	},
	{
		"lon": "15.7800882",
		"lat": "53.7702864",
		"number": "6",
		"street": "Ulica Jana Kochanowskiego",
		"city": "Świdwin",
		"district": "\"świdwiński",
		"postcode": "zachodniopomorskie"
	},
	{
		"lon": "15.7773933",
		"lat": "53.7785894",
		"number": "28",
		"street": "Ulica Księdza Jerzego Popiełuszki",
		"city": "Świdwin",
		"district": "\"świdwiński",
		"postcode": "zachodniopomorskie"
	},
	{
		"lon": "15.7770141",
		"lat": "53.768398",
		"number": "3a",
		"street": "Ulica Miła",
		"city": "Świdwin",
		"district": "\"świdwiński",
		"postcode": "zachodniopomorskie"
	},
	{
		"lon": "15.7771436",
		"lat": "53.7756817",
		"number": "2",
		"street": "Ulica Armii Krajowej",
		"city": "Świdwin",
		"district": "\"świdwiński",
		"postcode": "zachodniopomorskie"
	},
	{
		"lon": "16.1084233",
		"lat": "53.7644529",
		"number": "22b",
		"street": "Ulica 15 Grudnia",
		"city": "Połczyn-Zdrój",
		"district": "\"świdwiński",
		"postcode": "zachodniopomorskie"
	},
	{
		"lon": "16.104778",
		"lat": "53.7634053",
		"number": "9",
		"street": "Ulica Miodowa",
		"city": "Połczyn-Zdrój",
		"district": "\"świdwiński",
		"postcode": "zachodniopomorskie"
	},
	{
		"lon": "16.0989447",
		"lat": "53.7626107",
		"number": "10b",
		"street": "Ulica Nowa",
		"city": "Połczyn-Zdrój",
		"district": "\"świdwiński",
		"postcode": "zachodniopomorskie"
	},
	{
		"lon": "16.0990632",
		"lat": "53.7671876",
		"number": "7",
		"street": "Plac Plac Tysiąclecia Państwa Polskiego",
		"city": "Połczyn-Zdrój",
		"district": "\"świdwiński",
		"postcode": "zachodniopomorskie"
	},
	{
		"lon": "16.0944904",
		"lat": "53.7663845",
		"number": "22",
		"street": "Ulica Grunwaldzka",
		"city": "Połczyn-Zdrój",
		"district": "\"świdwiński",
		"postcode": "zachodniopomorskie"
	},
	{
		"lon": "16.0941853",
		"lat": "53.765909",
		"number": "14a",
		"street": "Ulica Grunwaldzka",
		"city": "Połczyn-Zdrój",
		"district": "\"świdwiński",
		"postcode": "zachodniopomorskie"
	},
	{
		"lon": "16.0912434",
		"lat": "53.7651302",
		"number": "7",
		"street": "Ulica Zamkowa",
		"city": "Połczyn-Zdrój",
		"district": "\"świdwiński",
		"postcode": "zachodniopomorskie"
	},
	{
		"lon": "16.0897249",
		"lat": "53.7666338",
		"number": "2",
		"street": "Ulica Powstańców Warszawskich",
		"city": "Połczyn-Zdrój",
		"district": "\"świdwiński",
		"postcode": "zachodniopomorskie"
	},
	{
		"lon": "16.0854402",
		"lat": "53.7620947",
		"number": "2",
		"street": "Ulica Sobieskiego",
		"city": "Połczyn-Zdrój",
		"district": "\"świdwiński",
		"postcode": "zachodniopomorskie"
	},
	{
		"lon": "16.43431",
		"lat": "53.8350543",
		"number": "3",
		"street": "Ulica 1 Maja",
		"city": "Grzmiąca",
		"district": "\"szczecinecki",
		"postcode": "zachodniopomorskie"
	},
	{
		"lon": "16.3034689",
		"lat": "53.8426931",
		"number": "3",
		"street": "Ulica 22 Lipca",
		"city": "Krosino",
		"district": "\"szczecinecki",
		"postcode": "zachodniopomorskie"
	},
	{
		"lon": "16.2793232",
		"lat": "53.928981",
		"number": "13",
		"street": "Ulica Lipowa",
		"city": "Tychowo",
		"district": "\"białogardzki",
		"postcode": "zachodniopomorskie"
	},
	{
		"lon": "16.2776262",
		"lat": "53.9282041",
		"number": "2",
		"street": "Ulica Lipowa",
		"city": "Tychowo",
		"district": "\"białogardzki",
		"postcode": "zachodniopomorskie"
	},
	{
		"lon": "16.3560369",
		"lat": "53.746192",
		"number": "31",
		"street": "Ulica Wojska Polskiego",
		"city": "Barwice",
		"district": "\"szczecinecki",
		"postcode": "zachodniopomorskie"
	},
	{
		"lon": "16.3446579",
		"lat": "53.7456949",
		"number": "26d",
		"street": "Ulica Zwycięzców",
		"city": "Barwice",
		"district": "\"szczecinecki",
		"postcode": "zachodniopomorskie"
	},
	{
		"lon": "16.3625481",
		"lat": "53.7352401",
		"number": "41",
		"street": "Ulica 1000-lecia",
		"city": "Barwice",
		"district": "\"szczecinecki",
		"postcode": "zachodniopomorskie"
	},
	{
		"lon": "16.358933",
		"lat": "53.7370232",
		"number": "13",
		"street": "Ulica 1000-lecia",
		"city": "Barwice",
		"district": "\"szczecinecki",
		"postcode": "zachodniopomorskie"
	},
	{
		"lon": "16.3610031",
		"lat": "53.7501666",
		"number": "6",
		"street": "Ulica Nowa",
		"city": "Barwice",
		"district": "\"szczecinecki",
		"postcode": "zachodniopomorskie"
	},
	{
		"lon": "16.3506702",
		"lat": "53.7470187",
		"number": "10",
		"street": "Ulica Harcerska",
		"city": "Barwice",
		"district": "\"szczecinecki",
		"postcode": "zachodniopomorskie"
	},
	{
		"lon": "16.355582",
		"lat": "53.7427466",
		"number": "1",
		"street": "Ulica Bolesława Chrobrego",
		"city": "Barwice",
		"district": "\"szczecinecki",
		"postcode": "zachodniopomorskie"
	},
	{
		"lon": "16.3547883",
		"lat": "53.7409562",
		"number": "33",
		"street": "Ulica Bolesława Chrobrego",
		"city": "Barwice",
		"district": "\"szczecinecki",
		"postcode": "zachodniopomorskie"
	},
	{
		"lon": "16.3546855",
		"lat": "53.7388629",
		"number": "45",
		"street": "Ulica Bolesława Chrobrego",
		"city": "Barwice",
		"district": "\"szczecinecki",
		"postcode": "zachodniopomorskie"
	},
	{
		"lon": "16.1886051",
		"lat": "53.6508878",
		"number": "18",
		"street": "Ulica Białego Orła",
		"city": "Kluczewo",
		"district": "\"drawski",
		"postcode": "zachodniopomorskie"
	},
	{
		"lon": "16.0962319",
		"lat": "53.7597297",
		"number": "35",
		"street": "Ulica Warszawska",
		"city": "Połczyn-Zdrój",
		"district": "\"świdwiński",
		"postcode": "zachodniopomorskie"
	},
	{
		"lon": "16.1838034",
		"lat": "53.6504953",
		"number": "39",
		"street": "Ulica Białego Orła",
		"city": "Kluczewo",
		"district": "\"drawski",
		"postcode": "zachodniopomorskie"
	},
	{
		"lon": "16.0817298",
		"lat": "53.6451003",
		"number": "6",
		"street": "Ulica Mikołaja Kopernika",
		"city": "Nowe Worowo",
		"district": "\"drawski",
		"postcode": "zachodniopomorskie"
	},
	{
		"lon": "16.3822279",
		"lat": "53.5870734",
		"number": "3",
		"street": "Ulica Rakowska",
		"city": "Łubowo",
		"district": "\"szczecinecki",
		"postcode": "zachodniopomorskie"
	},
	{
		"lon": "16.3928643",
		"lat": "53.5857894",
		"number": "7",
		"street": "Ulica Strzelecka",
		"city": "Łubowo",
		"district": "\"szczecinecki",
		"postcode": "zachodniopomorskie"
	},
	{
		"lon": "16.3966455",
		"lat": "53.5882248",
		"number": "8",
		"street": "Ulica Kościuszki",
		"city": "Łubowo",
		"district": "\"szczecinecki",
		"postcode": "zachodniopomorskie"
	},
	{
		"lon": "15.8239644",
		"lat": "53.553461",
		"number": "25",
		"street": "Ulica Połczyńska",
		"city": "Drawsko Pomorskie",
		"district": "\"drawski",
		"postcode": "zachodniopomorskie"
	},
	{
		"lon": "15.8121562",
		"lat": "53.5442453",
		"number": "12",
		"street": "Ulica Juliusza Kossaka",
		"city": "Drawsko Pomorskie",
		"district": "\"drawski",
		"postcode": "zachodniopomorskie"
	},
	{
		"lon": "15.8131932",
		"lat": "53.5432753",
		"number": "3",
		"street": "Ulica Juliana Fałata",
		"city": "Drawsko Pomorskie",
		"district": "\"drawski",
		"postcode": "zachodniopomorskie"
	},